addr_full,brand,city,country,extras,lat,lon,name,opening_hours,phone,postcode,ref,state,website
Rue Denis Papin,Darty,Bègles,FR,"{'brand': 'Darty', 'fascia': 'Darty', 'category': 'Retail', 'edit_date': '2025-03-12', 'lat_lon_source': 'website'}",44.7950641,-0.5330968,DARTY Bordeaux Bègles,"{'opening_hours': {'Mon': '09:30 - 19:30', 'Tue': '09:30 - 19:30', 'Wed': '09:30 - 19:30', 'Thu': '09:30 - 19:30', 'Fri': '09:30 - 19:30', 'Sat': '09:00 - 19:30'}}",+33 892 01 10 10,33130,23,,https://magasin.darty.com/23-darty-bordeaux-begles
Z.A.C. des Près Parc des expositions,Darty,Andelnans,FR,"{'brand': 'Darty', 'fascia': 'Darty', 'category': 'Retail', 'edit_date': '2025-03-12', 'lat_lon_source': 'website'}",47.6083051,6.8604255,DARTY Belfort,"{'opening_hours': {'Mon': '09:30 - 19:00', 'Tue': '09:30 - 19:00', 'Wed': '09:30 - 19:00', 'Thu': '09:30 - 19:00', 'Fri': '09:30 - 19:00', 'Sat': '09:30 - 19:00'}}",+33 892 01 10 10,90400,24,,https://magasin.darty.com/24-darty-belfort
"25, boulevard de Belleville",Darty,Paris,FR,"{'brand': 'Darty', 'fascia': 'Darty', 'category': 'Retail', 'edit_date': '2025-03-12', 'lat_lon_source': 'website'}",48.8685527,2.3805366,DARTY Belleville,"{'opening_hours': {'Mon': '10:00 - 19:30', 'Tue': '10:00 - 19:30', 'Wed': '10:00 - 19:30', 'Thu': '10:00 - 19:30', 'Fri': '10:00 - 19:30', 'Sat': '10:00 - 19:30'}}",+33 892 01 10 10,75011,25,,https://magasin.darty.com/25-darty-belleville
"29, rue Neuve Tolbiac",Darty,Paris,FR,"{'brand': 'Darty', 'fascia': 'Darty', 'category': 'Retail', 'edit_date': '2025-03-12', 'lat_lon_source': 'website'}",48.8313048,2.3776562,DARTY Bibliotheque Nationale de France,"{'opening_hours': {'Mon': '10:00 - 20:00', 'Tue': '10:00 - 20:00', 'Wed': '10:00 - 20:00', 'Thu': '10:00 - 20:00', 'Fri': '10:00 - 20:00', 'Sat': '10:00 - 19:30', 'Sun': '11:00 - 19:00'}}",+33 892 01 10 10,75013,29,,https://magasin.darty.com/29-darty-bibliotheque-nationale-de-france
Z.A.C. de la Pioline Les Milles,Darty,Aix-en-Provence,FR,"{'brand': 'Darty', 'fascia': 'Darty', 'category': 'Retail', 'edit_date': '2025-03-12', 'lat_lon_source': 'website'}",43.5067558,5.4012651,DARTY Aix-En-Provence,"{'opening_hours': {'Mon': '09:30 - 19:30', 'Tue': '09:30 - 19:30', 'Wed': '09:30 - 19:30', 'Thu': '09:30 - 19:30', 'Fri': '09:30 - 19:30', 'Sat': '09:30 - 19:30'}}",+33 892 01 10 10,13290,3,,https://magasin.darty.com/3-darty-aix-en-provence
"364, rue Lavoisier",Darty,Vineuil,FR,"{'brand': 'Darty', 'fascia': 'Darty', 'category': 'Retail', 'edit_date': '2025-03-12', 'lat_lon_source': 'website'}",47.5722305,1.3706394,DARTY Blois,"{'opening_hours': {'Mon': '09:30 - 19:00', 'Tue': '09:30 - 19:00', 'Wed': '09:30 - 19:00', 'Thu': '09:30 - 19:00', 'Fri': '09:30 - 19:00', 'Sat': '09:30 - 19:30'}}",+33 892 01 10 10,41350,30,,https://magasin.darty.com/30-darty-blois
"143, avenue Gallieni",Darty,Bondy,FR,"{'brand': 'Darty', 'fascia': 'Darty', 'category': 'Retail', 'edit_date': '2025-03-12', 'lat_lon_source': 'website'}",48.9069984,2.4837024,DARTY Bondy,"{'opening_hours': {'Mon': '10:00 - 19:30', 'Tue': '10:00 - 19:30', 'Wed': '10:00 - 19:30', 'Thu': '10:00 - 19:30', 'Fri': '10:00 - 19:30', 'Sat': '10:00 - 19:30', 'Sun': '10:00 - 19:30'}}",+33 892 01 10 10,93140,31,,https://magasin.darty.com/31-darty-bondy
Rue Kérélisa,Darty,Saint-Martin-des-Champs,FR,"{'brand': 'Darty', 'fascia': 'Darty', 'category': 'Retail', 'edit_date': '2025-03-12', 'lat_lon_source': 'website'}",48.5732033,-3.8561873,DARTY Morlaix,"{'opening_hours': {'Mon': '09:30 - 19:00', 'Tue': '09:30 - 19:00', 'Wed': '09:30 - 19:00', 'Thu': '09:30 - 19:00', 'Fri': '09:30 - 19:00', 'Sat': '09:30 - 19:00'}}",+33 892 01 10 10,29600,324,,https://magasin.darty.com/324-darty-morlaix
"1-3, avenue du Bicentenaire",Darty,Bonneuil-sur-Marne,FR,"{'brand': 'Darty', 'fascia': 'Darty', 'category': 'Retail', 'edit_date': '2025-03-12', 'lat_lon_source': 'website'}",48.7666037,2.4906162,DARTY Bonneuil,"{'opening_hours': {'Mon': '10:00 - 19:30', 'Tue': '10:00 - 19:30', 'Wed': '10:00 - 19:30', 'Thu': '10:00 - 19:30', 'Fri': '10:00 - 19:30', 'Sat': '10:00 - 19:30', 'Sun': '10:00 - 19:30'}}",+33 892 01 10 10,94380,370,,https://magasin.darty.com/370-darty-bonneuil
7 rue André Colin,Darty,Brest,FR,"{'brand': 'Darty', 'fascia': 'Darty', 'category': 'Retail', 'edit_date': '2025-03-12', 'lat_lon_source': 'website'}",48.4265114,-4.4680397,DARTY Brest,"{'opening_hours': {'Mon': '09:30 - 19:30', 'Tue': '09:30 - 19:30', 'Wed': '09:30 - 19:30', 'Thu': '09:30 - 19:30', 'Fri': '09:30 - 19:30', 'Sat': '09:30 - 19:30'}}",+33 892 01 10 10,29200,38,,https://magasin.darty.com/38-darty-brest
Zone commerciale le petit Coudray,Darty,Arconnay,FR,"{'brand': 'Darty', 'fascia': 'Darty', 'category': 'Retail', 'edit_date': '2025-03-12', 'lat_lon_source': 'website'}",48.4061573,0.0884437,DARTY Alençon,"{'opening_hours': {'Mon': '10:00 - 19:00', 'Tue': '10:00 - 19:00', 'Wed': '10:00 - 19:00', 'Thu': '10:00 - 19:00', 'Fri': '10:00 - 19:00', 'Sat': '09:30 - 19:00'}}",+33 892 01 10 10,72610,4,,https://magasin.darty.com/4-darty-alencon
Avenue Pierre Mendès-France,Darty,Brive-la-Gaillarde,FR,"{'brand': 'Darty', 'fascia': 'Darty', 'category': 'Retail', 'edit_date': '2025-03-12', 'lat_lon_source': 'website'}",45.1432459,1.4737137,DARTY Brive,"{'opening_hours': {'Mon': '09:30 - 19:30', 'Tue': '09:30 - 19:30', 'Wed': '09:30 - 19:30', 'Thu': '09:30 - 19:30', 'Fri': '09:30 - 19:30', 'Sat': '09:30 - 19:30'}}",+33 892 01 10 10,19100,39,,https://magasin.darty.com/39-darty-brive
Plan de Campagne,Darty,Cabriès,FR,"{'brand': 'Darty', 'fascia': 'Darty', 'category': 'Retail', 'edit_date': '2025-03-12', 'lat_lon_source': 'website'}",43.4191263,5.3632052,DARTY Plan de Campagne,"{'opening_hours': {'Mon': '10:00 - 19:30', 'Tue': '10:00 - 19:30', 'Wed': '10:00 - 19:30', 'Thu': '10:00 - 19:30', 'Fri': '10:00 - 19:30', 'Sat': '10:00 - 19:30', 'Sun': '10:00 - 19:30'}}",+33 892 01 10 10,13480,41,,https://magasin.darty.com/41-darty-plan-de-campagne
"2, avenue Descartes",Darty,Beauvais,FR,"{'brand': 'Darty', 'fascia': 'Darty', 'category': 'Retail', 'edit_date': '2025-03-12', 'lat_lon_source': 'website'}",49.4090536,2.1138709,DARTY Beauvais,"{'opening_hours': {'Mon': '09:30 - 19:30', 'Tue': '09:30 - 19:30', 'Wed': '09:30 - 19:30', 'Thu': '09:30 - 19:30', 'Fri': '09:30 - 19:30', 'Sat': '09:30 - 19:30'}}",+33 892 01 10 10,60000,22,,https://magasin.darty.com/22-darty-beauvais
Rue René Char,Darty,Besancon,FR,"{'brand': 'Darty', 'fascia': 'Darty', 'category': 'Retail', 'edit_date': '2025-03-12', 'lat_lon_source': 'website'}",47.218072,5.9512612,DARTY Besancon 2,"{'opening_hours': {'Mon': '09:30 - 19:30', 'Tue': '09:30 - 19:30', 'Wed': '09:30 - 19:30', 'Thu': '09:30 - 19:30', 'Fri': '09:30 - 19:30', 'Sat': '09:30 - 19:30'}}",+33 892 01 10 10,25000,27,,https://magasin.darty.com/27-darty-besancon-2
"3, rue du Picardan",Darty,Béziers,FR,"{'brand': 'Darty', 'fascia': 'Darty', 'category': 'Retail', 'edit_date': '2025-03-12', 'lat_lon_source': 'website'}",43.3405103,3.265828,DARTY Béziers,"{'opening_hours': {'Mon': '09:30 - 19:30', 'Tue': '09:30 - 19:30', 'Wed': '09:30 - 19:30', 'Thu': '09:30 - 19:30', 'Fri': '09:30 - 19:30', 'Sat': '09:30 - 19:30'}}",+33 892 01 10 10,34500,28,,https://magasin.darty.com/28-darty-beziers
Avenue de Pince Vent / avenue de l'Hippodrome,Darty,Chennevières-sur-Marne,FR,"{'brand': 'Darty', 'fascia': 'Darty', 'category': 'Retail', 'edit_date': '2025-03-12', 'lat_lon_source': 'website'}",48.7940341,2.5595928,DARTY Ormesson,"{'opening_hours': {'Mon': '10:00 - 20:00', 'Tue': '10:00 - 20:00', 'Wed': '10:00 - 20:00', 'Thu': '10:00 - 20:00', 'Fri': '10:00 - 20:00', 'Sat': '10:00 - 20:00', 'Sun': '10:00 - 19:30'}}",+33 892 01 10 10,94430,244,,https://magasin.darty.com/244-darty-ormesson
Allée de Coat a Noz,Darty,Chantepie,FR,"{'brand': 'Darty', 'fascia': 'Darty', 'category': 'Retail', 'edit_date': '2025-03-12', 'lat_lon_source': 'website'}",48.085165,-1.628783,DARTY Rennes Chantepie,"{'opening_hours': {'Mon': '09:30 - 19:00', 'Tue': '09:30 - 19:00', 'Wed': '09:30 - 19:00', 'Thu': '09:30 - 19:00', 'Fri': '09:30 - 19:00', 'Sat': '09:30 - 19:30'}}",+33 892 01 10 10,35135,286,,https://magasin.darty.com/286-darty-rennes-chantepie
"1, rue Dugay Trouin",Darty,Bordeaux,FR,"{'brand': 'Darty', 'fascia': 'Darty', 'category': 'Retail', 'edit_date': '2025-03-12', 'lat_lon_source': 'website'}",44.879057,-0.560882,DARTY Bordeaux Le Lac,"{'opening_hours': {'Mon': '09:30 - 19:30', 'Tue': '09:30 - 19:30', 'Wed': '09:30 - 19:30', 'Thu': '09:30 - 19:30', 'Fri': '09:30 - 19:30', 'Sat': '09:30 - 19:30'}}",+33 892 01 10 10,33300,32,,https://magasin.darty.com/32-darty-bordeaux-le-lac
"122, avenue du Général Leclerc",Darty,Boulogne-Billancourt,FR,"{'brand': 'Darty', 'fascia': 'Darty', 'category': 'Retail', 'edit_date': '2025-03-12', 'lat_lon_source': 'website'}",48.8306909,2.2320178,DARTY Boulogne,"{'opening_hours': {'Mon': '10:00 - 19:30', 'Tue': '10:00 - 19:30', 'Wed': '10:00 - 19:30', 'Thu': '10:00 - 19:30', 'Fri': '10:00 - 19:30', 'Sat': '10:00 - 19:30', 'Sun': '11:00 - 19:00'}}",+33 892 01 10 10,92100,33,,https://magasin.darty.com/33-darty-boulogne
"89, avenue du Général Leclerc",Darty,Paris,FR,"{'brand': 'Darty', 'fascia': 'Darty', 'category': 'Retail', 'edit_date': '2025-03-12', 'lat_lon_source': 'website'}",48.8269139,2.3268418,DARTY Alesia,"{'opening_hours': {'Mon': '10:00 - 19:30', 'Tue': '10:00 - 19:30', 'Wed': '10:00 - 19:30', 'Thu': '10:00 - 19:30', 'Fri': '10:00 - 19:30', 'Sat': '10:00 - 19:30'}}",+33 892 01 10 10,75014,373,,https://magasin.darty.com/373-darty-alesia
"147 bis, rue Cardinet",Darty,Paris,FR,"{'brand': 'Darty', 'fascia': 'Darty', 'category': 'Retail', 'edit_date': '2025-03-12', 'lat_lon_source': 'website'}",48.8893094,2.3148585,DARTY Batignolles,"{'opening_hours': {'Mon': '10:00 - 19:30', 'Tue': '10:00 - 19:30', 'Wed': '10:00 - 19:30', 'Thu': '10:00 - 19:30', 'Fri': '10:00 - 19:30', 'Sat': '10:00 - 19:30'}}",+33 892 01 10 10,75017,403,,https://magasin.darty.com/403-darty-batignolles
Rue Paul Langevin,Darty,Bron,FR,"{'brand': 'Darty', 'fascia': 'Darty', 'category': 'Retail', 'edit_date': '2025-03-12', 'lat_lon_source': 'website'}",45.7213405,4.9198091,DARTY Bron Champ Du Pont,"{'opening_hours': {'Mon': '09:30 - 19:30', 'Tue': '09:30 - 19:30', 'Wed': '09:30 - 19:30', 'Thu': '09:30 - 19:30', 'Fri': '09:30 - 19:30', 'Sat': '09:30 - 19:30'}}",+33 892 01 10 10,69500,40,,https://magasin.darty.com/40-darty-bron-champ-du-pont
"27, boulevard Irène Joliot Curie",Darty,Bourg-en-Bresse,FR,"{'brand': 'Darty', 'fascia': 'Darty', 'category': 'Retail', 'edit_date': '2025-03-12', 'lat_lon_source': 'website'}",46.2090965,5.2353656,DARTY Bourg-En-Bresse,"{'opening_hours': {'Mon': '09:30 - 19:00', 'Tue': '09:30 - 19:00', 'Wed': '09:30 - 19:00', 'Thu': '09:30 - 19:00', 'Fri': '09:30 - 19:00', 'Sat': '09:30 - 19:00'}}",+33 892 01 10 10,01000,35,,https://magasin.darty.com/35-darty-bourg-en-bresse
Haut de Galy,Darty,Aulnay-sous-Bois,FR,"{'brand': 'Darty', 'fascia': 'Darty', 'category': 'Retail', 'edit_date': '2025-03-12', 'lat_lon_source': 'website'}",48.9565934,2.4752066,DARTY Parinor,"{'opening_hours': {'Mon': '10:00 - 20:00', 'Tue': '10:00 - 20:00', 'Wed': '10:00 - 20:00', 'Thu': '10:00 - 20:00', 'Fri': '10:00 - 20:00', 'Sat': '10:00 - 20:00', 'Sun': '11:00 - 19:00'}}",+33 892 01 10 10,93600,136,,https://magasin.darty.com/136-darty-parinor
Rue Francis Carco,Darty,Plaisir,FR,"{'brand': 'Darty', 'fascia': 'Darty', 'category': 'Retail', 'edit_date': '2025-03-12', 'lat_lon_source': 'website'}",48.826476,1.966304,DARTY Plaisir,"{'opening_hours': {'Mon': '10:00 - 19:30', 'Tue': '10:00 - 19:30', 'Wed': '10:00 - 19:30', 'Thu': '10:00 - 19:30', 'Fri': '10:00 - 19:30', 'Sat': '10:00 - 19:30', 'Sun': '10:00 - 19:30'}}",+33 892 01 10 10,78370,141,,https://magasin.darty.com/141-darty-plaisir
"14, allée du Haut-Poitou",Darty,Chasseneuil-du-Poitou,FR,"{'brand': 'Darty', 'fascia': 'Darty', 'category': 'Retail', 'edit_date': '2025-03-12', 'lat_lon_source': 'website'}",46.6479854,0.3618214,DARTY Poitiers,"{'opening_hours': {'Mon': '09:30 - 19:30', 'Tue': '09:30 - 19:30', 'Wed': '09:30 - 19:30', 'Thu': '09:30 - 19:30', 'Fri': '09:30 - 19:30', 'Sat': '09:30 - 19:30'}}",+33 892 01 10 10,86360,142,,https://magasin.darty.com/142-darty-poitiers
"13C, boulevard du Grand Marché",Darty,Quetigny,FR,"{'brand': 'Darty', 'fascia': 'Darty', 'category': 'Retail', 'edit_date': '2025-03-12', 'lat_lon_source': 'website'}",47.3089663,5.1014271,DARTY Quetigny,"{'opening_hours': {'Mon': '09:30 - 19:30', 'Tue': '09:30 - 19:30', 'Wed': '09:30 - 19:30', 'Thu': '09:30 - 19:30', 'Fri': '09:30 - 19:30', 'Sat': '09:30 - 19:30'}}",+33 892 01 10 10,21800,145,,https://magasin.darty.com/145-darty-quetigny
"1, avenue des Palanques RN 20",Darty,Portet-sur-Garonne,FR,"{'brand': 'Darty', 'fascia': 'Darty', 'category': 'Retail', 'edit_date': '2025-03-12', 'lat_lon_source': 'website'}",43.5318194,1.4059816,DARTY Toulouse Portet,"{'opening_hours': {'Mon': '09:30 - 19:30', 'Tue': '09:30 - 19:30', 'Wed': '09:30 - 19:30', 'Thu': '09:30 - 19:30', 'Fri': '09:30 - 19:30', 'Sat': '09:30 - 19:30'}}",+33 892 01 10 10,31120,143,,https://magasin.darty.com/143-darty-toulouse-portet
Quartier Les Salles Centre commercial RN 7,Darty,Puget-sur-Argens,FR,"{'brand': 'Darty', 'fascia': 'Darty', 'category': 'Retail', 'edit_date': '2025-03-12', 'lat_lon_source': 'website'}",43.4451642,6.7032041,DARTY Puget sur Argens,"{'opening_hours': {'Mon': '09:30 - 19:30', 'Tue': '09:30 - 19:30', 'Wed': '09:30 - 19:30', 'Thu': '09:30 - 19:30', 'Fri': '09:30 - 19:30', 'Sat': '09:30 - 19:30'}}",+33 892 01 10 10,83480,144,,https://magasin.darty.com/144-darty-puget-sur-argens
"5, rue de Gourvily",Darty,Quimper,FR,"{'brand': 'Darty', 'fascia': 'Darty', 'category': 'Retail', 'edit_date': '2025-03-12', 'lat_lon_source': 'website'}",48.015643,-4.083975,DARTY Quimper,"{'opening_hours': {'Mon': '09:30 - 19:30', 'Tue': '09:30 - 19:30', 'Wed': '09:30 - 19:30', 'Thu': '09:30 - 19:30', 'Fri': '09:30 - 19:30', 'Sat': '09:30 - 19:30'}}",+33 892 01 10 10,29000,146,,https://magasin.darty.com/146-darty-quimper
Route de Saint-Malo,Darty,Saint-Grégoire,FR,"{'brand': 'Darty', 'fascia': 'Darty', 'category': 'Retail', 'edit_date': '2025-03-12', 'lat_lon_source': 'website'}",48.1342306,-1.6933028,DARTY Rennes St Grégoire,"{'opening_hours': {'Mon': '09:30 - 19:30', 'Tue': '09:30 - 19:30', 'Wed': '09:30 - 19:30', 'Thu': '09:30 - 19:30', 'Fri': '09:30 - 19:30', 'Sat': '09:30 - 19:30'}}",+33 892 01 10 10,35760,148,,https://magasin.darty.com/148-darty-rennes-st-gregoire
"1, avenue de la République",Darty,Paris,FR,"{'brand': 'Darty', 'fascia': 'Darty', 'category': 'Retail', 'edit_date': '2025-03-12', 'lat_lon_source': 'website'}",48.8671134,2.3660679,DARTY Republique,"{'opening_hours': {'Mon': '10:00 - 19:30', 'Tue': '10:00 - 19:30', 'Wed': '10:00 - 19:30', 'Thu': '10:00 - 19:30', 'Fri': '10:00 - 19:30', 'Sat': '10:00 - 19:30'}}",+33 892 01 10 10,75011,149,,https://magasin.darty.com/149-darty-republique
"925, avenue d'Espagne",Darty,Perpignan,FR,"{'brand': 'Darty', 'fascia': 'Darty', 'category': 'Retail', 'edit_date': '2025-03-12', 'lat_lon_source': 'website'}",42.6804027,2.8942719,DARTY Perpignan,"{'opening_hours': {'Mon': '09:30 - 19:30', 'Tue': '09:30 - 19:30', 'Wed': '09:30 - 19:30', 'Thu': '09:30 - 19:30', 'Fri': '09:30 - 19:30', 'Sat': '09:30 - 19:30'}}",+33 892 01 10 10,66100,140,,https://magasin.darty.com/140-darty-perpignan
"106, avenue du Vieux Chemin de Saint Denis",Darty,Gennevilliers,FR,"{'brand': 'Darty', 'fascia': 'Darty', 'category': 'Retail', 'edit_date': '2025-03-12', 'lat_lon_source': 'website'}",48.9314408,2.3191711,DARTY Gennevilliers,"{'opening_hours': {'Mon': '10:00 - 20:00', 'Tue': '10:00 - 20:00', 'Wed': '10:00 - 20:00', 'Thu': '10:00 - 20:00', 'Fri': '10:00 - 20:00', 'Sat': '10:00 - 20:00', 'Sun': '10:00 - 19:00'}}",+33 892 01 10 10,92230,15,,https://magasin.darty.com/15-darty-gennevilliers
"7, avenue Charles de Refuge",Darty,Saint-André-Les-Vergers,FR,"{'brand': 'Darty', 'fascia': 'Darty', 'category': 'Retail', 'edit_date': '2025-03-12', 'lat_lon_source': 'website'}",48.2817436,4.0548836,DARTY Troyes,"{'opening_hours': {'Mon': '09:30 - 12:30, 14:00 - 19:00', 'Tue': '09:30 - 12:30, 14:00 - 19:00', 'Wed': '09:30 - 12:30, 14:00 - 19:00', 'Thu': '09:30 - 12:30, 14:00 - 19:00', 'Fri': '09:30 - 12:30, 14:00 - 19:00', 'Sat': '09:30 - 19:00'}}",+33 892 01 10 10,10120,182,,https://magasin.darty.com/182-darty-troyes
"30, avenue de la Ferme Briarde",Darty,Montevrain,FR,"{'brand': 'Darty', 'fascia': 'Darty', 'category': 'Retail', 'edit_date': '2025-03-12', 'lat_lon_source': 'website'}",48.8549442,2.7539421,DARTY Le Clos du Chêne,"{'opening_hours': {'Mon': '10:00 - 19:30', 'Tue': '10:00 - 19:30', 'Wed': '10:00 - 19:30', 'Thu': '10:00 - 19:30', 'Fri': '10:00 - 19:30', 'Sat': '10:00 - 19:30', 'Sun': '10:00 - 19:00'}}",+33 892 01 10 10,77144,183,,https://magasin.darty.com/183-darty-le-clos-du-chene
Rue Théophraste Renaudot,Darty,Vannes,FR,"{'brand': 'Darty', 'fascia': 'Darty', 'category': 'Retail', 'edit_date': '2025-03-12', 'lat_lon_source': 'website'}",47.6624721,-2.7856997,DARTY Vannes,"{'opening_hours': {'Mon': '09:30 - 19:30', 'Tue': '09:30 - 19:30', 'Wed': '09:30 - 19:30', 'Thu': '09:30 - 19:30', 'Fri': '09:30 - 19:30', 'Sat': '09:30 - 19:30'}}",+33 892 01 10 10,56000,185,,https://magasin.darty.com/185-darty-vannes
"3, rue de la Plaine",Darty,Villabé,FR,"{'brand': 'Darty', 'fascia': 'Darty', 'category': 'Retail', 'edit_date': '2025-03-12', 'lat_lon_source': 'website'}",48.5877405,2.4473028,DARTY Villabe,"{'opening_hours': {'Mon': '10:00 - 19:30', 'Tue': '10:00 - 19:30', 'Wed': '10:00 - 19:30', 'Thu': '10:00 - 19:30', 'Fri': '10:00 - 19:30', 'Sat': '10:00 - 19:30', 'Sun': '10:00 - 19:00'}}",+33 892 01 10 10,91100,189,,https://magasin.darty.com/189-darty-villabe
"160, avenue Marcou Delanglade",Darty,Avignon,FR,"{'brand': 'Darty', 'fascia': 'Darty', 'category': 'Retail', 'edit_date': '2025-03-12', 'lat_lon_source': 'website'}",43.9205778,4.8683936,DARTY Avignon Sud,"{'opening_hours': {'Mon': '09:30 - 19:00', 'Tue': '09:30 - 19:00', 'Wed': '09:30 - 19:00', 'Thu': '09:30 - 19:00', 'Fri': '09:30 - 19:00', 'Sat': '09:30 - 19:00'}}",+33 892 01 10 10,84000,19,,https://magasin.darty.com/19-darty-avignon-sud
Avenue Denis Padovani,Darty,Vitrolles,FR,"{'brand': 'Darty', 'fascia': 'Darty', 'category': 'Retail', 'edit_date': '2025-03-12', 'lat_lon_source': 'website'}",43.4347495,5.2603645,DARTY Vitrolles,"{'opening_hours': {'Mon': '10:00 - 19:30', 'Tue': '10:00 - 19:30', 'Wed': '10:00 - 19:30', 'Thu': '10:00 - 19:30', 'Fri': '10:00 - 19:30', 'Sat': '10:00 - 19:30'}}",+33 892 01 10 10,13127,194,,https://magasin.darty.com/194-darty-vitrolles
"96, rue de Soultz",Darty,Wittenheim,FR,"{'brand': 'Darty', 'fascia': 'Darty', 'category': 'Retail', 'edit_date': '2025-03-12', 'lat_lon_source': 'website'}",47.8067626,7.3151504,DARTY Wittenheim,"{'opening_hours': {'Mon': '09:30 - 19:00', 'Tue': '09:30 - 19:00', 'Wed': '09:30 - 19:00', 'Thu': '09:30 - 19:00', 'Fri': '09:30 - 19:00', 'Sat': '09:30 - 19:00'}}",+33 892 01 10 10,68270,195,,https://magasin.darty.com/195-darty-wittenheim
"7, avenue Charles de Refuge",Darty,Vauxbuin,FR,"{'brand': 'Darty', 'fascia': 'Darty', 'category': 'Retail', 'edit_date': '2025-03-12', 'lat_lon_source': 'website'}",49.357768,3.2957,DARTY Soissons,"{'opening_hours': {'Mon': '10:00 - 19:30', 'Tue': '10:00 - 19:30', 'Wed': '10:00 - 19:30', 'Thu': '10:00 - 19:30', 'Fri': '10:00 - 19:30', 'Sat': '10:00 - 19:30'}}",+33 892 01 10 10,02200,204,,https://magasin.darty.com/204-darty-soissons
Centre commercial du Midi,Darty,Agen,FR,"{'brand': 'Darty', 'fascia': 'Darty', 'category': 'Retail', 'edit_date': '2025-03-12', 'lat_lon_source': 'website'}",44.184696,0.6173103,DARTY Agen,"{'opening_hours': {'Mon': '09:30 - 19:30', 'Tue': '09:30 - 19:30', 'Wed': '09:30 - 19:30', 'Thu': '09:30 - 19:30', 'Fri': '09:30 - 19:30', 'Sat': '09:30 - 19:30'}}",+33 892 01 10 10,47000,2,,https://magasin.darty.com/2-darty-agen
"42, rue des Peupliers",Darty,Epagny-Metz-Tessy,FR,"{'brand': 'Darty', 'fascia': 'Darty', 'category': 'Retail', 'edit_date': '2025-03-12', 'lat_lon_source': 'website'}",45.9351779,6.0820443,DARTY Annecy,"{'opening_hours': {'Mon': '09:30 - 19:30', 'Tue': '09:30 - 19:30', 'Wed': '09:30 - 19:30', 'Thu': '09:30 - 19:30', 'Fri': '09:30 - 19:30', 'Sat': '09:30 - 19:30'}}",+33 892 01 10 10,74330,10,,https://magasin.darty.com/10-darty-annecy
"915, route du Nord",Darty,Montauban,FR,"{'brand': 'Darty', 'fascia': 'Darty', 'category': 'Retail', 'edit_date': '2025-03-12', 'lat_lon_source': 'website'}",44.040694,1.3831181,DARTY Montauban,"{'opening_hours': {'Mon': '09:30 - 19:30', 'Tue': '09:30 - 19:30', 'Wed': '09:30 - 19:30', 'Thu': '09:30 - 19:30', 'Fri': '09:30 - 19:30', 'Sat': '09:30 - 19:30'}}",+33 892 01 10 10,82000,112,,https://magasin.darty.com/112-darty-montauban
Rue de Sans Soucis,Darty,Limonest,FR,"{'brand': 'Darty', 'fascia': 'Darty', 'category': 'Retail', 'edit_date': '2025-03-12', 'lat_lon_source': 'website'}",45.806155,4.776187,DARTY Limonest,"{'opening_hours': {'Mon': '09:30 - 19:30', 'Tue': '09:30 - 19:30', 'Wed': '09:30 - 19:30', 'Thu': '09:30 - 19:30', 'Fri': '09:30 - 19:30', 'Sat': '09:30 - 19:30'}}",+33 892 01 10 10,69760,102,,https://magasin.darty.com/102-darty-limonest
Rue du Beaujolais,Darty,Crêches-sur-Saône,FR,"{'brand': 'Darty', 'fascia': 'Darty', 'category': 'Retail', 'edit_date': '2025-03-12', 'lat_lon_source': 'website'}",46.251227,4.79154,DARTY Macon,"{'opening_hours': {'Mon': '10:00 - 19:00', 'Tue': '10:00 - 19:00', 'Wed': '10:00 - 19:00', 'Thu': '10:00 - 19:00', 'Fri': '10:00 - 19:00', 'Sat': '09:30 - 19:00'}}",+33 892 01 10 10,71680,106,,https://magasin.darty.com/106-darty-macon
"2, rue des Esserts",Darty,Annemasse,FR,"{'brand': 'Darty', 'fascia': 'Darty', 'category': 'Retail', 'edit_date': '2025-03-12', 'lat_lon_source': 'website'}",46.1979026,6.2642354,DARTY Annemasse,"{'opening_hours': {'Mon': '09:30 - 19:30', 'Tue': '09:30 - 19:30', 'Wed': '09:30 - 19:30', 'Thu': '09:30 - 19:30', 'Fri': '09:30 - 19:30', 'Sat': '09:30 - 19:30'}}",+33 892 01 10 10,74100,11,,https://magasin.darty.com/11-darty-annemasse
Zone des Closeaux,Darty,Buchelay,FR,"{'brand': 'Darty', 'fascia': 'Darty', 'category': 'Retail', 'edit_date': '2025-03-12', 'lat_lon_source': 'website'}",48.990064,1.674342,DARTY Mantes,"{'opening_hours': {'Mon': '10:00 - 19:30', 'Tue': '10:00 - 19:30', 'Wed': '10:00 - 19:30', 'Thu': '10:00 - 19:30', 'Fri': '10:00 - 19:30', 'Sat': '10:00 - 19:30', 'Sun': '10:00 - 19:00'}}",+33 892 01 10 10,78200,107,,https://magasin.darty.com/107-darty-mantes
"211, route de Villasavary",Darty,Castelnaudary,FR,"{'brand': 'Darty', 'fascia': 'Darty', 'category': 'Retail', 'edit_date': '2025-03-12', 'lat_lon_source': 'website'}",43.2981558,1.9573298,DARTY Castelnaudary,"{'opening_hours': {'Mon': '10:00 - 12:00, 14:00 - 19:00', 'Tue': '10:00 - 12:00, 14:00 - 19:00', 'Wed': '10:00 - 12:00, 14:00 - 19:00', 'Thu': '10:00 - 12:00, 14:00 - 19:00', 'Fri': '10:00 - 12:00, 14:00 - 19:00', 'Sat': '10:00 - 12:00, 14:00 - 19:00'}}",+33 892 01 10 10,11400,336,,https://magasin.darty.com/336-darty-castelnaudary
"129, avenue de la République",Darty,Chaumont,FR,"{'brand': 'Darty', 'fascia': 'Darty', 'category': 'Retail', 'edit_date': '2025-03-12', 'lat_lon_source': 'website'}",48.0939416,5.1455778,DARTY Chaumont,"{'opening_hours': {'Mon': '10:00 - 12:30, 14:00 - 19:00', 'Tue': '10:00 - 12:30, 14:00 - 19:00', 'Wed': '10:00 - 12:30, 14:00 - 19:00', 'Thu': '10:00 - 12:30, 14:00 - 19:00', 'Fri': '10:00 - 12:30, 14:00 - 19:00', 'Sat': '10:00 - 12:30, 14:00 - 19:00'}}",+33 892 01 10 10,52000,411,,https://magasin.darty.com/411-darty-chaumont
"3, rue Baronne Delort",Darty,Champagnole,FR,"{'brand': 'Darty', 'fascia': 'Darty', 'category': 'Retail', 'edit_date': '2025-03-12', 'lat_lon_source': 'website'}",46.7497638,5.9075501,DARTY Champagnole,"{'opening_hours': {'Mon': '10:00 - 12:00, 14:00 - 19:00', 'Tue': '10:00 - 12:00, 14:00 - 19:00', 'Wed': '10:00 - 12:00, 14:00 - 19:00', 'Thu': '10:00 - 12:00, 14:00 - 19:00', 'Fri': '10:00 - 12:00, 14:00 - 19:00', 'Sat': '10:00 - 12:00, 14:00 - 19:00'}}",+33 892 01 10 10,39300,351,,https://magasin.darty.com/351-darty-champagnole
"6-8, rue du Bochet - Place du Dauphiné",Darty,Tignieu-Jameyzieu,FR,"{'brand': 'Darty', 'fascia': 'Darty', 'category': 'Retail', 'edit_date': '2025-03-12', 'lat_lon_source': 'website'}",45.748123,5.186476,DARTY Tignieu-Jameyzieu,"{'opening_hours': {'Mon': '09:30 - 19:30', 'Tue': '09:30 - 19:30', 'Wed': '09:30 - 19:30', 'Thu': '09:30 - 19:30', 'Fri': '09:30 - 19:30', 'Sat': '09:30 - 19:30'}}",+33 892 01 10 10,38230,366,,https://magasin.darty.com/366-darty-tignieu-jameyzieu
"42, rue Gustave Eiffel",Darty,Crépy-en-Valois,FR,"{'brand': 'Darty', 'fascia': 'Darty', 'category': 'Retail', 'edit_date': '2025-03-12', 'lat_lon_source': 'website'}",49.2236045,2.9090337,DARTY Crépy-en-Valois,"{'opening_hours': {'Mon': '09:30 - 12:30, 14:00 - 19:00', 'Tue': '09:30 - 12:30, 14:00 - 19:00', 'Wed': '09:30 - 12:30, 14:00 - 19:00', 'Thu': '09:30 - 12:30, 14:00 - 19:00', 'Fri': '09:30 - 12:30, 14:00 - 19:00', 'Sat': '09:30 - 19:00'}}",+33 892 01 10 10,60800,364,,https://magasin.darty.com/364-darty-crepy-en-valois
Route de Plomeur,Darty,Pont-L'Abbé,FR,"{'brand': 'Darty', 'fascia': 'Darty', 'category': 'Retail', 'edit_date': '2025-03-12', 'lat_lon_source': 'website'}",47.8535518,-4.2441988,DARTY Pont-l'Abbé,"{'opening_hours': {'Mon': '09:30 - 12:00, 14:00 - 19:00', 'Tue': '09:30 - 12:00, 14:00 - 19:00', 'Wed': '09:30 - 12:00, 14:00 - 19:00', 'Thu': '09:30 - 12:00, 14:00 - 19:00', 'Fri': '09:30 - 12:00, 14:00 - 19:00', 'Sat': '09:30 - 12:00, 14:00 - 19:00'}}",+33 892 01 10 10,29120,359,,https://magasin.darty.com/359-darty-pont-l-abbe
"6, rue Frédéric Aries Lot C La Gravette",Darty,Oloron-Sainte-Marie,FR,"{'brand': 'Darty', 'fascia': 'Darty', 'category': 'Retail', 'edit_date': '2025-03-12', 'lat_lon_source': 'website'}",43.1810035,-0.6170857,DARTY Oloron-Sainte-Marie,"{'opening_hours': {'Mon': '09:30 - 12:30, 14:00 - 19:00', 'Tue': '09:30 - 12:30, 14:00 - 19:00', 'Wed': '09:30 - 12:30, 14:00 - 19:00', 'Thu': '09:30 - 12:30, 14:00 - 19:00', 'Fri': '09:30 - 12:30, 14:00 - 19:00', 'Sat': '09:30 - 19:00'}}",+33 892 01 10 10,64400,355,,https://magasin.darty.com/355-darty-oloron-sainte-marie
Rue France,Darty,Saint-Jean-d'Angely,FR,"{'brand': 'Darty', 'fascia': 'Darty', 'category': 'Retail', 'edit_date': '2025-03-12', 'lat_lon_source': 'website'}",45.944823,-0.517763,DARTY Saint-Jean-D'Angely,"{'opening_hours': {'Mon': '09:30 - 19:00', 'Tue': '09:30 - 19:00', 'Wed': '09:30 - 19:00', 'Thu': '09:30 - 19:00', 'Fri': '09:30 - 19:00', 'Sat': '09:30 - 19:00'}}",+33 892 01 10 10,17400,354,,https://magasin.darty.com/354-darty-saint-jean-d-angely
Lieu-dit les Roquassiers,Darty,Salon-de-Provence,FR,"{'brand': 'Darty', 'fascia': 'Darty', 'category': 'Retail', 'edit_date': '2025-03-12', 'lat_lon_source': 'website'}",43.6260679,5.1203866,DARTY Salon-de-Provence,"{'opening_hours': {'Mon': '09:30 - 19:00', 'Tue': '09:30 - 19:00', 'Wed': '09:30 - 19:00', 'Thu': '09:30 - 19:00', 'Fri': '09:30 - 19:00', 'Sat': '09:30 - 19:00'}}",+33 892 01 10 10,13300,384,,https://magasin.darty.com/384-darty-salon-de-provence
Route de Longwy,Darty,Lexy,FR,"{'brand': 'Darty', 'fascia': 'Darty', 'category': 'Retail', 'edit_date': '2025-03-12', 'lat_lon_source': 'website'}",49.5135854,5.7386593,DARTY Longwy,"{'opening_hours': {'Mon': '10:00 - 19:00', 'Tue': '10:00 - 19:00', 'Wed': '10:00 - 19:00', 'Thu': '10:00 - 19:00', 'Fri': '10:00 - 19:00', 'Sat': '10:00 - 19:00'}}",+33 892 01 10 10,54720,382,,https://magasin.darty.com/382-darty-longwy
Rue Marcel Bisch,Darty,Seltz,FR,"{'brand': 'Darty', 'fascia': 'Darty', 'category': 'Retail', 'edit_date': '2025-03-12', 'lat_lon_source': 'website'}",48.897373957521,8.0913276650817,DARTY Seltz,"{'opening_hours': {'Mon': '08:30 - 12:00, 13:30 - 19:00', 'Tue': '08:30 - 12:00, 13:30 - 19:00', 'Wed': '08:30 - 12:00, 13:30 - 19:00', 'Thu': '08:30 - 12:00, 13:30 - 19:00', 'Fri': '08:30 - 12:00, 13:30 - 19:00', 'Sat': '08:30 - 18:00'}}",+33 892 01 10 10,67470,376,,https://magasin.darty.com/376-darty-seltz
"59, rue du Genépi",Darty,La Mure,FR,"{'brand': 'Darty', 'fascia': 'Darty', 'category': 'Retail', 'edit_date': '2025-03-12', 'lat_lon_source': 'website'}",44.93279,5.783751,DARTY La Mure,"{'opening_hours': {'Mon': '09:30 - 12:00, 14:00 - 18:45', 'Tue': '09:30 - 12:00, 14:00 - 18:45', 'Wed': '09:30 - 12:00, 14:00 - 18:45', 'Thu': '09:30 - 12:00, 14:00 - 18:45', 'Fri': '09:30 - 12:00, 14:00 - 18:45', 'Sat': '09:30 - 12:30, 14:00 - 18:45'}}",+33 892 01 10 10,38350,406,,https://magasin.darty.com/406-darty-la-mure
Route de Gambais,Darty,Maulette,FR,"{'brand': 'Darty', 'fascia': 'Darty', 'category': 'Retail', 'edit_date': '2025-03-12', 'lat_lon_source': 'website'}",48.7901268,1.6264949,DARTY Maulette,"{'opening_hours': {'Mon': '09:30 - 19:30', 'Tue': '09:30 - 19:30', 'Wed': '09:30 - 19:30', 'Thu': '09:30 - 19:30', 'Fri': '09:30 - 19:30', 'Sat': '09:30 - 19:30'}}",+33 892 01 10 10,78550,422,,https://magasin.darty.com/422-darty-maulette
"975, route d'Aix",Darty,Pertuis,FR,"{'brand': 'Darty', 'fascia': 'Darty', 'category': 'Retail', 'edit_date': '2025-03-12', 'lat_lon_source': 'website'}",43.67656,5.49873,DARTY Pertuis,"{'opening_hours': {'Mon': '14:00 - 19:00', 'Tue': '09:30 - 12:30, 14:00 - 19:00', 'Wed': '09:30 - 12:30, 14:00 - 19:00', 'Thu': '09:30 - 12:30, 14:00 - 19:00', 'Fri': '09:30 - 12:30, 14:00 - 19:00', 'Sat': '09:30 - 12:30, 14:00 - 19:00'}}",+33 892 01 10 10,84120,432,,https://magasin.darty.com/432-darty-pertuis
"2, rue Chauveau Lagarde",Darty,Paris,FR,"{'brand': 'Darty', 'fascia': 'Darty', 'category': 'Retail', 'edit_date': '2025-03-12', 'lat_lon_source': 'website'}",48.8712526,2.3242975,DARTY Cuisine La Madeleine,"{'opening_hours': {'Mon': '10:00 - 19:30', 'Tue': '10:00 - 19:30', 'Wed': '10:00 - 19:30', 'Thu': '10:00 - 19:30', 'Fri': '10:00 - 19:30', 'Sat': '10:00 - 20:00', 'Sun': '11:00 - 19:00'}}",+33 892 01 10 10,75008,437,,https://magasin.darty.com/437-darty-cuisine-la-madeleine
Avenue du Chambon,Darty,Le-Puy-en-Velay,FR,"{'brand': 'Darty', 'fascia': 'Darty', 'category': 'Retail', 'edit_date': '2025-03-12', 'lat_lon_source': 'website'}",45.021454,3.880661,DARTY Cuisine & Literie Le-Puy-en-Velay,"{'opening_hours': {'Mon': '10:00 - 12:00, 14:00 - 19:00', 'Tue': '10:00 - 12:00, 14:00 - 19:00', 'Wed': '10:00 - 12:00, 14:00 - 19:00', 'Thu': '10:00 - 12:00, 14:00 - 19:00', 'Fri': '10:00 - 12:00, 14:00 - 19:00', 'Sat': '10:00 - 18:30'}}",+33 4 71 00 94 83,43000,526,,https://magasin.darty.com/526-darty-cuisine-literie-le-puy-en-velay
"75, rue Fanfonne Guillerme",Darty,Vauvert,FR,"{'brand': 'Darty', 'fascia': 'Darty', 'category': 'Retail', 'edit_date': '2025-03-12', 'lat_lon_source': 'website'}",43.6906171,4.2691525,DARTY Vauvert,"{'opening_hours': {'Mon': '09:30 - 12:00, 14:00 - 19:00', 'Tue': '09:30 - 12:00, 14:00 - 19:00', 'Wed': '09:30 - 12:00, 14:00 - 19:00', 'Thu': '09:30 - 12:00, 14:00 - 19:00', 'Fri': '09:30 - 12:00, 14:00 - 19:00', 'Sat': '09:30 - 19:00'}}",+33 892 01 10 10,30600,428,,https://magasin.darty.com/428-darty-vauvert
RN 193 - Lieu-dit Saint Pancrace,Darty,Furiani,FR,"{'brand': 'Darty', 'fascia': 'Darty', 'category': 'Retail', 'edit_date': '2025-03-12', 'lat_lon_source': 'website'}",42.6546685,9.4401528,DARTY Bastia,"{'opening_hours': {'Mon': '09:30 - 19:00', 'Tue': '09:30 - 19:00', 'Wed': '09:30 - 19:00', 'Thu': '09:30 - 19:00', 'Fri': '09:30 - 19:00', 'Sat': '09:30 - 19:00'}}",+33 892 01 10 10,20600,540,,https://magasin.darty.com/540-darty-bastia
Route de Brive,Darty,GLANDON,FR,"{'brand': 'Darty', 'fascia': 'Darty', 'category': 'Retail', 'edit_date': '2025-03-12', 'lat_lon_source': 'website'}",45.496367,1.2152751,DARTY Saint-Yrieix-la-Perche II,"{'opening_hours': {'Mon': '10:00 - 12:30, 14:30 - 19:00', 'Tue': '10:00 - 12:30, 14:30 - 19:00', 'Wed': '10:00 - 12:30, 14:30 - 19:00', 'Thu': '10:00 - 12:30, 14:30 - 19:00', 'Fri': '10:00 - 12:30, 14:30 - 19:00', 'Sat': '10:00 - 19:00'}}",+33 892 01 10 10,87500,417,,https://magasin.darty.com/417-darty-saint-yrieix-la-perche-ii
"271, avenue Georges Clémenceau",Darty,Carpentras,FR,"{'brand': 'Darty', 'fascia': 'Darty', 'category': 'Retail', 'edit_date': '2025-03-12', 'lat_lon_source': 'website'}",44.0513227,5.0440093,DARTY Carpentras,"{'opening_hours': {'Tue': '10:00 - 12:00, 14:00 - 19:00', 'Wed': '10:00 - 12:00, 14:00 - 19:00', 'Thu': '10:00 - 12:00, 14:00 - 19:00', 'Fri': '10:00 - 12:00, 14:00 - 19:00', 'Sat': '10:00 - 12:00, 14:00 - 19:00'}}",+33 892 01 10 10,84200,418,,https://magasin.darty.com/418-darty-carpentras
"55, avenue de Paris",Darty,Saint-Berthevin,FR,"{'brand': 'Darty', 'fascia': 'Darty', 'category': 'Retail', 'edit_date': '2025-03-12', 'lat_lon_source': 'website'}",48.069219,-0.8090361,DARTY Laval Saint Berthevin,"{'opening_hours': {'Mon': '10:00 - 19:00', 'Tue': '10:00 - 19:00', 'Wed': '10:00 - 19:00', 'Thu': '10:00 - 19:00', 'Fri': '10:00 - 19:00', 'Sat': '09:30 - 19:00'}}",+33 892 01 10 10,53940,412,,https://magasin.darty.com/412-darty-laval-saint-berthevin
"2, rue Gustave Eiffel",Darty,Beaune,FR,"{'brand': 'Darty', 'fascia': 'Darty', 'category': 'Retail', 'edit_date': '2025-03-12', 'lat_lon_source': 'website'}",47.039052,4.846927,DARTY Beaune,"{'opening_hours': {'Mon': '09:30 - 12:00, 14:00 - 19:00', 'Tue': '09:30 - 12:00, 14:00 - 19:00', 'Wed': '09:30 - 12:00, 14:00 - 19:00', 'Thu': '09:30 - 12:00, 14:00 - 19:00', 'Fri': '09:30 - 12:00, 14:00 - 19:00', 'Sat': '09:30 - 19:00'}}",+33 892 01 10 10,21200,415,,https://magasin.darty.com/415-darty-beaune
"Z.A. Gouasnel, Centre commercial Cap Vert",Darty,Rostrenen,FR,"{'brand': 'Darty', 'fascia': 'Darty', 'category': 'Retail', 'edit_date': '2025-03-12', 'lat_lon_source': 'website'}",48.2429198,-3.3142799,DARTY Rostrenen,"{'opening_hours': {'Mon': '09:30 - 12:30, 14:00 - 19:00', 'Tue': '09:30 - 12:30, 14:00 - 19:00', 'Wed': '09:30 - 12:30, 14:00 - 19:00', 'Thu': '09:30 - 12:30, 14:00 - 19:00', 'Fri': '09:30 - 12:30, 14:00 - 19:00', 'Sat': '09:30 - 19:00'}}",+33 892 01 10 10,22110,371,,https://magasin.darty.com/371-darty-rostrenen
"2, rue des Hérons",Darty,Argelès-sur-Mer,FR,"{'brand': 'Darty', 'fascia': 'Darty', 'category': 'Retail', 'edit_date': '2025-03-12', 'lat_lon_source': 'website'}",42.556350640298,3.0122725607132,DARTY Argelès-sur-mer,"{'opening_hours': {'Mon': '09:30 - 12:00, 14:00 - 19:00', 'Tue': '09:30 - 12:00, 14:00 - 19:00', 'Wed': '09:30 - 12:00, 14:00 - 19:00', 'Thu': '09:30 - 12:00, 14:00 - 19:00', 'Fri': '09:30 - 12:00, 14:00 - 19:00', 'Sat': '09:30 - 12:00, 14:00 - 19:00'}}",+33 4 68 52 03 25,66700,389,,https://magasin.darty.com/389-darty-argeles-sur-mer
90 rue de la Savonnière,Darty,CYSOING,FR,"{'brand': 'Darty', 'fascia': 'Darty', 'category': 'Retail', 'edit_date': '2025-03-12', 'lat_lon_source': 'website'}",50.575975,3.215963,DARTY Cysoing,"{'opening_hours': {'Mon': '10:00 - 19:00', 'Tue': '10:00 - 19:00', 'Wed': '10:00 - 19:00', 'Thu': '10:00 - 19:00', 'Fri': '10:00 - 19:00', 'Sat': '09:00 - 19:00'}}",+33 892 01 10 10,59830,639,,https://magasin.darty.com/639-darty-cysoing
"22, avenue du Maréchal Juin",Darty,GRAULHET,FR,"{'brand': 'Darty', 'fascia': 'Darty', 'category': 'Retail', 'edit_date': '2025-03-12', 'lat_lon_source': 'website'}",43.760786,1.965323,DARTY Graulhet,"{'opening_hours': {'Mon': '10:00 - 12:30, 14:00 - 19:00', 'Tue': '10:00 - 12:30, 14:00 - 19:00', 'Wed': '10:00 - 12:30, 14:00 - 19:00', 'Thu': '10:00 - 12:30, 14:00 - 19:00', 'Fri': '10:00 - 12:30, 14:00 - 19:00', 'Sat': '10:00 - 19:00'}}",+33 892 01 10 10,81300,637,,https://magasin.darty.com/637-darty-graulhet
11 rue de la Marne,Darty,LANDERNEAU,FR,"{'brand': 'Darty', 'fascia': 'Darty', 'category': 'Retail', 'edit_date': '2025-03-12', 'lat_lon_source': 'website'}",48.4495739,-4.2613336,DARTY Landerneau,"{'opening_hours': {'Mon': '09:30 - 19:00', 'Tue': '09:30 - 19:00', 'Wed': '09:30 - 19:00', 'Thu': '09:30 - 19:00', 'Fri': '09:30 - 19:00', 'Sat': '09:30 - 19:00'}}",+33 892 01 10 10,29800,638,,https://magasin.darty.com/638-darty-landerneau
"4, avenue Albert II",Darty,Principauté de Monaco,FR,"{'brand': 'Darty', 'fascia': 'Darty', 'category': 'Retail', 'edit_date': '2025-03-12', 'lat_lon_source': 'website'}",43.7289429,7.4156941,DARTY Monaco,"{'opening_hours': {'Mon': '08:30 - 19:30', 'Tue': '08:30 - 19:30', 'Wed': '08:30 - 19:30', 'Thu': '08:30 - 19:30', 'Fri': '08:30 - 19:30', 'Sat': '09:00 - 19:30'}}",+33 892 01 10 10,98000,380,,https://magasin.darty.com/380-darty-monaco
Boulevard Périphérique,Darty,Guichainville,FR,"{'brand': 'Darty', 'fascia': 'Darty', 'category': 'Retail', 'edit_date': '2025-03-12', 'lat_lon_source': 'website'}",49.0138266,1.1752682,DARTY Evreux,"{'opening_hours': {'Mon': '10:00 - 19:00', 'Tue': '10:00 - 19:00', 'Wed': '10:00 - 19:00', 'Thu': '10:00 - 19:00', 'Fri': '10:00 - 19:00', 'Sat': '09:30 - 19:30'}}",+33 892 01 10 10,27930,73,,https://magasin.darty.com/73-darty-evreux
"315, rue de la Liberté",Darty,Barentin,FR,"{'brand': 'Darty', 'fascia': 'Darty', 'category': 'Retail', 'edit_date': '2025-03-12', 'lat_lon_source': 'website'}",49.537777,0.9617828,DARTY Barentin,"{'opening_hours': {'Mon': '10:00 - 19:00', 'Tue': '10:00 - 19:00', 'Wed': '10:00 - 19:00', 'Thu': '10:00 - 19:00', 'Fri': '10:00 - 19:00', 'Sat': '09:30 - 19:30'}}",+33 892 01 10 10,76360,20,,https://magasin.darty.com/20-darty-barentin
"47, avenue de Caen",Darty,Rouen,FR,"{'brand': 'Darty', 'fascia': 'Darty', 'category': 'Retail', 'edit_date': '2025-03-12', 'lat_lon_source': 'website'}",49.4286775,1.0743378,DARTY Rouen Rive Gauche,"{'opening_hours': {'Mon': '10:00 - 19:00', 'Tue': '10:00 - 19:00', 'Wed': '10:00 - 19:00', 'Thu': '10:00 - 19:00', 'Fri': '10:00 - 19:00', 'Sat': '09:30 - 19:30'}}",+33 892 01 10 10,76100,153,,https://magasin.darty.com/153-darty-rouen-rive-gauche
Z.A. d'Entraigue,Darty,Embrun,FR,"{'brand': 'Darty', 'fascia': 'Darty', 'category': 'Retail', 'edit_date': '2025-03-12', 'lat_lon_source': 'website'}",44.55001,6.48568,DARTY Embrun,"{'opening_hours': {'Mon': '09:30 - 19:00', 'Tue': '09:30 - 19:00', 'Wed': '09:30 - 19:00', 'Thu': '09:30 - 19:00', 'Fri': '09:30 - 19:00', 'Sat': '09:30 - 19:00'}}",+33 892 01 10 10,05200,580,,https://magasin.darty.com/580-darty-embrun
"7, rue du Portugal",Darty,Auray,FR,"{'brand': 'Darty', 'fascia': 'Darty', 'category': 'Retail', 'edit_date': '2025-03-12', 'lat_lon_source': 'website'}",47.6666278,-3.0079484,DARTY Auray,"{'opening_hours': {'Mon': '09:30 - 12:30, 14:00 - 19:00', 'Tue': '09:30 - 12:30, 14:00 - 19:00', 'Wed': '09:30 - 12:30, 14:00 - 19:00', 'Thu': '09:30 - 12:30, 14:00 - 19:00', 'Fri': '09:30 - 12:30, 14:00 - 19:00', 'Sat': '09:30 - 12:30, 14:00 - 19:00'}}",+33 892 01 10 10,56400,293,,https://magasin.darty.com/293-darty-auray
Rue Gustave Eiffel,Darty,Rambouillet,FR,"{'brand': 'Darty', 'fascia': 'Darty', 'category': 'Retail', 'edit_date': '2025-03-12', 'lat_lon_source': 'website'}",48.6254344,1.8257238,DARTY Rambouillet,"{'opening_hours': {'Mon': '10:00 - 13:00, 14:00 - 19:30', 'Tue': '10:00 - 13:00, 14:00 - 19:30', 'Wed': '10:00 - 13:00, 14:00 - 19:30', 'Thu': '10:00 - 13:00, 14:00 - 19:30', 'Fri': '10:00 - 13:00, 14:00 - 19:30', 'Sat': '10:00 - 19:30'}}",+33 892 01 10 10,78120,282,,https://magasin.darty.com/282-darty-rambouillet
Rue Albert Camus,Darty,Challans,FR,"{'brand': 'Darty', 'fascia': 'Darty', 'category': 'Retail', 'edit_date': '2025-03-12', 'lat_lon_source': 'website'}",46.852886,-1.89099,DARTY Challans,"{'opening_hours': {'Mon': '09:30 - 12:30, 14:00 - 19:00', 'Tue': '09:30 - 12:30, 14:00 - 19:00', 'Wed': '09:30 - 12:30, 14:00 - 19:00', 'Thu': '09:30 - 12:30, 14:00 - 19:00', 'Fri': '09:30 - 12:30, 14:00 - 19:00', 'Sat': '09:30 - 19:00'}}",+33 892 01 10 10,85300,205,,https://magasin.darty.com/205-darty-challans
Zone commerciale Château Gaillard,Darty,Bain-de-Bretagne,FR,"{'brand': 'Darty', 'fascia': 'Darty', 'category': 'Retail', 'edit_date': '2025-03-12', 'lat_lon_source': 'website'}",47.856963,-1.67918,DARTY Bain-de-Bretagne,"{'opening_hours': {'Mon': '09:30 - 12:30, 14:00 - 19:00', 'Tue': '09:30 - 12:30, 14:00 - 19:00', 'Wed': '09:30 - 12:30, 14:00 - 19:00', 'Thu': '09:30 - 12:30, 14:00 - 19:00', 'Fri': '09:30 - 12:30, 14:00 - 19:00', 'Sat': '09:30 - 19:00'}}",+33 892 01 10 10,35470,233,,https://magasin.darty.com/233-darty-bain-de-bretagne
"992, boulevard de la Prairie",Darty,Saint-Gereon,FR,"{'brand': 'Darty', 'fascia': 'Darty', 'category': 'Retail', 'edit_date': '2025-03-12', 'lat_lon_source': 'website'}",47.3753307,-1.200176,DARTY Ancenis,"{'opening_hours': {'Mon': '09:30 - 12:30, 14:00 - 19:00', 'Tue': '09:30 - 12:30, 14:00 - 19:00', 'Wed': '09:30 - 12:30, 14:00 - 19:00', 'Thu': '09:30 - 12:30, 14:00 - 19:00', 'Fri': '09:30 - 12:30, 14:00 - 19:00', 'Sat': '09:30 - 19:00'}}",+33 892 01 10 10,44150,284,,https://magasin.darty.com/284-darty-ancenis
"2, rue de la Gaillarde",Darty,Saint-Clément,FR,"{'brand': 'Darty', 'fascia': 'Darty', 'category': 'Retail', 'edit_date': '2025-03-12', 'lat_lon_source': 'website'}",48.2155361,3.2776885,DARTY Sens,"{'opening_hours': {'Mon': '09:30 - 12:30, 14:00 - 19:00', 'Tue': '09:30 - 12:30, 14:00 - 19:00', 'Wed': '09:30 - 12:30, 14:00 - 19:00', 'Thu': '09:30 - 12:30, 14:00 - 19:00', 'Fri': '09:30 - 12:30, 14:00 - 19:00', 'Sat': '09:30 - 19:00'}}",+33 892 01 10 10,89100,305,,https://magasin.darty.com/305-darty-sens
"1245, route de Villedieu",Darty,Granville,FR,"{'brand': 'Darty', 'fascia': 'Darty', 'category': 'Retail', 'edit_date': '2025-03-12', 'lat_lon_source': 'website'}",48.8381233,-1.5437826,DARTY Granville,"{'opening_hours': {'Mon': '10:00 - 12:30, 14:00 - 19:00', 'Tue': '10:00 - 12:30, 14:00 - 19:00', 'Wed': '10:00 - 12:30, 14:00 - 19:00', 'Thu': '10:00 - 12:30, 14:00 - 19:00', 'Fri': '10:00 - 12:30, 14:00 - 19:00', 'Sat': '10:00 - 19:00'}}",+33 892 01 10 10,50400,262,,https://magasin.darty.com/262-darty-granville
"97, avenue Paul Doumer",Darty,Bergerac,FR,"{'brand': 'Darty', 'fascia': 'Darty', 'category': 'Retail', 'edit_date': '2025-03-12', 'lat_lon_source': 'website'}",44.834566,0.4780332,DARTY Bergerac,"{'opening_hours': {'Mon': '10:00 - 12:00, 14:00 - 19:00', 'Tue': '10:00 - 12:00, 14:00 - 19:00', 'Wed': '10:00 - 12:00, 14:00 - 19:00', 'Thu': '10:00 - 12:00, 14:00 - 19:00', 'Fri': '10:00 - 12:00, 14:00 - 19:00', 'Sat': '10:00 - 12:00, 14:00 - 19:00'}}",+33 892 01 10 10,24100,208,,https://magasin.darty.com/208-darty-bergerac
Avenue Robert Schumann,Darty,Saint-Brice-sous-Forêt,FR,"{'brand': 'Darty', 'fascia': 'Darty', 'category': 'Retail', 'edit_date': '2025-03-12', 'lat_lon_source': 'website'}",49.008016,2.3522094,DARTY Saint Brice,"{'opening_hours': {'Mon': '10:00 - 20:00', 'Tue': '10:00 - 20:00', 'Wed': '10:00 - 20:00', 'Thu': '10:00 - 20:00', 'Fri': '10:00 - 20:00', 'Sat': '10:00 - 20:00', 'Sun': '10:00 - 19:30'}}",+33 892 01 10 10,95350,155,,https://magasin.darty.com/155-darty-saint-brice
"33, rue Jeanne d'Arc",Darty,Rouen,FR,"{'brand': 'Darty', 'fascia': 'Darty', 'category': 'Retail', 'edit_date': '2025-03-12', 'lat_lon_source': 'website'}",49.4422483,1.0904809,DARTY Rouen Rive Droite,"{'opening_hours': {'Mon': '10:00 - 19:00', 'Tue': '10:00 - 19:00', 'Wed': '10:00 - 19:00', 'Thu': '10:00 - 19:00', 'Fri': '10:00 - 19:00', 'Sat': '09:30 - 19:00'}}",+33 892 01 10 10,76000,152,,https://magasin.darty.com/152-darty-rouen-rive-droite
Centre commercial Belle Épine,Darty,Thiais,FR,"{'brand': 'Darty', 'fascia': 'Darty', 'category': 'Retail', 'edit_date': '2025-03-12', 'lat_lon_source': 'website'}",48.756658,2.3718926,DARTY Rungis,"{'opening_hours': {'Mon': '10:00 - 20:30', 'Tue': '10:00 - 20:30', 'Wed': '10:00 - 20:30', 'Thu': '10:00 - 20:30', 'Fri': '10:00 - 20:30', 'Sat': '10:00 - 20:30', 'Sun': '10:00 - 19:00'}}",+33 892 01 10 10,94320,154,,https://magasin.darty.com/154-darty-rungis
"3, rue des Grignons",Darty,Langueux,FR,"{'brand': 'Darty', 'fascia': 'Darty', 'category': 'Retail', 'edit_date': '2025-03-12', 'lat_lon_source': 'website'}",48.4960712,-2.7320436,DARTY Saint-Brieuc,"{'opening_hours': {'Mon': '09:30 - 19:30', 'Tue': '09:30 - 19:30', 'Wed': '09:30 - 19:30', 'Thu': '09:30 - 19:30', 'Fri': '09:30 - 19:30', 'Sat': '09:30 - 19:30'}}",+33 892 01 10 10,22360,157,,https://magasin.darty.com/157-darty-saint-brieuc
Avenue de la Flaudais,Darty,Saint-Malo,FR,"{'brand': 'Darty', 'fascia': 'Darty', 'category': 'Retail', 'edit_date': '2025-03-12', 'lat_lon_source': 'website'}",48.6245401,-1.9956291,DARTY Saint Malo,"{'opening_hours': {'Mon': '09:30 - 19:30', 'Tue': '09:30 - 19:30', 'Wed': '09:30 - 19:30', 'Thu': '09:30 - 19:30', 'Fri': '09:30 - 19:30', 'Sat': '09:30 - 19:30'}}",+33 892 01 10 10,35400,156,,https://magasin.darty.com/156-darty-saint-malo
"125, avenue de Saint-Ouen",Darty,Paris,FR,"{'brand': 'Darty', 'fascia': 'Darty', 'category': 'Retail', 'edit_date': '2025-03-12', 'lat_lon_source': 'website'}",48.895942,2.3281842,DARTY Saint Ouen,"{'opening_hours': {'Mon': '10:00 - 19:30', 'Tue': '10:00 - 19:30', 'Wed': '10:00 - 19:30', 'Thu': '10:00 - 19:30', 'Fri': '10:00 - 19:30', 'Sat': '10:00 - 19:30'}}",+33 892 01 10 10,75017,158,,https://magasin.darty.com/158-darty-saint-ouen
Z.A.C. de la Martelle Z.I. Les Paluds,Darty,Aubagne,FR,"{'brand': 'Darty', 'fascia': 'Darty', 'category': 'Retail', 'edit_date': '2025-03-12', 'lat_lon_source': 'website'}",43.289232,5.5929928,DARTY Aubagne,"{'opening_hours': {'Mon': '10:00 - 19:00', 'Tue': '10:00 - 19:00', 'Wed': '10:00 - 19:00', 'Thu': '10:00 - 19:00', 'Fri': '10:00 - 19:00', 'Sat': '10:00 - 19:00'}}",+33 892 01 10 10,13400,16,,https://magasin.darty.com/16-darty-aubagne
Rue Jean-Pierre Timbaud,Darty,Sartrouville,FR,"{'brand': 'Darty', 'fascia': 'Darty', 'category': 'Retail', 'edit_date': '2025-03-12', 'lat_lon_source': 'website'}",48.9499315,2.2015084,DARTY Sartrouville,"{'opening_hours': {'Mon': '10:00 - 19:30', 'Tue': '10:00 - 19:30', 'Wed': '10:00 - 19:30', 'Thu': '10:00 - 19:30', 'Fri': '10:00 - 19:30', 'Sat': '10:00 - 19:30', 'Sun': '10:00 - 19:30'}}",+33 892 01 10 10,78500,162,,https://magasin.darty.com/162-darty-sartrouville
"2, rue du Maréchal Kellermann",Darty,Sarreguemines,FR,"{'brand': 'Darty', 'fascia': 'Darty', 'category': 'Retail', 'edit_date': '2025-03-12', 'lat_lon_source': 'website'}",49.1138006,7.0918206,DARTY Sarreguemines,"{'opening_hours': {'Mon': '09:30 - 19:00', 'Tue': '09:30 - 19:00', 'Wed': '09:30 - 19:00', 'Thu': '09:30 - 19:00', 'Fri': '09:30 - 19:00', 'Sat': '09:30 - 19:00'}}",+33 892 01 10 10,57200,161,,https://magasin.darty.com/161-darty-sarreguemines
Centre commercial Forum de Picardie N 4,Darty,Fayet,FR,"{'brand': 'Darty', 'fascia': 'Darty', 'category': 'Retail', 'edit_date': '2025-03-12', 'lat_lon_source': 'website'}",49.8607774,3.2557644,DARTY Saint-Quentin,"{'opening_hours': {'Mon': '10:00 - 19:00', 'Tue': '10:00 - 19:00', 'Wed': '10:00 - 19:00', 'Thu': '10:00 - 19:00', 'Fri': '10:00 - 19:00', 'Sat': '09:30 - 19:30'}}",+33 892 01 10 10,02100,160,,https://magasin.darty.com/160-darty-saint-quentin
Autoroute A4 Zone Euromoselle,Darty,Semecourt,FR,"{'brand': 'Darty', 'fascia': 'Darty', 'category': 'Retail', 'edit_date': '2025-03-12', 'lat_lon_source': 'website'}",49.1920712,6.1488462,DARTY Semecourt,"{'opening_hours': {'Mon': '09:30 - 19:00', 'Tue': '09:30 - 19:00', 'Wed': '09:30 - 19:00', 'Thu': '09:30 - 19:00', 'Fri': '09:30 - 19:00', 'Sat': '09:30 - 19:00'}}",+33 892 01 10 10,57280,163,,https://magasin.darty.com/163-darty-semecourt
Centre commercial Trifontaine Lotissement les cèdres,Darty,Saint-Clément-de-Rivière,FR,"{'brand': 'Darty', 'fascia': 'Darty', 'category': 'Retail', 'edit_date': '2025-03-12', 'lat_lon_source': 'website'}",43.6490629,3.8470593,DARTY Montpellier Saint Clement,"{'opening_hours': {'Mon': '09:30 - 19:30', 'Tue': '09:30 - 19:30', 'Wed': '09:30 - 19:30', 'Thu': '09:30 - 19:30', 'Fri': '09:30 - 19:30', 'Sat': '09:30 - 19:30'}}",+33 892 01 10 10,34980,164,,https://magasin.darty.com/164-darty-montpellier-saint-clement
"4, rue des Petits Champs",Darty,Sainte-Geneviève-des-Bois,FR,"{'brand': 'Darty', 'fascia': 'Darty', 'category': 'Retail', 'edit_date': '2025-03-12', 'lat_lon_source': 'website'}",48.6244035,2.3483353,DARTY Sainte Genevieve Des Bois,"{'opening_hours': {'Mon': '10:00 - 19:30', 'Tue': '10:00 - 19:30', 'Wed': '10:00 - 19:30', 'Thu': '10:00 - 19:30', 'Fri': '10:00 - 19:30', 'Sat': '10:00 - 20:00', 'Sun': '10:00 - 19:00'}}",+33 892 01 10 10,91700,166,,https://magasin.darty.com/166-darty-sainte-genevieve-des-bois
"24, place des Halles",Darty,Strasbourg,FR,"{'brand': 'Darty', 'fascia': 'Darty', 'category': 'Retail', 'edit_date': '2025-03-12', 'lat_lon_source': 'website'}",48.5867011,7.7418225,DARTY Strasbourg Les Halles,"{'opening_hours': {'Mon': '09:00 - 20:00', 'Tue': '09:00 - 20:00', 'Wed': '09:00 - 20:00', 'Thu': '09:00 - 20:00', 'Fri': '09:00 - 20:00', 'Sat': '09:00 - 20:00'}}",+33 892 01 10 10,67000,169,,https://magasin.darty.com/169-darty-strasbourg-les-halles
Centre commercial Trignac,Darty,Trignac,FR,"{'brand': 'Darty', 'fascia': 'Darty', 'category': 'Retail', 'edit_date': '2025-03-12', 'lat_lon_source': 'website'}",47.3026233,-2.2081195,DARTY Saint Nazaire,"{'opening_hours': {'Mon': '09:30 - 19:30', 'Tue': '09:30 - 19:30', 'Wed': '09:30 - 19:30', 'Thu': '09:30 - 19:30', 'Fri': '09:30 - 19:30', 'Sat': '09:30 - 19:30'}}",+33 892 01 10 10,44570,168,,https://magasin.darty.com/168-darty-saint-nazaire
Lieu-dit Les Glairons,Darty,Saint-Martin-d'Hères,FR,"{'brand': 'Darty', 'fascia': 'Darty', 'category': 'Retail', 'edit_date': '2025-03-12', 'lat_lon_source': 'website'}",45.1846156,5.7691206,DARTY St Martin D'Heres,"{'opening_hours': {'Mon': '09:30 - 19:30', 'Tue': '09:30 - 19:30', 'Wed': '09:30 - 19:30', 'Thu': '09:30 - 19:30', 'Fri': '09:30 - 19:30', 'Sat': '09:30 - 19:30'}}",+33 892 01 10 10,38400,165,,https://magasin.darty.com/165-darty-st-martin-d-heres
Z.A. La Pyrénéenne,Darty,Ibos,FR,"{'brand': 'Darty', 'fascia': 'Darty', 'category': 'Retail', 'edit_date': '2025-03-12', 'lat_lon_source': 'website'}",43.2215946,-0.003733,DARTY Tarbes,"{'opening_hours': {'Mon': '09:30 - 19:30', 'Tue': '09:30 - 19:30', 'Wed': '09:30 - 19:30', 'Thu': '09:30 - 19:30', 'Fri': '09:30 - 19:30', 'Sat': '09:30 - 19:30'}}",+33 892 01 10 10,65420,170,,https://magasin.darty.com/170-darty-tarbes
Z.A.C. Augny 2000,Darty,Augny,FR,"{'brand': 'Darty', 'fascia': 'Darty', 'category': 'Retail', 'edit_date': '2025-03-12', 'lat_lon_source': 'website'}",49.0777726,6.1062071,DARTY Augny Metz,"{'opening_hours': {'Mon': '09:30 - 19:00', 'Tue': '09:30 - 19:00', 'Wed': '09:30 - 19:00', 'Thu': '09:30 - 19:00', 'Fri': '09:30 - 19:00', 'Sat': '09:30 - 19:00'}}",+33 892 01 10 10,57685,17,,https://magasin.darty.com/17-darty-augny-metz
Avenue Pré Robert Sud,Darty,Anthy-sur-Léman,FR,"{'brand': 'Darty', 'fascia': 'Darty', 'category': 'Retail', 'edit_date': '2025-03-12', 'lat_lon_source': 'website'}",46.350815,6.4353031,DARTY Thonon,"{'opening_hours': {'Mon': '09:30 - 19:30', 'Tue': '09:30 - 19:30', 'Wed': '09:30 - 19:30', 'Thu': '09:30 - 19:30', 'Fri': '09:30 - 19:30', 'Sat': '09:30 - 19:30'}}",+33 892 01 10 10,74200,173,,https://magasin.darty.com/173-darty-thonon
Route Romains Zone Linkling,Darty,Thionville,FR,"{'brand': 'Darty', 'fascia': 'Darty', 'category': 'Retail', 'edit_date': '2025-03-12', 'lat_lon_source': 'website'}",49.3583545,6.1289734,DARTY Thionville,"{'opening_hours': {'Mon': '09:30 - 19:00', 'Tue': '09:30 - 19:00', 'Wed': '09:30 - 19:00', 'Thu': '09:30 - 19:00', 'Fri': '09:30 - 19:00', 'Sat': '09:30 - 19:00'}}",+33 892 01 10 10,57100,172,,https://magasin.darty.com/172-darty-thionville
"1, rue Jacques Anquetil",Darty,Mérignac,FR,"{'brand': 'Darty', 'fascia': 'Darty', 'category': 'Retail', 'edit_date': '2025-03-12', 'lat_lon_source': 'website'}",44.8288033,-0.6566023,DARTY Bordeaux Mérignac,"{'opening_hours': {'Mon': '09:30 - 19:30', 'Tue': '09:30 - 19:30', 'Wed': '09:30 - 19:30', 'Thu': '09:30 - 19:30', 'Fri': '09:30 - 19:30', 'Sat': '09:00 - 19:30'}}",+33 892 01 10 10,33700,110,,https://magasin.darty.com/110-darty-bordeaux-merignac
"140, rue de la Montat",Darty,Saint-Étienne,FR,"{'brand': 'Darty', 'fascia': 'Darty', 'category': 'Retail', 'edit_date': '2025-03-12', 'lat_lon_source': 'website'}",45.4398208,4.4234895,DARTY St-Etienne Monthieu,"{'opening_hours': {'Mon': '09:30 - 19:30', 'Tue': '09:30 - 19:30', 'Wed': '09:30 - 19:30', 'Thu': '09:30 - 19:30', 'Fri': '09:30 - 19:30', 'Sat': '09:30 - 19:30'}}",+33 892 01 10 10,42000,167,,https://magasin.darty.com/167-darty-st-etienne-monthieu
Route de Paris - N13,Darty,Mondeville,FR,"{'brand': 'Darty', 'fascia': 'Darty', 'category': 'Retail', 'edit_date': '2025-03-12', 'lat_lon_source': 'website'}",49.1669694,-0.3145378,DARTY Caen Mondeville,"{'opening_hours': {'Mon': '09:30 - 19:30', 'Tue': '09:30 - 19:30', 'Wed': '09:30 - 19:30', 'Thu': '09:30 - 19:30', 'Fri': '09:30 - 19:30', 'Sat': '09:30 - 19:30'}}",+33 892 01 10 10,14120,111,,https://magasin.darty.com/111-darty-caen-mondeville
Faubourg d'Alsace,Darty,REMIREMONT,FR,"{'brand': 'Darty', 'fascia': 'Darty', 'category': 'Retail', 'edit_date': '2025-03-12', 'lat_lon_source': 'website'}",48.0105662,6.6037253,DARTY Remiremont,"{'opening_hours': {'Mon': '10:00 - 12:30, 13:30 - 19:00', 'Tue': '10:00 - 12:30, 13:30 - 19:00', 'Wed': '10:00 - 12:30, 13:30 - 19:00', 'Thu': '10:00 - 12:30, 13:30 - 19:00', 'Fri': '10:00 - 12:30, 13:30 - 19:00', 'Sat': '10:00 - 19:00'}}",+33 892 01 10 10,88200,588,,https://magasin.darty.com/588-darty-remiremont
"17, rue Felix Pépier",Darty,Firminy,FR,"{'brand': 'Darty', 'fascia': 'Darty', 'category': 'Retail', 'edit_date': '2025-03-12', 'lat_lon_source': 'website'}",45.38981,4.29816,DARTY Firminy,"{'opening_hours': {'Mon': '09:30 - 12:00, 14:00 - 19:00', 'Tue': '09:30 - 12:00, 14:00 - 19:00', 'Wed': '09:30 - 12:00, 14:00 - 19:00', 'Thu': '09:30 - 12:00, 14:00 - 19:00', 'Fri': '09:30 - 12:00, 14:00 - 19:00', 'Sat': '09:30 - 12:00, 14:00 - 19:00'}}",+33 892 01 10 10,42700,597,,https://magasin.darty.com/597-darty-firminy
"29, rue Pierre Curie",Darty,LUNEL,FR,"{'brand': 'Darty', 'fascia': 'Darty', 'category': 'Retail', 'edit_date': '2025-03-12', 'lat_lon_source': 'website'}",43.6809443,4.1482818,DARTY Lunel,"{'opening_hours': {'Mon': '09:30 - 12:30, 14:00 - 19:00', 'Tue': '09:30 - 12:30, 14:00 - 19:00', 'Wed': '09:30 - 12:30, 14:00 - 19:00', 'Thu': '09:30 - 12:30, 14:00 - 19:00', 'Fri': '09:30 - 12:30, 14:00 - 19:00', 'Sat': '09:30 - 19:00'}}",+33 892 01 10 10,34400,600,,https://magasin.darty.com/600-darty-lunel
"19, avenue Lahanchiapia",Darty,SAINT-JEAN-DE-LUZ,FR,"{'brand': 'Darty', 'fascia': 'Darty', 'category': 'Retail', 'edit_date': '2025-03-12', 'lat_lon_source': 'website'}",43.4022682,-1.6276858,DARTY Saint-Jean-de-Luz,"{'opening_hours': {'Mon': '09:30 - 12:30, 14:00 - 19:00', 'Tue': '09:30 - 12:30, 14:00 - 19:00', 'Wed': '09:30 - 12:30, 14:00 - 19:00', 'Thu': '09:30 - 12:30, 14:00 - 19:00', 'Fri': '09:30 - 12:30, 14:00 - 19:00', 'Sat': '09:30 - 19:00'}}",+33 892 01 10 10,64500,601,,https://magasin.darty.com/601-darty-saint-jean-de-luz
"75, avenue Montaigne",Darty,ANGERS,FR,"{'brand': 'Darty', 'fascia': 'Darty', 'category': 'Retail', 'edit_date': '2025-03-12', 'lat_lon_source': 'website'}",47.46699,-0.521966,DARTY Angers Espace Anjou,"{'opening_hours': {'Mon': '09:30 - 20:00', 'Tue': '09:30 - 20:00', 'Wed': '09:30 - 20:00', 'Thu': '09:30 - 20:00', 'Fri': '09:30 - 20:00', 'Sat': '09:30 - 20:00'}}",+33 892 01 10 10,49000,615,,https://magasin.darty.com/615-darty-angers-espace-anjou
71 Avenue de la Victoire,Darty,Meaux,FR,"{'brand': 'Darty', 'fascia': 'Darty', 'category': 'Retail', 'edit_date': '2025-03-12', 'lat_lon_source': 'website'}",48.9589379,2.9144544,DARTY Meaux,"{'opening_hours': {'Mon': '09:30 - 19:00', 'Tue': '09:30 - 19:00', 'Wed': '09:30 - 19:00', 'Thu': '09:30 - 19:00', 'Fri': '09:30 - 19:00', 'Sat': '09:30 - 19:00'}}",+33 892 01 10 10,77100,603,,https://magasin.darty.com/603-darty-meaux
"22, avenue du Maréchal Juin",Darty,GRAULHET,FR,"{'brand': 'Darty', 'fascia': 'Darty', 'category': 'Retail', 'edit_date': '2025-03-12', 'lat_lon_source': 'website'}",43.760786,1.965323,DARTY Graulhet,"{'opening_hours': {'Mon': '10:00 - 12:30, 14:00 - 19:00', 'Tue': '10:00 - 12:30, 14:00 - 19:00', 'Wed': '10:00 - 12:30, 14:00 - 19:00', 'Thu': '10:00 - 12:30, 14:00 - 19:00', 'Fri': '10:00 - 12:30, 14:00 - 19:00', 'Sat': '10:00 - 19:00'}}",+33 892 01 10 10,81300,637,,https://magasin.darty.com/637-darty-graulhet
11 rue de la Marne,Darty,LANDERNEAU,FR,"{'brand': 'Darty', 'fascia': 'Darty', 'category': 'Retail', 'edit_date': '2025-03-12', 'lat_lon_source': 'website'}",48.4495739,-4.2613336,DARTY Landerneau,"{'opening_hours': {'Mon': '09:30 - 19:00', 'Tue': '09:30 - 19:00', 'Wed': '09:30 - 19:00', 'Thu': '09:30 - 19:00', 'Fri': '09:30 - 19:00', 'Sat': '09:30 - 19:00'}}",+33 892 01 10 10,29800,638,,https://magasin.darty.com/638-darty-landerneau
Rue des Frères Lumières,Darty,Coignières,FR,"{'brand': 'Darty', 'fascia': 'Darty', 'category': 'Retail', 'edit_date': '2025-03-12', 'lat_lon_source': 'website'}",48.7577065,1.9346747,DARTY Coignières,"{'opening_hours': {'Mon': '10:00 - 19:30', 'Tue': '10:00 - 19:30', 'Wed': '10:00 - 19:30', 'Thu': '10:00 - 19:30', 'Fri': '10:00 - 19:30', 'Sat': '10:00 - 19:30', 'Sun': '10:00 - 19:00'}}",+33 892 01 10 10,78310,392,,https://magasin.darty.com/392-darty-coignieres
"86, route du Plan de la Tour",Darty,Sainte-Maxime,FR,"{'brand': 'Darty', 'fascia': 'Darty', 'category': 'Retail', 'edit_date': '2025-03-12', 'lat_lon_source': 'website'}",43.3190108,6.6282816,DARTY Sainte-Maxime,"{'opening_hours': {'Mon': '10:00 - 12:30, 14:00 - 19:00', 'Tue': '10:00 - 12:30, 14:00 - 19:00', 'Wed': '10:00 - 12:30, 14:00 - 19:00', 'Thu': '10:00 - 12:30, 14:00 - 19:00', 'Fri': '10:00 - 12:30, 14:00 - 19:00', 'Sat': '10:00 - 12:30, 14:00 - 19:00'}}",+33 892 01 10 10,83120,405,,https://magasin.darty.com/405-darty-sainte-maxime
Z.A.C. les Jardins de la Bretonnière,Darty,Chateaubourg,FR,"{'brand': 'Darty', 'fascia': 'Darty', 'category': 'Retail', 'edit_date': '2025-03-12', 'lat_lon_source': 'website'}",48.1085881,-1.389297,DARTY Châteaubourg,"{'opening_hours': {'Mon': '09:30 - 19:00', 'Tue': '09:30 - 19:00', 'Wed': '09:30 - 19:00', 'Thu': '09:30 - 19:00', 'Fri': '09:30 - 19:00', 'Sat': '09:30 - 19:00'}}",+33 892 01 10 10,35220,408,,https://magasin.darty.com/408-darty-chateaubourg
"Z.A.C. les Rincettes, RD 338",Darty,Viry-Noureuil,FR,"{'brand': 'Darty', 'fascia': 'Darty', 'category': 'Retail', 'edit_date': '2025-03-12', 'lat_lon_source': 'website'}",49.642936,3.262827,DARTY Viry-Noureuil,"{'opening_hours': {'Mon': '09:30 - 12:30, 14:00 - 19:00', 'Tue': '09:30 - 12:30, 14:00 - 19:00', 'Wed': '09:30 - 12:30, 14:00 - 19:00', 'Thu': '09:30 - 12:30, 14:00 - 19:00', 'Fri': '09:30 - 12:30, 14:00 - 19:00', 'Sat': '09:30 - 19:00'}}",+33 892 01 10 10,02300,410,,https://magasin.darty.com/410-darty-viry-noureuil
"41, route du Vésinet",Darty,Chatou,FR,"{'brand': 'Darty', 'fascia': 'Darty', 'category': 'Retail', 'edit_date': '2025-03-12', 'lat_lon_source': 'website'}",48.9027417,2.1391179,DARTY Cuisine Chatou,"{'opening_hours': {'Mon': '09:30 - 12:30, 14:00 - 19:00', 'Tue': '09:30 - 12:30, 14:00 - 19:00', 'Wed': '09:30 - 12:30, 14:00 - 19:00', 'Thu': '09:30 - 12:30, 14:00 - 19:00', 'Fri': '09:30 - 12:30, 14:00 - 19:00', 'Sat': '09:30 - 12:30, 14:00 - 19:00'}}",+33 1 30 15 69 90,78400,516,,https://magasin.darty.com/516-darty-cuisine-chatou
"17, allée de la Bouvine",Darty,Pérols,FR,"{'brand': 'Darty', 'fascia': 'Darty', 'category': 'Retail', 'edit_date': '2025-03-12', 'lat_lon_source': 'website'}",43.5747486,3.9369009,DARTY Cuisine & Literie Montpellier Pérols,"{'opening_hours': {'Mon': '09:30 - 19:00', 'Tue': '09:30 - 19:00', 'Wed': '09:30 - 19:00', 'Thu': '09:30 - 19:00', 'Fri': '09:30 - 19:00', 'Sat': '09:30 - 19:00'}}",+33 892 01 10 10,34470,545,,https://magasin.darty.com/545-darty-cuisine-literie-montpellier-perols
Centre commercial Les Garrigues,Darty,Sommières,FR,"{'brand': 'Darty', 'fascia': 'Darty', 'category': 'Retail', 'edit_date': '2025-03-12', 'lat_lon_source': 'website'}",43.7796535,4.0783605,DARTY Sommières,"{'opening_hours': {'Mon': '09:00 - 12:30, 14:00 - 19:00', 'Tue': '09:00 - 12:30, 14:00 - 19:00', 'Wed': '09:00 - 12:30, 14:00 - 19:00', 'Thu': '09:00 - 12:30, 14:00 - 19:00', 'Fri': '09:00 - 12:30, 14:00 - 19:00', 'Sat': '09:00 - 19:00'}}",+33 892 01 10 10,30250,553,,https://magasin.darty.com/553-darty-sommieres
"1036, rue de la Génoise",Darty,Champniers,FR,"{'brand': 'Darty', 'fascia': 'Darty', 'category': 'Retail', 'edit_date': '2025-03-12', 'lat_lon_source': 'website'}",45.6886551,0.1803893,DARTY Cuisine & Literie Angoulême Champniers,"{'opening_hours': {'Mon': '14:00 - 19:00', 'Tue': '10:00 - 12:30, 13:30 - 19:00', 'Wed': '10:00 - 12:30, 13:30 - 19:00', 'Thu': '10:00 - 12:30, 13:30 - 19:00', 'Fri': '10:00 - 12:30, 13:30 - 19:00', 'Sat': '10:00 - 12:30, 13:30 - 19:00'}}",+33 5 45 22 40 33,16430,561,,https://magasin.darty.com/561-darty-cuisine-literie-angouleme-champniers
"20, place du Général Leclerc",Darty,Le-Quesnoy,FR,"{'brand': 'Darty', 'fascia': 'Darty', 'category': 'Retail', 'edit_date': '2025-03-12', 'lat_lon_source': 'website'}",50.2467366,3.6373897,DARTY Le Quesnoy,"{'opening_hours': {'Mon': '14:00 - 19:00', 'Tue': '09:30 - 12:30, 14:00 - 19:00', 'Wed': '09:30 - 12:30, 14:00 - 19:00', 'Thu': '09:30 - 12:30, 14:00 - 19:00', 'Fri': '09:30 - 12:30, 14:00 - 19:00', 'Sat': '09:30 - 12:30, 14:00 - 18:00'}}",+33 892 01 10 10,59530,544,,https://magasin.darty.com/544-darty-le-quesnoy
"58, avenue de la Liberté",Darty,Fourneaux,FR,"{'brand': 'Darty', 'fascia': 'Darty', 'category': 'Retail', 'edit_date': '2025-03-12', 'lat_lon_source': 'website'}",45.191425,6.646031,DARTY Modane,"{'opening_hours': {'Mon': '09:00 - 12:00, 14:00 - 19:00', 'Tue': '09:00 - 12:00, 14:00 - 19:00', 'Wed': '09:00 - 12:00, 14:00 - 19:00', 'Thu': '09:00 - 12:00, 14:00 - 19:00', 'Fri': '09:00 - 12:00, 14:00 - 19:00', 'Sat': '09:00 - 12:00, 14:00 - 19:00'}}",+33 892 01 10 10,73500,513,,https://magasin.darty.com/513-darty-modane
"181, boulevard Louise Michel",Darty,Somain,FR,"{'brand': 'Darty', 'fascia': 'Darty', 'category': 'Retail', 'edit_date': '2025-03-12', 'lat_lon_source': 'website'}",50.3477686,3.2832431,DARTY Somain,"{'opening_hours': {'Mon': '09:00 - 19:30', 'Tue': '09:00 - 19:30', 'Wed': '09:00 - 19:30', 'Thu': '09:00 - 19:30', 'Fri': '09:00 - 19:30', 'Sat': '09:00 - 19:30'}}",+33 892 01 10 10,59490,539,,https://magasin.darty.com/539-darty-somain
Z.A.C. de Bellevue,Darty,Autun,FR,"{'brand': 'Darty', 'fascia': 'Darty', 'category': 'Retail', 'edit_date': '2025-03-12', 'lat_lon_source': 'website'}",46.9674064,4.2758798,DARTY Autun,"{'opening_hours': {'Mon': '10:00 - 12:00, 14:00 - 19:00', 'Tue': '10:00 - 12:00, 14:00 - 19:00', 'Wed': '10:00 - 12:00, 14:00 - 19:00', 'Thu': '10:00 - 12:00, 14:00 - 19:00', 'Fri': '10:00 - 12:00, 14:00 - 19:00', 'Sat': '10:00 - 12:00, 14:00 - 19:00'}}",+33 892 01 10 10,71400,563,,https://magasin.darty.com/563-darty-autun
"2, chaussée de la Muette",Darty,Paris,FR,"{'brand': 'Darty', 'fascia': 'Darty', 'category': 'Retail', 'edit_date': '2025-03-12', 'lat_lon_source': 'website'}",48.8582811,2.2744521,DARTY Passy 2,"{'opening_hours': {'Mon': '10:00 - 20:00', 'Tue': '10:00 - 20:00', 'Wed': '10:00 - 20:00', 'Thu': '10:00 - 20:00', 'Fri': '10:00 - 20:00', 'Sat': '10:00 - 20:00'}}",+33 892 01 10 10,75016,434,,https://magasin.darty.com/434-darty-passy-2
Centre commercial Lillenium,Darty,Lille,FR,"{'brand': 'Darty', 'fascia': 'Darty', 'category': 'Retail', 'edit_date': '2025-03-12', 'lat_lon_source': 'website'}",50.6157455,3.0480781,DARTY Lillenium,"{'opening_hours': {'Mon': '10:00 - 20:00', 'Tue': '10:00 - 20:00', 'Wed': '10:00 - 20:00', 'Thu': '10:00 - 20:00', 'Fri': '10:00 - 20:00', 'Sat': '10:00 - 20:00'}}",+33 892 01 10 10,59000,438,,https://magasin.darty.com/438-darty-lillenium
Rue François Perroux,Darty,Mont-Saint-Aignan,FR,"{'brand': 'Darty', 'fascia': 'Darty', 'category': 'Retail', 'edit_date': '2025-03-12', 'lat_lon_source': 'website'}",49.4721438,1.0946354,DARTY Mont-Saint-Aignan,"{'opening_hours': {'Mon': '09:30 - 19:00', 'Tue': '09:30 - 19:00', 'Wed': '09:30 - 19:00', 'Thu': '09:30 - 19:00', 'Fri': '09:30 - 19:00', 'Sat': '09:30 - 19:00'}}",+33 892 01 10 10,76130,440,,https://magasin.darty.com/440-darty-mont-saint-aignan
"92, avenue de Verdun",Darty,Paray-Vieille-Poste,FR,"{'brand': 'Darty', 'fascia': 'Darty', 'category': 'Retail', 'edit_date': '2025-03-12', 'lat_lon_source': 'website'}",48.7059709,2.3642808,DARTY Cuisine & Literie Paray-Vieille-Poste,"{'opening_hours': {'Mon': '14:00 - 19:00', 'Tue': '09:00 - 12:30, 14:00 - 19:00', 'Wed': '09:00 - 12:30, 14:00 - 19:00', 'Thu': '09:00 - 12:30, 14:00 - 19:00', 'Fri': '09:00 - 12:30, 14:00 - 19:00', 'Sat': '09:00 - 12:30, 14:00 - 19:00'}}",+33 1 69 43 65 13,91550,519,,https://magasin.darty.com/519-darty-cuisine-literie-paray-vieille-poste
"1, boulevard des Hunaudières",Darty,Ruaudin,FR,"{'brand': 'Darty', 'fascia': 'Darty', 'category': 'Retail', 'edit_date': '2025-03-12', 'lat_lon_source': 'website'}",47.9431835,0.2395991,DARTY Le Mans Ruaudin,"{'opening_hours': {'Mon': '10:00 - 19:30', 'Tue': '10:00 - 19:30', 'Wed': '10:00 - 19:30', 'Thu': '10:00 - 19:30', 'Fri': '10:00 - 19:30', 'Sat': '10:00 - 19:30'}}",+33 892 01 10 10,72230,572,,https://magasin.darty.com/572-darty-le-mans-ruaudin
Centre commercial des Quatr'Anes zone de Villeneuve Montigny,Darty,Rochefort,FR,"{'brand': 'Darty', 'fascia': 'Darty', 'category': 'Retail', 'edit_date': '2025-03-12', 'lat_lon_source': 'website'}",45.96775,-0.9766099,DARTY Rochefort,"{'opening_hours': {'Mon': '10:00 - 19:00', 'Tue': '10:00 - 19:00', 'Wed': '10:00 - 19:00', 'Thu': '10:00 - 19:00', 'Fri': '10:00 - 19:00', 'Sat': '10:00 - 19:00'}}",+33 892 01 10 10,17300,439,,https://magasin.darty.com/439-darty-rochefort
"707, rue Joseph Marie Jacquard",Darty,Biganos,FR,"{'brand': 'Darty', 'fascia': 'Darty', 'category': 'Retail', 'edit_date': '2025-03-12', 'lat_lon_source': 'website'}",44.6398711,-0.9500989,DARTY Cuisine Biganos,"{'opening_hours': {'Tue': '10:00 - 19:00', 'Wed': '10:00 - 19:00', 'Thu': '10:00 - 19:00', 'Fri': '10:00 - 19:00', 'Sat': '10:00 - 19:00'}}",+33 5 56 82 99 48,33380,524,,https://magasin.darty.com/524-darty-cuisine-biganos
Chemin de la Barrière,Darty,Montauroux,FR,"{'brand': 'Darty', 'fascia': 'Darty', 'category': 'Retail', 'edit_date': '2025-03-12', 'lat_lon_source': 'website'}",43.602789482165,6.7773444011192,DARTY Montauroux,"{'opening_hours': {'Mon': '09:30 - 19:00', 'Tue': '09:30 - 19:00', 'Wed': '09:30 - 19:00', 'Thu': '09:30 - 19:00', 'Fri': '09:30 - 19:00', 'Sat': '09:30 - 19:00'}}",+33 892 01 10 10,83440,551,,https://magasin.darty.com/551-darty-montauroux
"35, boulevard Général Leclerc",Darty,Draguignan,FR,"{'brand': 'Darty', 'fascia': 'Darty', 'category': 'Retail', 'edit_date': '2025-03-12', 'lat_lon_source': 'website'}",43.535198,6.462312,DARTY Cuisine & Literie Draguignan,"{'opening_hours': {'Tue': '09:30 - 12:30, 14:00 - 19:00', 'Wed': '09:30 - 12:30, 14:00 - 19:00', 'Thu': '09:30 - 12:30, 14:00 - 19:00', 'Fri': '09:30 - 12:30, 14:00 - 19:00', 'Sat': '09:30 - 12:30'}}",+33 4 98 10 06 51,83300,557,,https://magasin.darty.com/557-darty-cuisine-literie-draguignan
Avenue Charles de Gaulle,Darty,Saint-Genis-Laval,FR,"{'brand': 'Darty', 'fascia': 'Darty', 'category': 'Retail', 'edit_date': '2025-03-12', 'lat_lon_source': 'website'}",45.679637,4.792597,DARTY Cuisine Saint-Genis-Laval,"{'opening_hours': {'Mon': '09:30 - 20:00', 'Tue': '09:30 - 20:00', 'Wed': '09:30 - 20:00', 'Thu': '09:30 - 20:00', 'Fri': '09:30 - 20:00', 'Sat': '09:30 - 20:00'}}",+33 4 81 06 11 70,69230,558,,https://magasin.darty.com/558-darty-cuisine-saint-genis-laval
"478, Clos de l'Ile Roche",Darty,Sallanches,FR,"{'brand': 'Darty', 'fascia': 'Darty', 'category': 'Retail', 'edit_date': '2025-03-12', 'lat_lon_source': 'website'}",45.9541122,6.6286684,DARTY Cuisine & Literie Sallanches,"{'opening_hours': {'Mon': '09:30 - 12:30, 14:00 - 19:00', 'Tue': '09:30 - 12:30, 14:00 - 19:00', 'Wed': '09:30 - 12:30, 14:00 - 19:00', 'Thu': '09:30 - 12:30, 14:00 - 19:00', 'Fri': '09:30 - 12:30, 14:00 - 19:00', 'Sat': '09:30 - 19:00'}}",+33 4 56 69 00 70,74700,570,,https://magasin.darty.com/570-darty-cuisine-literie-sallanches
RN 198 ZI Poretta - Galerie Géant Casino,Darty,Porto-Vecchio,FR,"{'brand': 'Darty', 'fascia': 'Darty', 'category': 'Retail', 'edit_date': '2025-03-12', 'lat_lon_source': 'website'}",41.591369,9.278311,DARTY Porto-Vecchio,"{'opening_hours': {'Mon': '09:30 - 19:00', 'Tue': '09:30 - 19:00', 'Wed': '09:30 - 19:00', 'Thu': '09:30 - 19:00', 'Fri': '09:30 - 19:00', 'Sat': '09:30 - 19:00'}}",+33 892 01 10 10,20137,573,,https://magasin.darty.com/573-darty-porto-vecchio
"2147, avenue du Languedoc",Darty,Perpignan,FR,"{'brand': 'Darty', 'fascia': 'Darty', 'category': 'Retail', 'edit_date': '2025-03-12', 'lat_lon_source': 'website'}",42.7400773,2.8917273,DARTY Cuisine & Literie Perpignan Polygone nord,"{'opening_hours': {'Mon': '10:00 - 19:00', 'Tue': '10:00 - 19:00', 'Wed': '10:00 - 19:00', 'Thu': '10:00 - 19:00', 'Fri': '10:00 - 19:00', 'Sat': '10:00 - 19:00'}}",+33 4 68 89 60 95,66000,566,,https://magasin.darty.com/566-darty-cuisine-literie-perpignan-polygone-nord
"26, chemin du Bord de Crau",Darty,Istres,FR,"{'brand': 'Darty', 'fascia': 'Darty', 'category': 'Retail', 'edit_date': '2025-03-12', 'lat_lon_source': 'website'}",43.523635,4.9644145,DARTY Istres,"{'opening_hours': {'Mon': '14:00 - 19:00', 'Tue': '10:00 - 12:30, 14:00 - 19:00', 'Wed': '10:00 - 12:30, 14:00 - 19:00', 'Thu': '10:00 - 12:30, 14:00 - 19:00', 'Fri': '10:00 - 12:30, 14:00 - 19:00', 'Sat': '10:00 - 19:00'}}",+33 892 01 10 10,13800,559,,https://magasin.darty.com/559-darty-istres
"86, route de Strasbourg",Darty,Sarralbe,FR,"{'brand': 'Darty', 'fascia': 'Darty', 'category': 'Retail', 'edit_date': '2025-03-12', 'lat_lon_source': 'website'}",48.9856,7.0274899,DARTY Sarralbe,"{'opening_hours': {'Mon': '09:00 - 12:30, 14:00 - 19:00', 'Tue': '09:00 - 12:30, 14:00 - 19:00', 'Wed': '09:00 - 12:30, 14:00 - 19:00', 'Thu': '09:00 - 12:30, 14:00 - 19:00', 'Fri': '09:00 - 12:30, 14:00 - 19:00', 'Sat': '09:00 - 19:00'}}",+33 892 01 10 10,57430,564,,https://magasin.darty.com/564-darty-sarralbe
Zone commerciale Château Gaillard,Darty,Bain-de-Bretagne,FR,"{'brand': 'Darty', 'fascia': 'Darty', 'category': 'Retail', 'edit_date': '2025-03-12', 'lat_lon_source': 'website'}",47.856963,-1.67918,DARTY Bain-de-Bretagne,"{'opening_hours': {'Mon': '09:30 - 12:30, 14:00 - 19:00', 'Tue': '09:30 - 12:30, 14:00 - 19:00', 'Wed': '09:30 - 12:30, 14:00 - 19:00', 'Thu': '09:30 - 12:30, 14:00 - 19:00', 'Fri': '09:30 - 12:30, 14:00 - 19:00', 'Sat': '09:30 - 19:00'}}",+33 892 01 10 10,35470,233,,https://magasin.darty.com/233-darty-bain-de-bretagne
"992, boulevard de la Prairie",Darty,Saint-Gereon,FR,"{'brand': 'Darty', 'fascia': 'Darty', 'category': 'Retail', 'edit_date': '2025-03-12', 'lat_lon_source': 'website'}",47.3753307,-1.200176,DARTY Ancenis,"{'opening_hours': {'Mon': '09:30 - 12:30, 14:00 - 19:00', 'Tue': '09:30 - 12:30, 14:00 - 19:00', 'Wed': '09:30 - 12:30, 14:00 - 19:00', 'Thu': '09:30 - 12:30, 14:00 - 19:00', 'Fri': '09:30 - 12:30, 14:00 - 19:00', 'Sat': '09:30 - 19:00'}}",+33 892 01 10 10,44150,284,,https://magasin.darty.com/284-darty-ancenis
"2, rue de la Gaillarde",Darty,Saint-Clément,FR,"{'brand': 'Darty', 'fascia': 'Darty', 'category': 'Retail', 'edit_date': '2025-03-12', 'lat_lon_source': 'website'}",48.2155361,3.2776885,DARTY Sens,"{'opening_hours': {'Mon': '09:30 - 12:30, 14:00 - 19:00', 'Tue': '09:30 - 12:30, 14:00 - 19:00', 'Wed': '09:30 - 12:30, 14:00 - 19:00', 'Thu': '09:30 - 12:30, 14:00 - 19:00', 'Fri': '09:30 - 12:30, 14:00 - 19:00', 'Sat': '09:30 - 19:00'}}",+33 892 01 10 10,89100,305,,https://magasin.darty.com/305-darty-sens
"1245, route de Villedieu",Darty,Granville,FR,"{'brand': 'Darty', 'fascia': 'Darty', 'category': 'Retail', 'edit_date': '2025-03-12', 'lat_lon_source': 'website'}",48.8381233,-1.5437826,DARTY Granville,"{'opening_hours': {'Mon': '10:00 - 12:30, 14:00 - 19:00', 'Tue': '10:00 - 12:30, 14:00 - 19:00', 'Wed': '10:00 - 12:30, 14:00 - 19:00', 'Thu': '10:00 - 12:30, 14:00 - 19:00', 'Fri': '10:00 - 12:30, 14:00 - 19:00', 'Sat': '10:00 - 19:00'}}",+33 892 01 10 10,50400,262,,https://magasin.darty.com/262-darty-granville
"97, avenue Paul Doumer",Darty,Bergerac,FR,"{'brand': 'Darty', 'fascia': 'Darty', 'category': 'Retail', 'edit_date': '2025-03-12', 'lat_lon_source': 'website'}",44.834566,0.4780332,DARTY Bergerac,"{'opening_hours': {'Mon': '10:00 - 12:00, 14:00 - 19:00', 'Tue': '10:00 - 12:00, 14:00 - 19:00', 'Wed': '10:00 - 12:00, 14:00 - 19:00', 'Thu': '10:00 - 12:00, 14:00 - 19:00', 'Fri': '10:00 - 12:00, 14:00 - 19:00', 'Sat': '10:00 - 12:00, 14:00 - 19:00'}}",+33 892 01 10 10,24100,208,,https://magasin.darty.com/208-darty-bergerac
"1, avenue des Palanques RN 20",Darty,Portet-sur-Garonne,FR,"{'brand': 'Darty', 'fascia': 'Darty', 'category': 'Retail', 'edit_date': '2025-03-12', 'lat_lon_source': 'website'}",43.5318194,1.4059816,DARTY Toulouse Portet,"{'opening_hours': {'Mon': '09:30 - 19:30', 'Tue': '09:30 - 19:30', 'Wed': '09:30 - 19:30', 'Thu': '09:30 - 19:30', 'Fri': '09:30 - 19:30', 'Sat': '09:30 - 19:30'}}",+33 892 01 10 10,31120,143,,https://magasin.darty.com/143-darty-toulouse-portet
"13C, boulevard du Grand Marché",Darty,Quetigny,FR,"{'brand': 'Darty', 'fascia': 'Darty', 'category': 'Retail', 'edit_date': '2025-03-12', 'lat_lon_source': 'website'}",47.3089663,5.1014271,DARTY Quetigny,"{'opening_hours': {'Mon': '09:30 - 19:30', 'Tue': '09:30 - 19:30', 'Wed': '09:30 - 19:30', 'Thu': '09:30 - 19:30', 'Fri': '09:30 - 19:30', 'Sat': '09:30 - 19:30'}}",+33 892 01 10 10,21800,145,,https://magasin.darty.com/145-darty-quetigny
Quartier Les Salles Centre commercial RN 7,Darty,Puget-sur-Argens,FR,"{'brand': 'Darty', 'fascia': 'Darty', 'category': 'Retail', 'edit_date': '2025-03-12', 'lat_lon_source': 'website'}",43.4451642,6.7032041,DARTY Puget sur Argens,"{'opening_hours': {'Mon': '09:30 - 19:30', 'Tue': '09:30 - 19:30', 'Wed': '09:30 - 19:30', 'Thu': '09:30 - 19:30', 'Fri': '09:30 - 19:30', 'Sat': '09:30 - 19:30'}}",+33 892 01 10 10,83480,144,,https://magasin.darty.com/144-darty-puget-sur-argens
"5, rue de Gourvily",Darty,Quimper,FR,"{'brand': 'Darty', 'fascia': 'Darty', 'category': 'Retail', 'edit_date': '2025-03-12', 'lat_lon_source': 'website'}",48.015643,-4.083975,DARTY Quimper,"{'opening_hours': {'Mon': '09:30 - 19:30', 'Tue': '09:30 - 19:30', 'Wed': '09:30 - 19:30', 'Thu': '09:30 - 19:30', 'Fri': '09:30 - 19:30', 'Sat': '09:30 - 19:30'}}",+33 892 01 10 10,29000,146,,https://magasin.darty.com/146-darty-quimper
Route de Saint-Malo,Darty,Saint-Grégoire,FR,"{'brand': 'Darty', 'fascia': 'Darty', 'category': 'Retail', 'edit_date': '2025-03-12', 'lat_lon_source': 'website'}",48.1342306,-1.6933028,DARTY Rennes St Grégoire,"{'opening_hours': {'Mon': '09:30 - 19:30', 'Tue': '09:30 - 19:30', 'Wed': '09:30 - 19:30', 'Thu': '09:30 - 19:30', 'Fri': '09:30 - 19:30', 'Sat': '09:30 - 19:30'}}",+33 892 01 10 10,35760,148,,https://magasin.darty.com/148-darty-rennes-st-gregoire
"1, avenue de la République",Darty,Paris,FR,"{'brand': 'Darty', 'fascia': 'Darty', 'category': 'Retail', 'edit_date': '2025-03-12', 'lat_lon_source': 'website'}",48.8671134,2.3660679,DARTY Republique,"{'opening_hours': {'Mon': '10:00 - 19:30', 'Tue': '10:00 - 19:30', 'Wed': '10:00 - 19:30', 'Thu': '10:00 - 19:30', 'Fri': '10:00 - 19:30', 'Sat': '10:00 - 19:30'}}",+33 892 01 10 10,75011,149,,https://magasin.darty.com/149-darty-republique
Les Parques Zone Commerciale,Darty,Cormontreuil,FR,"{'brand': 'Darty', 'fascia': 'Darty', 'category': 'Retail', 'edit_date': '2025-03-12', 'lat_lon_source': 'website'}",49.2141457,4.0438435,DARTY Reims Cormontreuil,"{'opening_hours': {'Mon': '10:00 - 19:30', 'Tue': '10:00 - 19:30', 'Wed': '10:00 - 19:30', 'Thu': '10:00 - 19:30', 'Fri': '10:00 - 19:30', 'Sat': '10:00 - 19:30'}}",+33 892 01 10 10,51350,147,,https://magasin.darty.com/147-darty-reims-cormontreuil
"925, avenue d'Espagne",Darty,Perpignan,FR,"{'brand': 'Darty', 'fascia': 'Darty', 'category': 'Retail', 'edit_date': '2025-03-12', 'lat_lon_source': 'website'}",42.6804027,2.8942719,DARTY Perpignan,"{'opening_hours': {'Mon': '09:30 - 19:30', 'Tue': '09:30 - 19:30', 'Wed': '09:30 - 19:30', 'Thu': '09:30 - 19:30', 'Fri': '09:30 - 19:30', 'Sat': '09:30 - 19:30'}}",+33 892 01 10 10,66100,140,,https://magasin.darty.com/140-darty-perpignan
"106, avenue du Vieux Chemin de Saint Denis",Darty,Gennevilliers,FR,"{'brand': 'Darty', 'fascia': 'Darty', 'category': 'Retail', 'edit_date': '2025-03-12', 'lat_lon_source': 'website'}",48.9314408,2.3191711,DARTY Gennevilliers,"{'opening_hours': {'Mon': '10:00 - 20:00', 'Tue': '10:00 - 20:00', 'Wed': '10:00 - 20:00', 'Thu': '10:00 - 20:00', 'Fri': '10:00 - 20:00', 'Sat': '10:00 - 20:00', 'Sun': '10:00 - 19:00'}}",+33 892 01 10 10,92230,15,,https://magasin.darty.com/15-darty-gennevilliers
Rue Jean de la Fontaine,Darty,Mably,FR,"{'brand': 'Darty', 'fascia': 'Darty', 'category': 'Retail', 'edit_date': '2025-03-12', 'lat_lon_source': 'website'}",46.0681454,4.0594612,DARTY Roanne,"{'opening_hours': {'Mon': '10:00 - 19:00', 'Tue': '10:00 - 19:00', 'Wed': '10:00 - 19:00', 'Thu': '10:00 - 19:00', 'Fri': '10:00 - 19:00', 'Sat': '09:30 - 19:00'}}",+33 892 01 10 10,42300,150,,https://magasin.darty.com/150-darty-roanne
Rue du 8 mai 1945,Darty,Saint-Jean-de-Maurienne,FR,"{'brand': 'Darty', 'fascia': 'Darty', 'category': 'Retail', 'edit_date': '2025-03-12', 'lat_lon_source': 'website'}",45.2718823,6.3625431,DARTY Saint-Jean-de-Maurienne,"{'opening_hours': {'Mon': '09:30 - 12:30, 14:00 - 19:00', 'Tue': '09:30 - 12:30, 14:00 - 19:00', 'Wed': '09:30 - 12:30, 14:00 - 19:00', 'Thu': '09:30 - 12:30, 14:00 - 19:00', 'Fri': '09:30 - 12:30, 14:00 - 19:00', 'Sat': '09:30 - 12:30, 14:00 - 19:00'}}",+33 892 01 10 10,73300,248,,https://magasin.darty.com/248-darty-saint-jean-de-maurienne
"3, rue des Margats",Darty,Coulommiers,FR,"{'brand': 'Darty', 'fascia': 'Darty', 'category': 'Retail', 'edit_date': '2025-03-12', 'lat_lon_source': 'website'}",48.8089201,3.0930984,DARTY Coulommiers,"{'opening_hours': {'Mon': '10:00 - 12:00, 14:00 - 19:00', 'Tue': '10:00 - 12:00, 14:00 - 19:00', 'Wed': '10:00 - 12:00, 14:00 - 19:00', 'Thu': '10:00 - 12:00, 14:00 - 19:00', 'Fri': '10:00 - 12:00, 14:00 - 19:00', 'Sat': '10:00 - 19:00'}}",+33 892 01 10 10,77120,245,,https://magasin.darty.com/245-darty-coulommiers
"20, avenue Micheline Ostermeyer",Darty,Yvetot,FR,"{'brand': 'Darty', 'fascia': 'Darty', 'category': 'Retail', 'edit_date': '2025-03-12', 'lat_lon_source': 'website'}",49.6148697,0.7753382,DARTY Yvetot,"{'opening_hours': {'Mon': '09:30 - 12:30, 14:00 - 19:00', 'Tue': '09:30 - 12:30, 14:00 - 19:00', 'Wed': '09:30 - 12:30, 14:00 - 19:00', 'Thu': '09:30 - 12:30, 14:00 - 19:00', 'Fri': '09:30 - 12:30, 14:00 - 19:00', 'Sat': '09:30 - 19:00'}}",+33 892 01 10 10,76190,289,,https://magasin.darty.com/289-darty-yvetot
"Parc de Choisy, RN 85",Darty,Peipin,FR,"{'brand': 'Darty', 'fascia': 'Darty', 'category': 'Retail', 'edit_date': '2025-03-12', 'lat_lon_source': 'website'}",44.143837,5.96433,DARTY Sisteron Peipin,"{'opening_hours': {'Mon': '09:30 - 19:00', 'Tue': '09:30 - 19:00', 'Wed': '09:30 - 19:00', 'Thu': '09:30 - 19:00', 'Fri': '09:30 - 19:00', 'Sat': '09:30 - 19:00'}}",+33 892 01 10 10,04200,296,,https://magasin.darty.com/296-darty-sisteron-peipin
"29, avenue Léo Lagrange",Darty,Thiers,FR,"{'brand': 'Darty', 'fascia': 'Darty', 'category': 'Retail', 'edit_date': '2025-03-12', 'lat_lon_source': 'website'}",45.8494035,3.5354065,DARTY Thiers,"{'opening_hours': {'Mon': '09:30 - 12:00, 14:00 - 19:00', 'Tue': '09:30 - 12:00, 14:00 - 19:00', 'Wed': '09:30 - 12:00, 14:00 - 19:00', 'Thu': '09:30 - 12:00, 14:00 - 19:00', 'Fri': '09:30 - 12:00, 14:00 - 19:00', 'Sat': '09:30 - 12:00, 14:00 - 19:00'}}",+33 892 01 10 10,63300,298,,https://magasin.darty.com/298-darty-thiers
Boulevard de l'Europe,Darty,Parthenay,FR,"{'brand': 'Darty', 'fascia': 'Darty', 'category': 'Retail', 'edit_date': '2025-03-12', 'lat_lon_source': 'website'}",46.6527253,-0.2292307,DARTY Parthenay,"{'opening_hours': {'Mon': '09:30 - 19:30', 'Tue': '09:30 - 19:30', 'Wed': '09:30 - 19:30', 'Thu': '09:30 - 19:30', 'Fri': '09:30 - 19:30', 'Sat': '09:30 - 19:30'}}",+33 892 01 10 10,79200,312,,https://magasin.darty.com/312-darty-parthenay
"5, rue Louis Nicolas Robert",Darty,Biganos,FR,"{'brand': 'Darty', 'fascia': 'Darty', 'category': 'Retail', 'edit_date': '2025-03-12', 'lat_lon_source': 'website'}",44.634885,-0.95909800000004,DARTY Biganos,"{'opening_hours': {'Mon': '10:00 - 19:30', 'Tue': '10:00 - 19:30', 'Wed': '10:00 - 19:30', 'Thu': '10:00 - 19:30', 'Fri': '10:00 - 19:30', 'Sat': '10:00 - 19:30'}}",+33 892 01 10 10,33380,327,,https://magasin.darty.com/327-darty-biganos
"742, avenue de Bordeaux",Darty,Bias,FR,"{'brand': 'Darty', 'fascia': 'Darty', 'category': 'Retail', 'edit_date': '2025-03-12', 'lat_lon_source': 'website'}",44.404676,0.682086,DARTY Villeneuve-sur-Lot,"{'opening_hours': {'Mon': '09:30 - 19:30', 'Tue': '09:30 - 19:30', 'Wed': '09:30 - 19:30', 'Thu': '09:30 - 19:30', 'Fri': '09:30 - 19:30', 'Sat': '09:30 - 19:30'}}",+33 892 01 10 10,47300,349,,https://magasin.darty.com/349-darty-villeneuve-sur-lot
"5, rue Jacques Yves Cousteau",Darty,Vaux-sur-Mer,FR,"{'brand': 'Darty', 'fascia': 'Darty', 'category': 'Retail', 'edit_date': '2025-03-12', 'lat_lon_source': 'website'}",45.646806,-1.051815,DARTY Royan,"{'opening_hours': {'Mon': '10:00 - 19:00', 'Tue': '10:00 - 19:00', 'Wed': '10:00 - 19:00', 'Thu': '10:00 - 19:00', 'Fri': '10:00 - 19:00', 'Sat': '10:00 - 19:00'}}",+33 892 01 10 10,17640,340,,https://magasin.darty.com/340-darty-royan
Lieu-dit Touche Saint Porchaire Lotissement La Triche,Darty,Bressuire,FR,"{'brand': 'Darty', 'fascia': 'Darty', 'category': 'Retail', 'edit_date': '2025-03-12', 'lat_lon_source': 'website'}",46.855461,-0.453565,DARTY Bressuire,"{'opening_hours': {'Mon': '09:30 - 19:30', 'Tue': '09:30 - 19:30', 'Wed': '09:30 - 19:30', 'Thu': '09:30 - 19:30', 'Fri': '09:30 - 19:30', 'Sat': '09:30 - 19:30'}}",+33 892 01 10 10,79300,335,,https://magasin.darty.com/335-darty-bressuire
Route de la Noue,Darty,Gif-sur-Yvette,FR,"{'brand': 'Darty', 'fascia': 'Darty', 'category': 'Retail', 'edit_date': '2025-03-12', 'lat_lon_source': 'website'}",48.7009247,2.1029333,DARTY Gif-sur-Yvette,"{'opening_hours': {'Mon': '09:30 - 19:30', 'Tue': '09:30 - 19:30', 'Wed': '09:30 - 19:30', 'Thu': '09:30 - 19:30', 'Fri': '09:30 - 19:30', 'Sat': '09:30 - 19:30'}}",+33 892 01 10 10,91190,365,,https://magasin.darty.com/365-darty-gif-sur-yvette
Route de Plomeur,Darty,Pont-L'Abbé,FR,"{'brand': 'Darty', 'fascia': 'Darty', 'category': 'Retail', 'edit_date': '2025-03-12', 'lat_lon_source': 'website'}",47.8535518,-4.2441988,DARTY Pont-l'Abbé,"{'opening_hours': {'Mon': '09:30 - 12:00, 14:00 - 19:00', 'Tue': '09:30 - 12:00, 14:00 - 19:00', 'Wed': '09:30 - 12:00, 14:00 - 19:00', 'Thu': '09:30 - 12:00, 14:00 - 19:00', 'Fri': '09:30 - 12:00, 14:00 - 19:00', 'Sat': '09:30 - 12:00, 14:00 - 19:00'}}",+33 892 01 10 10,29120,359,,https://magasin.darty.com/359-darty-pont-l-abbe
"787, route de Nimes",Darty,Aigues-Mortes,FR,"{'brand': 'Darty', 'fascia': 'Darty', 'category': 'Retail', 'edit_date': '2025-03-12', 'lat_lon_source': 'website'}",43.5759151,4.1969024,DARTY Aigues-Mortes,"{'opening_hours': {'Mon': '09:00 - 12:00, 14:00 - 19:00', 'Tue': '09:00 - 12:00, 14:00 - 19:00', 'Wed': '09:00 - 12:00, 14:00 - 19:00', 'Thu': '09:00 - 12:00, 14:00 - 19:00', 'Fri': '09:00 - 12:00, 14:00 - 19:00', 'Sat': '09:00 - 12:00, 14:00 - 19:00'}}",+33 892 01 10 10,30220,353,,https://magasin.darty.com/353-darty-aigues-mortes
"2, rue des Hérons",Darty,Argelès-sur-Mer,FR,"{'brand': 'Darty', 'fascia': 'Darty', 'category': 'Retail', 'edit_date': '2025-03-12', 'lat_lon_source': 'website'}",42.556350640298,3.0122725607132,DARTY Argelès-sur-mer,"{'opening_hours': {'Mon': '09:30 - 12:00, 14:00 - 19:00', 'Tue': '09:30 - 12:00, 14:00 - 19:00', 'Wed': '09:30 - 12:00, 14:00 - 19:00', 'Thu': '09:30 - 12:00, 14:00 - 19:00', 'Fri': '09:30 - 12:00, 14:00 - 19:00', 'Sat': '09:30 - 12:00, 14:00 - 19:00'}}",+33 4 68 52 03 25,66700,389,,https://magasin.darty.com/389-darty-argeles-sur-mer
"35, rue Lucas",Darty,Vichy,FR,"{'brand': 'Darty', 'fascia': 'Darty', 'category': 'Retail', 'edit_date': '2025-03-12', 'lat_lon_source': 'website'}",46.1263913,3.4219549,DARTY Vichy II,"{'opening_hours': {'Mon': '14:00 - 19:00', 'Tue': '09:30 - 19:00', 'Wed': '09:30 - 19:00', 'Thu': '09:30 - 19:00', 'Fri': '09:30 - 19:00', 'Sat': '09:30 - 19:00', 'Sun': '14:30 - 19:00'}}",+33 892 01 10 10,03200,188,,https://magasin.darty.com/188-darty-vichy-ii
"68, rue Lagrua",Darty,La-Teste-de-Buch,FR,"{'brand': 'Darty', 'fascia': 'Darty', 'category': 'Retail', 'edit_date': '2025-03-12', 'lat_lon_source': 'website'}",44.6426357,-1.1568493,DARTY Arcachon la Teste,"{'opening_hours': {'Mon': '10:00 - 12:30, 14:30 - 19:00', 'Tue': '10:00 - 12:30, 14:30 - 19:00', 'Wed': '10:00 - 12:30, 14:30 - 19:00', 'Thu': '10:00 - 12:30, 14:30 - 19:00', 'Fri': '10:00 - 12:30, 14:30 - 19:00', 'Sat': '10:00 - 12:30, 14:30 - 19:00'}}",+33 892 01 10 10,33260,239,,https://magasin.darty.com/239-darty-arcachon-la-teste
"474, avenue de Genève Clos de l’Île Roche Lieu-dit la Paccoterie",Darty,Sallanches,FR,"{'brand': 'Darty', 'fascia': 'Darty', 'category': 'Retail', 'edit_date': '2025-03-12', 'lat_lon_source': 'website'}",45.9541871,6.6262911,DARTY Sallanches,"{'opening_hours': {'Mon': '09:30 - 12:30, 14:00 - 19:00', 'Tue': '09:30 - 12:30, 14:00 - 19:00', 'Wed': '09:30 - 12:30, 14:00 - 19:00', 'Thu': '09:30 - 12:30, 14:00 - 19:00', 'Fri': '09:30 - 12:30, 14:00 - 19:00', 'Sat': '09:30 - 19:00'}}",+33 892 01 10 10,74700,251,,https://magasin.darty.com/251-darty-sallanches
"221, route du Grand Champ",Darty,Apprieu,FR,"{'brand': 'Darty', 'fascia': 'Darty', 'category': 'Retail', 'edit_date': '2025-03-12', 'lat_lon_source': 'website'}",45.3973575,5.468692,DARTY Apprieu,"{'opening_hours': {'Mon': '09:00 - 12:00, 14:00 - 19:00', 'Tue': '09:00 - 12:00, 14:00 - 19:00', 'Wed': '09:00 - 12:00, 14:00 - 19:00', 'Thu': '09:00 - 12:00, 14:00 - 19:00', 'Fri': '09:00 - 12:00, 14:00 - 19:00', 'Sat': '09:00 - 12:00, 14:00 - 19:00'}}",+33 892 01 10 10,38140,259,,https://magasin.darty.com/259-darty-apprieu
Route de Berck CD 917,Darty,Rang-du-Fliers,FR,"{'brand': 'Darty', 'fascia': 'Darty', 'category': 'Retail', 'edit_date': '2025-03-12', 'lat_lon_source': 'website'}",50.4153101,1.6095606,DARTY Rang-du-Fliers,"{'opening_hours': {'Mon': '09:30 - 12:30, 14:00 - 19:00', 'Tue': '09:30 - 12:30, 14:00 - 19:00', 'Wed': '09:30 - 12:30, 14:00 - 19:00', 'Thu': '09:30 - 12:30, 14:00 - 19:00', 'Fri': '09:30 - 12:30, 14:00 - 19:00', 'Sat': '09:30 - 19:00'}}",+33 892 01 10 10,62180,273,,https://magasin.darty.com/273-darty-rang-du-fliers
"1, rue Truffaut, route de Paris",Darty,Deauville,FR,"{'brand': 'Darty', 'fascia': 'Darty', 'category': 'Retail', 'edit_date': '2025-03-12', 'lat_lon_source': 'website'}",49.3553184,0.08769,DARTY Deauville,"{'opening_hours': {'Mon': '14:00 - 19:00', 'Tue': '09:30 - 12:30, 14:00 - 19:00', 'Wed': '09:30 - 12:30, 14:00 - 19:00', 'Thu': '09:30 - 12:30, 14:00 - 19:00', 'Fri': '09:30 - 12:30, 14:00 - 19:00', 'Sat': '09:30 - 19:00'}}",+33 892 01 10 10,14800,276,,https://magasin.darty.com/276-darty-deauville
Rue de la Vallière,Darty,Montmorot,FR,"{'brand': 'Darty', 'fascia': 'Darty', 'category': 'Retail', 'edit_date': '2025-03-12', 'lat_lon_source': 'website'}",46.681809,5.5752782,DARTY Lons-le-Saunier,"{'opening_hours': {'Mon': '10:00 - 12:00, 14:00 - 19:00', 'Tue': '09:30 - 12:00, 14:00 - 19:00', 'Wed': '09:30 - 12:00, 14:00 - 19:00', 'Thu': '09:30 - 12:00, 14:00 - 19:00', 'Fri': '09:30 - 12:00, 14:00 - 19:00', 'Sat': '09:30 - 19:00'}}",+33 892 01 10 10,39570,300,,https://magasin.darty.com/300-darty-lons-le-saunier
"57, rue Ambroise Croizat",Darty,Albertville,FR,"{'brand': 'Darty', 'fascia': 'Darty', 'category': 'Retail', 'edit_date': '2025-03-12', 'lat_lon_source': 'website'}",45.6580023,6.3679091,DARTY Albertville,"{'opening_hours': {'Mon': '09:30 - 12:30, 14:00 - 19:00', 'Tue': '09:30 - 12:30, 14:00 - 19:00', 'Wed': '09:30 - 12:30, 14:00 - 19:00', 'Thu': '09:30 - 12:30, 14:00 - 19:00', 'Fri': '09:30 - 12:30, 14:00 - 19:00', 'Sat': '09:30 - 19:00'}}",+33 892 01 10 10,73200,321,,https://magasin.darty.com/321-darty-albertville
"49, rue du Rajol",Darty,Millau,FR,"{'brand': 'Darty', 'fascia': 'Darty', 'category': 'Retail', 'edit_date': '2025-03-12', 'lat_lon_source': 'website'}",44.1000904,3.0831727,DARTY Millau,"{'opening_hours': {'Mon': '10:00 - 12:30, 14:00 - 19:00', 'Tue': '10:00 - 12:30, 14:00 - 19:00', 'Wed': '10:00 - 12:30, 14:00 - 19:00', 'Thu': '10:00 - 12:30, 14:00 - 19:00', 'Fri': '10:00 - 12:30, 14:00 - 19:00', 'Sat': '10:00 - 12:30, 14:00 - 19:00'}}",+33 892 01 10 10,12100,347,,https://magasin.darty.com/347-darty-millau
Route de Mezzavia,Darty,Ajaccio,FR,"{'brand': 'Darty', 'fascia': 'Darty', 'category': 'Retail', 'edit_date': '2025-03-12', 'lat_lon_source': 'website'}",41.9507241,8.77275,DARTY Ajaccio,"{'opening_hours': {'Mon': '09:30 - 19:00', 'Tue': '09:30 - 19:00', 'Wed': '09:30 - 19:00', 'Thu': '09:30 - 19:00', 'Fri': '09:30 - 19:00', 'Sat': '09:30 - 19:00'}}",+33 892 01 10 10,20167,341,,https://magasin.darty.com/341-darty-ajaccio
"3, rue Baronne Delort",Darty,Champagnole,FR,"{'brand': 'Darty', 'fascia': 'Darty', 'category': 'Retail', 'edit_date': '2025-03-12', 'lat_lon_source': 'website'}",46.7497638,5.9075501,DARTY Champagnole,"{'opening_hours': {'Mon': '10:00 - 12:00, 14:00 - 19:00', 'Tue': '10:00 - 12:00, 14:00 - 19:00', 'Wed': '10:00 - 12:00, 14:00 - 19:00', 'Thu': '10:00 - 12:00, 14:00 - 19:00', 'Fri': '10:00 - 12:00, 14:00 - 19:00', 'Sat': '10:00 - 12:00, 14:00 - 19:00'}}",+33 892 01 10 10,39300,351,,https://magasin.darty.com/351-darty-champagnole
"3, rue de la Clairette",Darty,Clermont-L'herault,FR,"{'brand': 'Darty', 'fascia': 'Darty', 'category': 'Retail', 'edit_date': '2025-03-12', 'lat_lon_source': 'website'}",43.6196697,3.451203,DARTY Clermont-l'Hérault,"{'opening_hours': {'Mon': '09:00 - 19:00', 'Tue': '09:00 - 19:00', 'Wed': '09:00 - 19:00', 'Thu': '09:00 - 19:00', 'Fri': '09:00 - 19:00', 'Sat': '09:00 - 19:00'}}",+33 892 01 10 10,34800,357,,https://magasin.darty.com/357-darty-clermont-l-herault
Z.A.C. du Mouliot,Darty,Auch,FR,"{'brand': 'Darty', 'fascia': 'Darty', 'category': 'Retail', 'edit_date': '2025-03-12', 'lat_lon_source': 'website'}",43.6605,0.613619,DARTY Auch,"{'opening_hours': {'Mon': '10:00 - 12:00, 14:00 - 19:00', 'Tue': '10:00 - 12:00, 14:00 - 19:00', 'Wed': '10:00 - 12:00, 14:00 - 19:00', 'Thu': '10:00 - 12:00, 14:00 - 19:00', 'Fri': '10:00 - 12:00, 14:00 - 19:00', 'Sat': '10:00 - 19:00'}}",+33 892 01 10 10,32000,383,,https://magasin.darty.com/383-darty-auch
Route de Longwy,Darty,Lexy,FR,"{'brand': 'Darty', 'fascia': 'Darty', 'category': 'Retail', 'edit_date': '2025-03-12', 'lat_lon_source': 'website'}",49.5135854,5.7386593,DARTY Longwy,"{'opening_hours': {'Mon': '10:00 - 19:00', 'Tue': '10:00 - 19:00', 'Wed': '10:00 - 19:00', 'Thu': '10:00 - 19:00', 'Fri': '10:00 - 19:00', 'Sat': '10:00 - 19:00'}}",+33 892 01 10 10,54720,382,,https://magasin.darty.com/382-darty-longwy
avenue Jean Jaurès,Darty,Le-Pont-de-Beauvoisin,FR,"{'brand': 'Darty', 'fascia': 'Darty', 'category': 'Retail', 'edit_date': '2025-03-12', 'lat_lon_source': 'website'}",45.534661,5.680691,DARTY Le Pont-de-Beauvoisin II,"{'opening_hours': {'Mon': '09:00 - 12:00, 14:00 - 19:00', 'Tue': '09:00 - 12:00, 14:00 - 19:00', 'Wed': '09:00 - 12:00, 14:00 - 19:00', 'Thu': '09:00 - 12:00, 14:00 - 19:00', 'Fri': '09:00 - 12:00, 14:00 - 19:00', 'Sat': '09:00 - 12:00, 14:00 - 19:00'}}",+33 892 01 10 10,73330,377,,https://magasin.darty.com/377-darty-le-pont-de-beauvoisin-ii
Z.A. Porte du Quercy Lieu-dit Roussel,Darty,Montayral,FR,"{'brand': 'Darty', 'fascia': 'Darty', 'category': 'Retail', 'edit_date': '2025-03-12', 'lat_lon_source': 'website'}",44.486418,0.979168,DARTY Montayral,"{'opening_hours': {'Mon': '09:30 - 12:00, 14:00 - 19:00', 'Tue': '09:30 - 12:00, 14:00 - 19:00', 'Wed': '09:30 - 12:00, 14:00 - 19:00', 'Thu': '09:30 - 12:00, 14:00 - 19:00', 'Fri': '09:30 - 12:00, 14:00 - 19:00', 'Sat': '09:30 - 12:00, 14:00 - 19:00'}}",+33 892 01 10 10,47500,400,,https://magasin.darty.com/400-darty-montayral
"14, avenue Pierre Mendès France",Darty,Issoire,FR,"{'brand': 'Darty', 'fascia': 'Darty', 'category': 'Retail', 'edit_date': '2025-03-12', 'lat_lon_source': 'website'}",45.5513,3.2612135,DARTY Issoire,"{'opening_hours': {'Mon': '10:00 - 12:00, 14:00 - 19:00', 'Tue': '10:00 - 12:00, 14:00 - 19:00', 'Wed': '10:00 - 12:00, 14:00 - 19:00', 'Thu': '10:00 - 12:00, 14:00 - 19:00', 'Fri': '10:00 - 12:00, 14:00 - 19:00', 'Sat': '10:00 - 19:00'}}",+33 892 01 10 10,63500,224,,https://magasin.darty.com/224-darty-issoire
Rue Léon Bel,Darty,Dole,FR,"{'brand': 'Darty', 'fascia': 'Darty', 'category': 'Retail', 'edit_date': '2025-03-12', 'lat_lon_source': 'website'}",47.108816,5.506855,DARTY Dole,"{'opening_hours': {'Mon': '09:30 - 12:30, 14:00 - 19:00', 'Tue': '09:30 - 12:30, 14:00 - 19:00', 'Wed': '09:30 - 12:30, 14:00 - 19:00', 'Thu': '09:30 - 12:30, 14:00 - 19:00', 'Fri': '09:30 - 12:30, 14:00 - 19:00', 'Sat': '09:30 - 12:30, 14:00 - 19:00'}}",+33 892 01 10 10,39100,243,,https://magasin.darty.com/243-darty-dole
Rue Flora Tristan,Darty,Pithiviers,FR,"{'brand': 'Darty', 'fascia': 'Darty', 'category': 'Retail', 'edit_date': '2025-03-12', 'lat_lon_source': 'website'}",48.1873868,2.2501761,DARTY Pithiviers,"{'opening_hours': {'Mon': '14:00 - 19:00', 'Tue': '09:30 - 12:00, 14:00 - 19:00', 'Wed': '09:30 - 12:00, 14:00 - 19:00', 'Thu': '09:30 - 12:00, 14:00 - 19:00', 'Fri': '09:30 - 12:00, 14:00 - 19:00', 'Sat': '09:30 - 12:30, 14:00 - 19:00'}}",+33 892 01 10 10,45300,252,,https://magasin.darty.com/252-darty-pithiviers
"4, allée Jean 1er du Forez",Darty,Montbrison,FR,"{'brand': 'Darty', 'fascia': 'Darty', 'category': 'Retail', 'edit_date': '2025-03-12', 'lat_lon_source': 'website'}",45.5961978,4.0839281,DARTY Montbrison,"{'opening_hours': {'Mon': '09:30 - 12:00, 14:00 - 19:00', 'Tue': '09:30 - 12:00, 14:00 - 19:00', 'Wed': '09:30 - 12:00, 14:00 - 19:00', 'Thu': '09:30 - 12:00, 14:00 - 19:00', 'Fri': '09:30 - 12:00, 14:00 - 19:00', 'Sat': '09:30 - 12:00, 14:00 - 19:00'}}",+33 892 01 10 10,42600,260,,https://magasin.darty.com/260-darty-montbrison
Avenue Jean Monnet Espace du Lac,Darty,La-Ferte-Bernard,FR,"{'brand': 'Darty', 'fascia': 'Darty', 'category': 'Retail', 'edit_date': '2025-03-12', 'lat_lon_source': 'website'}",48.1779657,0.6510315,DARTY La-Ferté-Bernard,"{'opening_hours': {'Mon': '10:00 - 12:00, 14:00 - 19:00', 'Tue': '10:00 - 12:00, 14:00 - 19:00', 'Wed': '10:00 - 12:00, 14:00 - 19:00', 'Thu': '10:00 - 12:00, 14:00 - 19:00', 'Fri': '10:00 - 12:00, 14:00 - 19:00', 'Sat': '10:00 - 12:00, 14:00 - 19:00'}}",+33 892 01 10 10,72400,278,,https://magasin.darty.com/278-darty-la-ferte-bernard
Rue du Pont de Bois,Darty,Saint-Renan,FR,"{'brand': 'Darty', 'fascia': 'Darty', 'category': 'Retail', 'edit_date': '2025-03-12', 'lat_lon_source': 'website'}",48.430906,-4.615937,DARTY Saint-Renan,"{'opening_hours': {'Mon': '09:30 - 19:00', 'Tue': '09:30 - 19:00', 'Wed': '09:30 - 19:00', 'Thu': '09:30 - 19:00', 'Fri': '09:30 - 19:00', 'Sat': '09:30 - 19:00'}}",+33 892 01 10 10,29290,287,,https://magasin.darty.com/287-darty-saint-renan
Centre commercial Montplain,Darty,Andelat,FR,"{'brand': 'Darty', 'fascia': 'Darty', 'category': 'Retail', 'edit_date': '2025-03-12', 'lat_lon_source': 'website'}",45.038406247992,3.05973271157,DARTY Saint-Flour,"{'opening_hours': {'Mon': '09:30 - 12:30, 14:00 - 19:00', 'Tue': '09:30 - 12:30, 14:00 - 19:00', 'Wed': '09:30 - 12:30, 14:00 - 19:00', 'Thu': '09:30 - 12:30, 14:00 - 19:00', 'Fri': '09:30 - 12:30, 14:00 - 19:00', 'Sat': '09:30 - 12:30, 14:00 - 19:00'}}",+33 892 01 10 10,15100,299,,https://magasin.darty.com/299-darty-saint-flour
"65 B, avenue de la Division Leclerc",Darty,Coutances,FR,"{'brand': 'Darty', 'fascia': 'Darty', 'category': 'Retail', 'edit_date': '2025-03-12', 'lat_lon_source': 'website'}",49.0618075,-1.4344003,DARTY Coutances,"{'opening_hours': {'Mon': '09:30 - 12:00, 14:00 - 19:00', 'Tue': '09:30 - 12:00, 14:00 - 19:00', 'Wed': '09:30 - 12:00, 14:00 - 19:00', 'Thu': '09:30 - 12:00, 14:00 - 19:00', 'Fri': '09:30 - 12:00, 14:00 - 19:00', 'Sat': '09:30 - 19:00'}}",+33 892 01 10 10,50200,308,,https://magasin.darty.com/308-darty-coutances
Allée des Gabares,Darty,La-Fleche,FR,"{'brand': 'Darty', 'fascia': 'Darty', 'category': 'Retail', 'edit_date': '2025-03-12', 'lat_lon_source': 'website'}",47.702958,-0.048975,DARTY La Flèche,"{'opening_hours': {'Mon': '10:00 - 12:30, 14:00 - 19:00', 'Tue': '10:00 - 12:30, 14:00 - 19:00', 'Wed': '10:00 - 12:30, 14:00 - 19:00', 'Thu': '10:00 - 12:30, 14:00 - 19:00', 'Fri': '10:00 - 12:30, 14:00 - 19:00', 'Sat': '10:00 - 12:30, 14:00 - 19:00'}}",+33 892 01 10 10,72200,316,,https://magasin.darty.com/316-darty-la-fleche
Allée du Breuil,Darty,Pont-à-Mousson,FR,"{'brand': 'Darty', 'fascia': 'Darty', 'category': 'Retail', 'edit_date': '2025-03-12', 'lat_lon_source': 'website'}",48.9198366,6.0598965,DARTY Pont-à-Mousson,"{'opening_hours': {'Mon': '09:30 - 12:00, 14:00 - 19:00', 'Tue': '09:30 - 12:00, 14:00 - 19:00', 'Wed': '09:30 - 12:00, 14:00 - 19:00', 'Thu': '09:30 - 12:00, 14:00 - 19:00', 'Fri': '09:30 - 12:00, 14:00 - 19:00', 'Sat': '09:30 - 19:00'}}",+33 892 01 10 10,54700,338,,https://magasin.darty.com/338-darty-pont-a-mousson
Rue de Guinefort,Darty,Quévert,FR,"{'brand': 'Darty', 'fascia': 'Darty', 'category': 'Retail', 'edit_date': '2025-03-12', 'lat_lon_source': 'website'}",48.4466149,-2.0694953,DARTY Dinan,"{'opening_hours': {'Mon': '10:00 - 12:30, 14:00 - 19:00', 'Tue': '10:00 - 12:30, 14:00 - 19:00', 'Wed': '10:00 - 12:30, 14:00 - 19:00', 'Thu': '10:00 - 12:30, 14:00 - 19:00', 'Fri': '10:00 - 12:30, 14:00 - 19:00', 'Sat': '10:00 - 19:00'}}",+33 892 01 10 10,22100,345,,https://magasin.darty.com/345-darty-dinan
"211, route de Villasavary",Darty,Castelnaudary,FR,"{'brand': 'Darty', 'fascia': 'Darty', 'category': 'Retail', 'edit_date': '2025-03-12', 'lat_lon_source': 'website'}",43.2981558,1.9573298,DARTY Castelnaudary,"{'opening_hours': {'Mon': '10:00 - 12:00, 14:00 - 19:00', 'Tue': '10:00 - 12:00, 14:00 - 19:00', 'Wed': '10:00 - 12:00, 14:00 - 19:00', 'Thu': '10:00 - 12:00, 14:00 - 19:00', 'Fri': '10:00 - 12:00, 14:00 - 19:00', 'Sat': '10:00 - 12:00, 14:00 - 19:00'}}",+33 892 01 10 10,11400,336,,https://magasin.darty.com/336-darty-castelnaudary
Rue du Bief Centre commercial,Darty,Morteau,FR,"{'brand': 'Darty', 'fascia': 'Darty', 'category': 'Retail', 'edit_date': '2025-03-12', 'lat_lon_source': 'website'}",47.058782,6.61461,DARTY Morteau,"{'opening_hours': {'Mon': '09:30 - 19:00', 'Tue': '09:30 - 19:00', 'Wed': '09:30 - 19:00', 'Thu': '09:30 - 19:00', 'Fri': '09:30 - 19:00', 'Sat': '09:30 - 19:00'}}",+33 892 01 10 10,25500,350,,https://magasin.darty.com/350-darty-morteau
Rue Henri Pourrat,Darty,Mauriac,FR,"{'brand': 'Darty', 'fascia': 'Darty', 'category': 'Retail', 'edit_date': '2025-03-12', 'lat_lon_source': 'website'}",45.216506,2.338976,DARTY Mauriac,"{'opening_hours': {'Mon': '09:00 - 12:00, 14:00 - 19:00', 'Tue': '09:00 - 12:00, 14:00 - 19:00', 'Wed': '09:00 - 12:00, 14:00 - 19:00', 'Thu': '09:00 - 12:00, 14:00 - 19:00', 'Fri': '09:00 - 12:00, 14:00 - 19:00', 'Sat': '09:00 - 12:00, 14:00 - 19:00'}}",+33 892 01 10 10,15200,352,,https://magasin.darty.com/352-darty-mauriac
"16, avenue du 19 Mars 1962",Darty,Vierzon,FR,"{'brand': 'Darty', 'fascia': 'Darty', 'category': 'Retail', 'edit_date': '2025-03-12', 'lat_lon_source': 'website'}",47.2389441,2.0907596,DARTY Vierzon,"{'opening_hours': {'Mon': '10:00 - 19:00', 'Tue': '10:00 - 19:00', 'Wed': '10:00 - 19:00', 'Thu': '10:00 - 19:00', 'Fri': '10:00 - 19:00', 'Sat': '10:00 - 19:00'}}",+33 892 01 10 10,18100,358,,https://magasin.darty.com/358-darty-vierzon
