[
{"addr_full": "東京都渋谷区千駄ヶ谷2-11-1", "brand": "Ron Herman", "city": "SENDAGAYA", "country": "Japan", "extras": {"brand": "Ron Herman", "fascia": null, "category": null, "edit_date": "2025-03-05 14:56:18", "lat_lon_source": "website"}, "lat": {"latitude": "35.675517", "longitude": "139.710071"}, "lon": {"latitude": "35.675517", "longitude": "139.710071"}, "name": "ロンハーマン千駄ヶ谷店", "opening_hours": {"Mon": "11:00 ～ 19:30", "Tue": "11:00 ～ 19:30", "Wed": "11:00 ～ 19:30", "Thur": "11:00 ～ 19:30", "Fri": "11:00 ～ 19:30", "Sat": "11:00 ～ 19:30", "Sun": "11:00 ～ 19:30"}, "phone": ["0334026839", "0334786839", "0334706839"], "postcode": "151-8575", "ref": 1, "state": null, "website": null},
{"addr_full": "東京都世田谷区玉川4-1-25玉川髙島屋S・C　アイビーズプレイス", "brand": "Ron Herman", "city": "FUTAKOTAMAGAWA", "country": "Japan", "extras": {"brand": "Ron Herman", "fascia": null, "category": null, "edit_date": "2025-03-05 14:56:18", "lat_lon_source": "website"}, "lat": {"latitude": "35.615149", "longitude": "139.627229"}, "lon": {"latitude": "35.615149", "longitude": "139.627229"}, "name": "ロンハーマン二子玉川店", "opening_hours": {"Mon": "10：00 ～ 20：00", "Tue": "10：00 ～ 20：00", "Wed": "10：00 ～ 20：00", "Thur": "10：00 ～ 20：00", "Fri": "10：00 ～ 20：00", "Sat": "10：00 ～ 20：00", "Sun": "10：00 ～ 20：00"}, "phone": "0337086839", "postcode": "158-0094", "ref": 2, "state": null, "website": null},
{"addr_full": "兵庫県神戸市中央区三宮町3-6-1神戸BAL ANNEX", "brand": "Ron Herman", "city": "KOBE", "country": "Japan", "extras": {"brand": "Ron Herman", "fascia": null, "category": null, "edit_date": "2025-03-05 14:56:18", "lat_lon_source": "website"}, "lat": {"latitude": "34.689775", "longitude": "135.190165"}, "lon": {"latitude": "34.689775", "longitude": "135.190165"}, "name": "ロンハーマン神戸店", "opening_hours": {"Mon": "11：00 ～ 20：00", "Tue": "11：00 ～ 20：00", "Wed": "11：00 ～ 20：00", "Thur": "11：00 ～ 20：00", "Fri": "11：00 ～ 20：00", "Sat": "11：00 ～ 20：00", "Sun": "11：00 ～ 20：00"}, "phone": "0783336839", "postcode": "650-0021", "ref": 3, "state": null, "website": null},
{"addr_full": "東京都千代田区有楽町2-5-1ルミネ有楽町店 ルミネ１ 1F", "brand": "Ron Herman", "city": "YURAKUCHO", "country": "Japan", "extras": {"brand": "Ron Herman", "fascia": null, "category": null, "edit_date": "2025-03-05 14:56:18", "lat_lon_source": "website"}, "lat": {"latitude": "35.673562", "longitude": "139.763054"}, "lon": {"latitude": "35.673562", "longitude": "139.763054"}, "name": "ロンハーマン有楽町店", "opening_hours": {"Mon": "11：00 ～ 21：00", "Tue": "11：00 ～ 21：00", "Wed": "11：00 ～ 21：00", "Thur": "11：00 ～ 21：00", "Fri": "11：00 ～ 21：00", "Sat": "11：00 ～ 21：00", "Sun": "11：00 ～ 21：00"}, "phone": "0352221739", "postcode": "100-0006", "ref": 4, "state": null, "website": null},
{"addr_full": "神奈川県藤沢市辻堂神台1-3-1テラスモール湘南 湘南ヴィレッジ", "brand": "Ron Herman", "city": "TSUJIDO", "country": "Japan", "extras": {"brand": "Ron Herman", "fascia": null, "category": null, "edit_date": "2025-03-05 14:56:18", "lat_lon_source": "website"}, "lat": {"latitude": "35.33825", "longitude": "139.447216"}, "lon": {"latitude": "35.33825", "longitude": "139.447216"}, "name": "ロンハーマン辻堂店", "opening_hours": {"Mon": "10：00 ～ 21：00", "Tue": "10：00 ～ 21：00", "Wed": "10：00 ～ 21：00", "Thur": "10：00 ～ 21：00", "Fri": "10：00 ～ 21：00", "Sat": "10：00 ～ 21：00", "Sun": "10：00 ～ 21：00"}, "phone": "0466381839", "postcode": "251-0041", "ref": 5, "state": null, "website": null},
{"addr_full": "東京都港区赤坂9-7-4東京ミッドタウン　ガーデンテラスB1F", "brand": "Ron Herman", "city": "ROPPONGI", "country": "Japan", "extras": {"brand": "Ron Herman", "fascia": null, "category": null, "edit_date": "2025-03-05 14:56:18", "lat_lon_source": "website"}, "lat": {"latitude": "35.666852", "longitude": "139.730537"}, "lon": {"latitude": "35.666852", "longitude": "139.730537"}, "name": "ロンハーマン六本木店", "opening_hours": {"Mon": "11：00 ～ 20：00", "Tue": "11：00 ～ 20：00", "Wed": "11：00 ～ 20：00", "Thur": "11：00 ～ 20：00", "Fri": "11：00 ～ 20：00", "Sat": "11：00 ～ 20：00", "Sun": "11：00 ～ 20：00"}, "phone": "0364470561", "postcode": "107-0052", "ref": 7, "state": null, "website": null},
{"addr_full": "大阪府大阪市北区大深町4-20グランフロント大阪ショップ＆レストラン　南館1F", "brand": "Ron Herman", "city": "OSAKA", "country": "Japan", "extras": {"brand": "Ron Herman", "fascia": null, "category": null, "edit_date": "2025-03-05 14:56:18", "lat_lon_source": "website"}, "lat": {"latitude": "34.704358", "longitude": "135.494392"}, "lon": {"latitude": "34.704358", "longitude": "135.494392"}, "name": "ロンハーマン大阪店", "opening_hours": {"Mon": "11：00 ～ 21：00", "Tue": "11：00 ～ 21：00", "Wed": "11：00 ～ 21：00", "Thur": "11：00 ～ 21：00", "Fri": "11：00 ～ 21：00", "Sat": "11：00 ～ 21：00", "Sun": "11：00 ～ 21：00"}, "phone": "0669406835", "postcode": "530-0011", "ref": 8, "state": null, "website": null},
{"addr_full": "愛知県名古屋市中区栄3-6-1ラシック1F", "brand": "Ron Herman", "city": "NAGOYA", "country": "Japan", "extras": {"brand": "Ron Herman", "fascia": null, "category": null, "edit_date": "2025-03-05 14:56:18", "lat_lon_source": "website"}, "lat": {"latitude": "35.167421", "longitude": "136.907487"}, "lon": {"latitude": "35.167421", "longitude": "136.907487"}, "name": "ロンハーマン名古屋店", "opening_hours": {"Mon": "11：00 ～ 21：00", "Tue": "11：00 ～ 21：00", "Wed": "11：00 ～ 21：00", "Thur": "11：00 ～ 21：00", "Fri": "11：00 ～ 21：00", "Sat": "11：00 ～ 21：00", "Sun": "11：00 ～ 21：00"}, "phone": "0526847652", "postcode": "460-0008", "ref": 10, "state": null, "website": null},
{"addr_full": "福岡県福岡市中央区警固1-15-43", "brand": "Ron Herman", "city": "FUKUOKA", "country": "Japan", "extras": {"brand": "Ron Herman", "fascia": null, "category": null, "edit_date": "2025-03-05 14:56:18", "lat_lon_source": "website"}, "lat": {"latitude": "33.585437", "longitude": "130.394841"}, "lon": {"latitude": "33.585437", "longitude": "130.394841"}, "name": "ロンハーマン福岡店", "opening_hours": {"Mon": "11：00 ～ 19：30", "Tue": "11：00 ～ 19：30", "Wed": "11：00 ～ 19：30", "Thur": "11：00 ～ 19：30", "Fri": "11：00 ～ 19：30", "Sat": "11：00 ～ 19：30", "Sun": "11：00 ～ 19：30"}, "phone": "0924064790", "postcode": "810-0023", "ref": 11, "state": null, "website": null},
{"addr_full": "神奈川県逗子市小坪5-23-10リビエラ逗子マリーナ本館1F", "brand": "Ron Herman", "city": "ZUSHI MARINA", "country": "Japan", "extras": {"brand": "Ron Herman", "fascia": null, "category": null, "edit_date": "2025-03-05 14:56:18", "lat_lon_source": "website"}, "lat": {"latitude": "35.295969", "longitude": "139.552179"}, "lon": {"latitude": "35.295969", "longitude": "139.552179"}, "name": "ロンハーマン逗子マリーナ店", "opening_hours": {"Mon": "11：00 ～ 19：30", "Tue": "11：00 ～ 19：30", "Wed": "11：00 ～ 19：30", "Thur": "11：00 ～ 19：30", "Fri": "11：00 ～ 19：30", "Sat": "11：00 ～ 19：30", "Sun": "11：00 ～ 19：30"}, "phone": "0467387260", "postcode": "249-0008", "ref": 12, "state": null, "website": null},
{"addr_full": "京都府京都市中京区河原町通三条下ル山崎町251 京都BAL 6F", "brand": "Ron Herman", "city": "KYOTO", "country": "Japan", "extras": {"brand": "Ron Herman", "fascia": null, "category": null, "edit_date": "2025-03-05 14:56:18", "lat_lon_source": "website"}, "lat": {"latitude": "35.006912", "longitude": "135.769545"}, "lon": {"latitude": "35.006912", "longitude": "135.769545"}, "name": "ロンハーマン京都店", "opening_hours": {"Mon": "11：00 ～ 20：00", "Tue": "11：00 ～ 20：00", "Wed": "11：00 ～ 20：00", "Thur": "11：00 ～ 20：00", "Fri": "11：00 ～ 20：00", "Sat": "11：00 ～ 20：00", "Sun": "11：00 ～ 20：00"}, "phone": "0757083840", "postcode": "604-8032", "ref": 13, "state": null, "website": null},
{"addr_full": "神奈川県横浜市中区新港1-3-1MARINE & WALK YOKOHAMA", "brand": "Ron Herman", "city": "YOKOHAMA", "country": "Japan", "extras": {"brand": "Ron Herman", "fascia": null, "category": null, "edit_date": "2025-03-05 14:56:18", "lat_lon_source": "website"}, "lat": {"latitude": "35.454889", "longitude": "139.642011"}, "lon": {"latitude": "35.454889", "longitude": "139.642011"}, "name": "ロンハーマン横浜店", "opening_hours": {"Mon": "11：00 ～ 20：00", "Tue": "11：00 ～ 20：00", "Wed": "11：00 ～ 20：00", "Thur": "11：00 ～ 20：00", "Fri": "11：00 ～ 20：00", "Sat": "11：00 ～ 20：00", "Sun": "11：00 ～ 20：00"}, "phone": "0453196751", "postcode": "231-0001", "ref": 17, "state": null, "website": null},
{"addr_full": "宮城県仙台市青葉区中央1-1-1　エスパル仙台Ⅱ", "brand": "Ron Herman", "city": "SENDAI", "country": "Japan", "extras": {"brand": "Ron Herman", "fascia": null, "category": null, "edit_date": "2025-03-05 14:56:18", "lat_lon_source": "website"}, "lat": {"latitude": "38.1534236", "longitude": "140.5257792"}, "lon": {"latitude": "38.1534236", "longitude": "140.5257792"}, "name": "ロンハーマン仙台店", "opening_hours": {"Mon": "10：00 ～ 20：00", "Tue": "10：00 ～ 20：00", "Wed": "10：00 ～ 20：00", "Thur": "10：00 ～ 20：00", "Fri": "10：00 ～ 20：00", "Sat": "10：00 ～ 20：00", "Sun": "10：00 ～ 20：00"}, "phone": null, "postcode": "980-8487", "ref": 27, "state": null, "website": null},
{"addr_full": "長野県北佐久郡軽井沢町軽井沢　軽井沢・プリンスショッピングプラザ", "brand": "Ron Herman", "city": "KARUIZAWA", "country": "Japan", "extras": {"brand": "Ron Herman", "fascia": null, "category": null, "edit_date": "2025-03-05 14:56:18", "lat_lon_source": "website"}, "lat": {"latitude": "36.341122", "longitude": "138.633855"}, "lon": {"latitude": "36.341122", "longitude": "138.633855"}, "name": "ロンハーマン軽井沢店", "opening_hours": {"Mon": "10：00 ～ 19：00", "Tue": "10：00 ～ 19：00", "Wed": "10：00 ～ 19：00", "Thur": "10：00 ～ 19：00", "Fri": "10：00 ～ 19：00", "Sat": "10：00 ～ 19：00", "Sun": "10：00 ～ 19：00"}, "phone": "0267416839", "postcode": "389-0102", "ref": 24, "state": null, "website": null},
{"addr_full": "三重県桑名市長島町浦安368ジャズドリーム長島", "brand": "Ron Herman", "city": "NAGASHIMA", "country": "Japan", "extras": {"brand": "Ron Herman", "fascia": null, "category": null, "edit_date": "2025-03-05 14:56:18", "lat_lon_source": "website"}, "lat": {"latitude": "35.02771", "longitude": "136.72717"}, "lon": {"latitude": "35.02771", "longitude": "136.72717"}, "name": "ロンハーマン長島店", "opening_hours": {"Mon": "10：00 ～ 20：00", "Tue": "10：00 ～ 20：00", "Wed": "10：00 ～ 20：00", "Thur": "10：00 ～ 20：00", "Fri": "10：00 ～ 20：00", "Sat": "10：00 ～ 20：00", "Sun": "10：00 ～ 20：00"}, "phone": "0594867572", "postcode": "511-1135", "ref": 15, "state": null, "website": null},
{"addr_full": "静岡県御殿場市深沢1312御殿場プレミアム・アウトレット HILL SIDE", "brand": "Ron Herman", "city": "GOTEMBA", "country": "Japan", "extras": {"brand": "Ron Herman", "fascia": null, "category": null, "edit_date": "2025-03-05 14:56:18", "lat_lon_source": "website"}, "lat": {"latitude": "35.305864", "longitude": "138.965939"}, "lon": {"latitude": "35.305864", "longitude": "138.965939"}, "name": "ロンハーマン御殿場店", "opening_hours": {"Mon": "10:00-20:00", "Tue": "10:00-20:00", "Wed": "10:00-20:00", "Thur": "10:00-20:00", "Fri": "10:00-20:00", "Sat": "10:00-20:00", "Sun": "10:00-20:00"}, "phone": "0550706270", "postcode": "412-0023", "ref": 25, "state": null, "website": null},
{"addr_full": "栃木県佐野市越名町2058　佐野プレミアム・アウトレット", "brand": "Ron Herman", "city": "SANO", "country": "Japan", "extras": {"brand": "Ron Herman", "fascia": null, "category": null, "edit_date": "2025-03-05 14:56:18", "lat_lon_source": "website"}, "lat": {"latitude": "36.293427", "longitude": "139.604281"}, "lon": {"latitude": "36.293427", "longitude": "139.604281"}, "name": "ロンハーマン佐野店", "opening_hours": {"Mon": "10:00-20:00", "Tue": "10:00-20:00", "Wed": "10:00-20:00", "Thur": "10:00-20:00", "Fri": "10:00-20:00", "Sat": "10:00-20:00", "Sun": "10:00-20:00"}, "phone": ["0283867931"], "postcode": "327-0822", "ref": 28, "state": null, "website": null},
{"addr_full": "神戸市北区上津台7-3　神戸三田プレミアムアウトレット", "brand": "Ron Herman", "city": "SANDA", "country": "Japan", "extras": {"brand": "Ron Herman", "fascia": null, "category": null, "edit_date": "2025-03-05 14:56:18", "lat_lon_source": "website"}, "lat": {"latitude": "34.8595638", "longitude": "135.1891034"}, "lon": {"latitude": "34.8595638", "longitude": "135.1891034"}, "name": "ロンハーマン三田店", "opening_hours": {"Mon": "10:00-20:00", "Tue": "10:00-20:00", "Wed": "10:00-20:00", "Thur": "10:00-20:00", "Fri": "10:00-20:00", "Sat": "10:00-20:00", "Sun": "10:00-20:00"}, "phone": ["0785978350"], "postcode": "651-1515", "ref": 33, "state": null, "website": null},
{"addr_full": "千葉県匝瑳市飯塚3342", "brand": "Ron Herman", "city": "SOSA", "country": "Japan", "extras": {"brand": "Ron Herman", "fascia": null, "category": null, "edit_date": "2025-03-05 14:56:18", "lat_lon_source": "website"}, "lat": {"latitude": "35.727828", "longitude": "140.554379"}, "lon": {"latitude": "35.727828", "longitude": "140.554379"}, "name": "ロンハーマン匝瑳店", "opening_hours": ["\nOperating 24 hours 7 days a week\n"], "phone": null, "postcode": "289-2106", "ref": 26, "state": null, "website": null}
]