[
{"address": "47000, ZAC Agen-Sud AGEN", "city": "AGEN", "country_code": "FR", "brand": "Cultura", "extras": {"brand": "Cultura", "fascia": "Magasin Cultura", "category": "Retail", "edit_date": "20250308", "lat_lon_source": "website"}, "ref": 317, "name": "Cultura Agen", "phone": "05.35.55.60.00", "latitude": 44.181188, "longitude": 0.620896, "opening_hours": [{"dayofweek": "1", "start_time": "09:00", "end_time": "20:00"}, {"dayofweek": "2", "start_time": "09:00", "end_time": "20:00"}, {"dayofweek": "3", "start_time": "09:00", "end_time": "20:00"}, {"dayofweek": "4", "start_time": "09:00", "end_time": "20:00"}, {"dayofweek": "5", "start_time": "09:00", "end_time": "20:00"}, {"dayofweek": "6", "start_time": "09:00", "end_time": "20:00"}], "postcode": "47000", "website": "https://www.cultura.com/les-magasins.html"},
{"address": "20167, Centre Commercial Atrium, Lieu-dit Pernicaggio SARROLA-CARCOPINO", "city": "SARROLA-CARCOPINO", "country_code": "FR", "brand": "Cultura", "extras": {"brand": "Cultura", "fascia": "Magasin Cultura", "category": "Retail", "edit_date": "20250308", "lat_lon_source": "website"}, "ref": 346, "name": "Cultura Ajaccio", "phone": "04 95 23 67 00", "latitude": 41.95304, "longitude": 8.79683, "opening_hours": [{"dayofweek": "1", "start_time": "09:30", "end_time": "19:00"}, {"dayofweek": "2", "start_time": "09:30", "end_time": "19:00"}, {"dayofweek": "3", "start_time": "09:30", "end_time": "19:00"}, {"dayofweek": "4", "start_time": "09:30", "end_time": "19:00"}, {"dayofweek": "5", "start_time": "09:30", "end_time": "19:00"}, {"dayofweek": "6", "start_time": "09:30", "end_time": "19:00"}], "postcode": "20167", "website": "https://www.cultura.com/les-magasins.html"},
{"address": "73200, Zone commerciale du Chiriac ALBERTVILLE", "city": "ALBERTVILLE", "country_code": "FR", "brand": "Cultura", "extras": {"brand": "Cultura", "fascia": "Magasin Cultura", "category": "Retail", "edit_date": "20250308", "lat_lon_source": "website"}, "ref": 337, "name": "Cultura Albertville", "phone": "04.80.81.60.20", "latitude": 45.657876, "longitude": 6.368742, "opening_hours": [{"dayofweek": "1", "start_time": "09:00", "end_time": "19:30"}, {"dayofweek": "2", "start_time": "09:00", "end_time": "19:30"}, {"dayofweek": "3", "start_time": "09:00", "end_time": "19:30"}, {"dayofweek": "4", "start_time": "09:00", "end_time": "19:30"}, {"dayofweek": "5", "start_time": "09:00", "end_time": "19:30"}, {"dayofweek": "6", "start_time": "09:00", "end_time": "19:30"}], "postcode": "73200", "website": "https://www.cultura.com/les-magasins.html"},
{"address": "80000, 150 Avenue de l'Europe AMIENS", "city": "AMIENS", "country_code": "FR", "brand": "Cultura", "extras": {"brand": "Cultura", "fascia": "Magasin Cultura", "category": "Retail", "edit_date": "20250308", "lat_lon_source": "website"}, "ref": 250, "name": "Cultura Amiens", "phone": "03.22.40.32.10", "latitude": 49.9195, "longitude": 2.30634, "opening_hours": [{"dayofweek": "1", "start_time": "09:00", "end_time": "20:00"}, {"dayofweek": "2", "start_time": "09:00", "end_time": "20:00"}, {"dayofweek": "3", "start_time": "09:00", "end_time": "20:00"}, {"dayofweek": "4", "start_time": "09:00", "end_time": "20:00"}, {"dayofweek": "5", "start_time": "09:00", "end_time": "20:00"}, {"dayofweek": "6", "start_time": "09:00", "end_time": "20:00"}], "postcode": "80000", "website": "https://www.cultura.com/les-magasins.html"},
{"address": "49000, Centre commercial Espace ANJOU ANGERS", "city": "ANGERS", "country_code": "FR", "brand": "Cultura", "extras": {"brand": "Cultura", "fascia": "Magasin Cultura", "category": "Retail", "edit_date": "20250308", "lat_lon_source": "website"}, "ref": 348, "name": "Cultura Angers-Anjou", "phone": "02.85.35.60.90", "latitude": 47.46683, "longitude": -0.521537, "opening_hours": [{"dayofweek": "1", "start_time": "09:00", "end_time": "20:00"}, {"dayofweek": "2", "start_time": "09:00", "end_time": "20:00"}, {"dayofweek": "3", "start_time": "09:00", "end_time": "20:00"}, {"dayofweek": "4", "start_time": "09:00", "end_time": "20:00"}, {"dayofweek": "5", "start_time": "09:00", "end_time": "20:00"}, {"dayofweek": "6", "start_time": "09:00", "end_time": "20:00"}], "postcode": "49000", "website": "https://www.cultura.com/les-magasins.html"},
{"address": "49070, CC Atoll Angers BEAUCOUZÉ", "city": "BEAUCOUZÉ", "country_code": "FR", "brand": "Cultura", "extras": {"brand": "Cultura", "fascia": "Magasin Cultura", "category": "Retail", "edit_date": "20250308", "lat_lon_source": "website"}, "ref": 325, "name": "Cultura Angers-Atoll", "phone": "02.85.35.61.40", "latitude": 47.485996, "longitude": -0.627567, "opening_hours": [{"dayofweek": "1", "start_time": "09:00", "end_time": "20:00"}, {"dayofweek": "2", "start_time": "09:00", "end_time": "20:00"}, {"dayofweek": "3", "start_time": "09:00", "end_time": "20:00"}, {"dayofweek": "4", "start_time": "09:00", "end_time": "20:00"}, {"dayofweek": "5", "start_time": "09:00", "end_time": "20:00"}, {"dayofweek": "6", "start_time": "09:00", "end_time": "20:00"}], "postcode": "49070", "website": "https://www.cultura.com/les-magasins.html"},
{"address": "64600, Avenue Jean Léon Laporte ANGLET", "city": "ANGLET", "country_code": "FR", "brand": "Cultura", "extras": {"brand": "Cultura", "fascia": "Magasin Cultura", "category": "Retail", "edit_date": "20250308", "lat_lon_source": "website"}, "ref": 292, "name": "Cultura Anglet", "phone": "05.35.45.60.10", "latitude": 43.4867, "longitude": -1.49887, "opening_hours": [{"dayofweek": "1", "start_time": "09:30", "end_time": "20:00"}, {"dayofweek": "2", "start_time": "09:30", "end_time": "20:00"}, {"dayofweek": "3", "start_time": "09:30", "end_time": "20:00"}, {"dayofweek": "4", "start_time": "09:30", "end_time": "20:00"}, {"dayofweek": "5", "start_time": "09:30", "end_time": "20:00"}, {"dayofweek": "6", "start_time": "09:30", "end_time": "20:00"}], "postcode": "64600", "website": "https://www.cultura.com/les-magasins.html"},
{"address": "13400, Centre Commercial Auchan Barnéoud Aubagne", "city": "Aubagne", "country_code": "FR", "brand": "Cultura", "extras": {"brand": "Cultura", "fascia": "Magasin Cultura", "category": "Retail", "edit_date": "20250308", "lat_lon_source": "website"}, "ref": 196, "name": "Cultura Aubagne", "phone": "04.96.18.20.00", "latitude": 43.2944, "longitude": 5.59582, "opening_hours": [{"dayofweek": "1", "start_time": "09:00", "end_time": "20:00"}, {"dayofweek": "2", "start_time": "09:00", "end_time": "20:00"}, {"dayofweek": "3", "start_time": "09:00", "end_time": "20:00"}, {"dayofweek": "4", "start_time": "09:00", "end_time": "20:00"}, {"dayofweek": "5", "start_time": "09:00", "end_time": "20:00"}, {"dayofweek": "6", "start_time": "09:00", "end_time": "20:00"}], "postcode": "13400", "website": "https://www.cultura.com/les-magasins.html"},
{"address": "63170, CC Plein Sud AUBIERE", "city": "AUBIERE", "country_code": "FR", "brand": "Cultura", "extras": {"brand": "Cultura", "fascia": "Magasin Cultura", "category": "Retail", "edit_date": "20250308", "lat_lon_source": "website"}, "ref": 283, "name": "Cultura Aubière", "phone": "04.43.97.07.30", "latitude": 45.7531, "longitude": 3.13027, "opening_hours": [{"dayofweek": "1", "start_time": "09:00", "end_time": "20:00"}, {"dayofweek": "2", "start_time": "09:00", "end_time": "20:00"}, {"dayofweek": "3", "start_time": "09:00", "end_time": "20:00"}, {"dayofweek": "4", "start_time": "09:00", "end_time": "20:00"}, {"dayofweek": "5", "start_time": "09:00", "end_time": "20:00"}, {"dayofweek": "6", "start_time": "09:00", "end_time": "20:00"}], "postcode": "63170", "website": "https://www.cultura.com/les-magasins.html"},
{"address": "89000, ZAC des Clairions AUXERRE", "city": "AUXERRE", "country_code": "FR", "brand": "Cultura", "extras": {"brand": "Cultura", "fascia": "Magasin Cultura", "category": "Retail", "edit_date": "20250308", "lat_lon_source": "website"}, "ref": 88, "name": "Cultura Auxerre", "phone": "03.86.18.07.20", "latitude": 47.816407, "longitude": 3.5657, "opening_hours": [{"dayofweek": "1", "start_time": "09:00", "end_time": "20:00"}, {"dayofweek": "2", "start_time": "09:00", "end_time": "20:00"}, {"dayofweek": "3", "start_time": "09:00", "end_time": "20:00"}, {"dayofweek": "4", "start_time": "09:00", "end_time": "20:00"}, {"dayofweek": "5", "start_time": "09:00", "end_time": "20:00"}, {"dayofweek": "6", "start_time": "09:00", "end_time": "20:00"}], "postcode": "89000", "website": "https://www.cultura.com/les-magasins.html"},
{"address": "31130, 5 rue de la Tuilerie BALMA", "city": "BALMA", "country_code": "FR", "brand": "Cultura", "extras": {"brand": "Cultura", "fascia": "Magasin Cultura", "category": "Retail", "edit_date": "20250308", "lat_lon_source": "website"}, "ref": 22, "name": "Cultura Balma", "phone": "05.61.12.50.90", "latitude": 43.6292, "longitude": 1.48295, "opening_hours": [{"dayofweek": "1", "start_time": "09:00", "end_time": "20:00"}, {"dayofweek": "2", "start_time": "09:00", "end_time": "20:00"}, {"dayofweek": "3", "start_time": "09:00", "end_time": "20:00"}, {"dayofweek": "4", "start_time": "09:00", "end_time": "20:00"}, {"dayofweek": "5", "start_time": "09:00", "end_time": "20:00"}, {"dayofweek": "6", "start_time": "09:00", "end_time": "20:00"}], "postcode": "31130", "website": "https://www.cultura.com/les-magasins.html"},
{"address": "76360, CC Le Parvis des Senteurs Pissy-Poville", "city": "Pissy-Poville", "country_code": "FR", "brand": "Cultura", "extras": {"brand": "Cultura", "fascia": "Magasin Cultura", "category": "Retail", "edit_date": "20250308", "lat_lon_source": "website"}, "ref": 354, "name": "Cultura Barentin", "phone": "02.35.12.59.00", "latitude": 49.530543, "longitude": 0.975044, "opening_hours": [{"dayofweek": "1", "start_time": "09:00", "end_time": "20:00"}, {"dayofweek": "2", "start_time": "09:00", "end_time": "20:00"}, {"dayofweek": "3", "start_time": "09:00", "end_time": "20:00"}, {"dayofweek": "4", "start_time": "09:00", "end_time": "20:00"}, {"dayofweek": "5", "start_time": "09:00", "end_time": "20:00"}, {"dayofweek": "6", "start_time": "09:00", "end_time": "20:00"}], "postcode": "76360", "website": "https://www.cultura.com/les-magasins.html"},
{"address": "77090, Rue du Général de Gaulle COLLEGIEN", "city": "COLLEGIEN", "country_code": "FR", "brand": "Cultura", "extras": {"brand": "Cultura", "fascia": "Magasin Cultura", "category": "Retail", "edit_date": "20250308", "lat_lon_source": "website"}, "ref": 232, "name": "Cultura Bay 2-Collégien", "phone": "01.64.11.58.40", "latitude": 48.8377, "longitude": 2.66141, "opening_hours": [{"dayofweek": "1", "start_time": "09:30", "end_time": "20:00"}, {"dayofweek": "2", "start_time": "09:30", "end_time": "20:00"}, {"dayofweek": "3", "start_time": "09:30", "end_time": "20:00"}, {"dayofweek": "4", "start_time": "09:30", "end_time": "20:00"}, {"dayofweek": "5", "start_time": "09:30", "end_time": "20:00"}, {"dayofweek": "6", "start_time": "09:30", "end_time": "20:00"}], "postcode": "77090", "website": "https://www.cultura.com/les-magasins.html"},
{"address": "64990, 2-4 avenue du Portou ST PIERRE D'IRUBE", "city": "ST PIERRE D'IRUBE", "country_code": "FR", "brand": "Cultura", "extras": {"brand": "Cultura", "fascia": "Magasin Cultura", "category": "Retail", "edit_date": "20250308", "lat_lon_source": "website"}, "ref": 223, "name": "Cultura Bayonne", "phone": "05.59.01.50.70", "latitude": 43.4809, "longitude": -1.44485, "opening_hours": [{"dayofweek": "1", "start_time": "09:30", "end_time": "19:30"}, {"dayofweek": "2", "start_time": "09:30", "end_time": "19:30"}, {"dayofweek": "3", "start_time": "09:30", "end_time": "19:30"}, {"dayofweek": "4", "start_time": "09:30", "end_time": "19:30"}, {"dayofweek": "5", "start_time": "09:30", "end_time": "19:30"}, {"dayofweek": "6", "start_time": "09:30", "end_time": "19:30"}], "postcode": "64990", "website": "https://www.cultura.com/les-magasins.html"},
{"address": "60000, 2 avenue Descartes BEAUVAIS", "city": "BEAUVAIS", "country_code": "FR", "brand": "Cultura", "extras": {"brand": "Cultura", "fascia": "Magasin Cultura", "category": "Retail", "edit_date": "20250308", "lat_lon_source": "website"}, "ref": 314, "name": "Cultura Beauvais", "phone": "03.65.65.62.00", "latitude": 49.4085, "longitude": 2.11541, "opening_hours": [{"dayofweek": "1", "start_time": "09:00", "end_time": "20:00"}, {"dayofweek": "2", "start_time": "09:00", "end_time": "20:00"}, {"dayofweek": "3", "start_time": "09:00", "end_time": "20:00"}, {"dayofweek": "4", "start_time": "09:00", "end_time": "20:00"}, {"dayofweek": "5", "start_time": "09:00", "end_time": "20:00"}, {"dayofweek": "6", "start_time": "09:00", "end_time": "20:00"}], "postcode": "60000", "website": "https://www.cultura.com/les-magasins.html"},
{"address": "33130, Rue Denis Papin BEGLES", "city": "BEGLES", "country_code": "FR", "brand": "Cultura", "extras": {"brand": "Cultura", "fascia": "Magasin Cultura", "category": "Retail", "edit_date": "20250308", "lat_lon_source": "website"}, "ref": 308, "name": "Cultura Bègles", "phone": "05.56.30.08.30", "latitude": 44.7918, "longitude": -0.529287, "opening_hours": [{"dayofweek": "1", "start_time": "09:00", "end_time": "20:00"}, {"dayofweek": "2", "start_time": "09:00", "end_time": "20:00"}, {"dayofweek": "3", "start_time": "09:00", "end_time": "20:00"}, {"dayofweek": "4", "start_time": "09:00", "end_time": "20:00"}, {"dayofweek": "5", "start_time": "09:00", "end_time": "20:00"}, {"dayofweek": "6", "start_time": "09:00", "end_time": "20:00"}], "postcode": "33130", "website": "https://www.cultura.com/les-magasins.html"},
{"address": "94320, Rue du Luxembourg THIAIS", "city": "THIAIS", "country_code": "FR", "brand": "Cultura", "extras": {"brand": "Cultura", "fascia": "Magasin Cultura", "category": "Retail", "edit_date": "20250308", "lat_lon_source": "website"}, "ref": 304, "name": "Cultura Belle Epine", "phone": "01.57.02.14.00", "latitude": 48.7566, "longitude": 2.37199, "opening_hours": [{"dayofweek": "0", "start_time": "10:00", "end_time": "19:00"}, {"dayofweek": "1", "start_time": "10:00", "end_time": "20:30"}, {"dayofweek": "2", "start_time": "10:00", "end_time": "20:30"}, {"dayofweek": "3", "start_time": "10:00", "end_time": "20:30"}, {"dayofweek": "4", "start_time": "10:00", "end_time": "20:30"}, {"dayofweek": "5", "start_time": "10:00", "end_time": "20:30"}, {"dayofweek": "6", "start_time": "10:00", "end_time": "20:30"}], "postcode": "94320", "website": "https://www.cultura.com/les-magasins.html"},
{"address": "25000, ZAC de Châteaufarine - CC Géant Casino BESANÇON", "city": "BESANÇON", "country_code": "FR", "brand": "Cultura", "extras": {"brand": "Cultura", "fascia": "Magasin Cultura", "category": "Retail", "edit_date": "20250308", "lat_lon_source": "website"}, "ref": 169, "name": "Cultura Besançon", "phone": "03.81.51.91.10", "latitude": 47.2179, "longitude": 5.95088, "opening_hours": [{"dayofweek": "1", "start_time": "09:00", "end_time": "20:00"}, {"dayofweek": "2", "start_time": "09:00", "end_time": "20:00"}, {"dayofweek": "3", "start_time": "09:00", "end_time": "20:00"}, {"dayofweek": "4", "start_time": "09:00", "end_time": "20:00"}, {"dayofweek": "5", "start_time": "09:00", "end_time": "20:00"}, {"dayofweek": "6", "start_time": "09:00", "end_time": "20:00"}], "postcode": "25000", "website": "https://www.cultura.com/les-magasins.html"},
{"address": "34500, Polygone Béziers BEZIERS", "city": "BEZIERS", "country_code": "FR", "brand": "Cultura", "extras": {"brand": "Cultura", "fascia": "Magasin Cultura", "category": "Retail", "edit_date": "20250308", "lat_lon_source": "website"}, "ref": 166, "name": "Cultura Béziers", "phone": "04.99.43.29.90", "latitude": 43.3361, "longitude": 3.22508, "opening_hours": [{"dayofweek": "1", "start_time": "09:00", "end_time": "20:00"}, {"dayofweek": "2", "start_time": "09:00", "end_time": "20:00"}, {"dayofweek": "3", "start_time": "09:00", "end_time": "20:00"}, {"dayofweek": "4", "start_time": "09:00", "end_time": "20:00"}, {"dayofweek": "5", "start_time": "09:00", "end_time": "20:00"}, {"dayofweek": "6", "start_time": "09:00", "end_time": "20:00"}], "postcode": "34500", "website": "https://www.cultura.com/les-magasins.html"},
{"address": "31700, CC du Grand Noble Blagnac", "city": "Blagnac", "country_code": "FR", "brand": "Cultura", "extras": {"brand": "Cultura", "fascia": "Magasin Cultura", "category": "Retail", "edit_date": "20250308", "lat_lon_source": "website"}, "ref": 356, "name": "Cultura Blagnac", "phone": "05.62.74.25.58", "latitude": 43.64841, "longitude": 1.368068, "opening_hours": [{"dayofweek": "1", "start_time": "09:00", "end_time": "20:00"}, {"dayofweek": "2", "start_time": "09:00", "end_time": "20:00"}, {"dayofweek": "3", "start_time": "09:00", "end_time": "20:00"}, {"dayofweek": "4", "start_time": "09:00", "end_time": "20:00"}, {"dayofweek": "5", "start_time": "09:00", "end_time": "20:00"}, {"dayofweek": "6", "start_time": "09:00", "end_time": "20:00"}], "postcode": "31700", "website": "https://www.cultura.com/les-magasins.html"},
{"address": "33000, 90 avenue des 40 journaux BORDEAUX", "city": "BORDEAUX", "country_code": "FR", "brand": "Cultura", "extras": {"brand": "Cultura", "fascia": "Magasin Cultura", "category": "Retail", "edit_date": "20250308", "lat_lon_source": "website"}, "ref": 289, "name": "Cultura Bordeaux Lac", "phone": "05.33.89.68.10", "latitude": 44.8786, "longitude": -0.568895, "opening_hours": [{"dayofweek": "1", "start_time": "09:00", "end_time": "20:00"}, {"dayofweek": "2", "start_time": "09:00", "end_time": "20:00"}, {"dayofweek": "3", "start_time": "09:00", "end_time": "20:00"}, {"dayofweek": "4", "start_time": "09:00", "end_time": "20:00"}, {"dayofweek": "5", "start_time": "09:00", "end_time": "20:00"}, {"dayofweek": "6", "start_time": "09:00", "end_time": "20:00"}], "postcode": "33000", "website": "https://www.cultura.com/les-magasins.html"},
{"address": "01000, Le Carrefour de l'Europe BOURG EN BRESSE", "city": "BOURG EN BRESSE", "country_code": "FR", "brand": "Cultura", "extras": {"brand": "Cultura", "fascia": "Magasin Cultura", "category": "Retail", "edit_date": "20250308", "lat_lon_source": "website"}, "ref": 28, "name": "Cultura Bourg En Bresse", "phone": "04.74.14.16.20", "latitude": 46.2084, "longitude": 5.23617, "opening_hours": [{"dayofweek": "1", "start_time": "09:00", "end_time": "20:00"}, {"dayofweek": "2", "start_time": "09:00", "end_time": "20:00"}, {"dayofweek": "3", "start_time": "09:00", "end_time": "20:00"}, {"dayofweek": "4", "start_time": "09:00", "end_time": "20:00"}, {"dayofweek": "5", "start_time": "09:00", "end_time": "20:00"}, {"dayofweek": "6", "start_time": "09:00", "end_time": "20:00"}], "postcode": "01000", "website": "https://www.cultura.com/les-magasins.html"},
{"address": "38300, ZAC La MALADIERE BOURGOIN JALLIEU", "city": "BOURGOIN JALLIEU", "country_code": "FR", "brand": "Cultura", "extras": {"brand": "Cultura", "fascia": "Magasin Cultura", "category": "Retail", "edit_date": "20250308", "lat_lon_source": "website"}, "ref": 31, "name": "Cultura Bourgoin Jallieu", "phone": "04.37.03.28.70", "latitude": 45.5912, "longitude": 5.25208, "opening_hours": [{"dayofweek": "1", "start_time": "09:00", "end_time": "20:00"}, {"dayofweek": "2", "start_time": "09:00", "end_time": "20:00"}, {"dayofweek": "3", "start_time": "09:00", "end_time": "20:00"}, {"dayofweek": "4", "start_time": "09:00", "end_time": "20:00"}, {"dayofweek": "5", "start_time": "09:00", "end_time": "20:00"}, {"dayofweek": "6", "start_time": "09:00", "end_time": "20:00"}], "postcode": "38300", "website": "https://www.cultura.com/les-magasins.html"},
{"address": "29200, 29 rue de gouesnou BREST", "city": "BREST", "country_code": "FR", "brand": "Cultura", "extras": {"brand": "Cultura", "fascia": "Magasin Cultura", "category": "Retail", "edit_date": "20250308", "lat_lon_source": "website"}, "ref": 208, "name": "Cultura Brest", "phone": "02.29.61.18.20", "latitude": 48.408, "longitude": -4.46577, "opening_hours": [{"dayofweek": "1", "start_time": "09:00", "end_time": "20:00"}, {"dayofweek": "2", "start_time": "09:00", "end_time": "20:00"}, {"dayofweek": "3", "start_time": "09:00", "end_time": "20:00"}, {"dayofweek": "4", "start_time": "09:00", "end_time": "20:00"}, {"dayofweek": "5", "start_time": "09:00", "end_time": "20:00"}, {"dayofweek": "6", "start_time": "09:00", "end_time": "20:00"}], "postcode": "29200", "website": "https://www.cultura.com/les-magasins.html"},
{"address": "19100, 9 avenue de Paris BRIVE LA GAILLARDE", "city": "BRIVE LA GAILLARDE", "country_code": "FR", "brand": "Cultura", "extras": {"brand": "Cultura", "fascia": "Magasin Cultura", "category": "Retail", "edit_date": "20250308", "lat_lon_source": "website"}, "ref": 211, "name": "Cultura Brive Centre", "phone": "05.55.92.17.53", "latitude": 45.1619, "longitude": 1.53233, "opening_hours": [{"dayofweek": "1", "start_time": "09:30", "end_time": "19:30"}, {"dayofweek": "2", "start_time": "09:30", "end_time": "19:30"}, {"dayofweek": "3", "start_time": "09:30", "end_time": "19:30"}, {"dayofweek": "4", "start_time": "09:30", "end_time": "19:30"}, {"dayofweek": "5", "start_time": "09:30", "end_time": "19:30"}, {"dayofweek": "6", "start_time": "09:30", "end_time": "19:30"}], "postcode": "19100", "website": "https://www.cultura.com/les-magasins.html"},
{"address": "19100, ZAC du Mazaud BRIVE LA GAILLARDE", "city": "BRIVE LA GAILLARDE", "country_code": "FR", "brand": "Cultura", "extras": {"brand": "Cultura", "fascia": "Magasin Cultura", "category": "Retail", "edit_date": "20250308", "lat_lon_source": "website"}, "ref": 342, "name": "Cultura Brive La Gaillarde", "phone": "05.55.74.96.00", "latitude": 45.143, "longitude": 1.47284, "opening_hours": [{"dayofweek": "1", "start_time": "09:00", "end_time": "20:00"}, {"dayofweek": "2", "start_time": "09:00", "end_time": "20:00"}, {"dayofweek": "3", "start_time": "09:00", "end_time": "20:00"}, {"dayofweek": "4", "start_time": "09:00", "end_time": "20:00"}, {"dayofweek": "5", "start_time": "09:00", "end_time": "20:00"}, {"dayofweek": "6", "start_time": "09:00", "end_time": "20:00"}], "postcode": "19100", "website": "https://www.cultura.com/les-magasins.html"},
{"address": "14120, Rue Joseph Jacquard MONDEVILLE", "city": "MONDEVILLE", "country_code": "FR", "brand": "Cultura", "extras": {"brand": "Cultura", "fascia": "Magasin Cultura", "category": "Retail", "edit_date": "20250308", "lat_lon_source": "website"}, "ref": 103, "name": "Cultura Caen Mondeville", "phone": "02.31.78.55.40", "latitude": 49.1614, "longitude": -0.299866, "opening_hours": [{"dayofweek": "1", "start_time": "09:00", "end_time": "20:00"}, {"dayofweek": "2", "start_time": "09:00", "end_time": "20:00"}, {"dayofweek": "3", "start_time": "09:00", "end_time": "20:00"}, {"dayofweek": "4", "start_time": "09:00", "end_time": "20:00"}, {"dayofweek": "5", "start_time": "09:00", "end_time": "20:00"}, {"dayofweek": "6", "start_time": "09:00", "end_time": "20:00"}], "postcode": "14120", "website": "https://www.cultura.com/les-magasins.html"},
{"address": "11000, 165 A rue Juliette Costeplane CARCASSONNE", "city": "CARCASSONNE", "country_code": "FR", "brand": "Cultura", "extras": {"brand": "Cultura", "fascia": "Magasin Cultura", "category": "Retail", "edit_date": "20250308", "lat_lon_source": "website"}, "ref": 37, "name": "Cultura Carcassonne", "phone": "04.68.26.72.80", "latitude": 43.2038, "longitude": 2.31132, "opening_hours": [{"dayofweek": "1", "start_time": "09:00", "end_time": "20:00"}, {"dayofweek": "2", "start_time": "09:00", "end_time": "20:00"}, {"dayofweek": "3", "start_time": "09:00", "end_time": "20:00"}, {"dayofweek": "4", "start_time": "09:00", "end_time": "20:00"}, {"dayofweek": "5", "start_time": "09:00", "end_time": "20:00"}, {"dayofweek": "6", "start_time": "09:00", "end_time": "20:00"}], "postcode": "11000", "website": "https://www.cultura.com/les-magasins.html"},
{"address": "77127, ZAC du carré LIEUSAINT", "city": "LIEUSAINT", "country_code": "FR", "brand": "Cultura", "extras": {"brand": "Cultura", "fascia": "Magasin Cultura", "category": "Retail", "edit_date": "20250308", "lat_lon_source": "website"}, "ref": 40, "name": "Cultura Carré Senart", "phone": "01.64.88.26.40", "latitude": 48.6185, "longitude": 2.54524, "opening_hours": [{"dayofweek": "0", "start_time": "10:00", "end_time": "19:00"}, {"dayofweek": "1", "start_time": "09:00", "end_time": "20:00"}, {"dayofweek": "2", "start_time": "09:00", "end_time": "20:00"}, {"dayofweek": "3", "start_time": "09:00", "end_time": "20:00"}, {"dayofweek": "4", "start_time": "09:00", "end_time": "20:00"}, {"dayofweek": "5", "start_time": "09:00", "end_time": "20:00"}, {"dayofweek": "6", "start_time": "09:00", "end_time": "20:00"}], "postcode": "77127", "website": "https://www.cultura.com/les-magasins.html"},
{"address": "37170, 3 rue Alexandra David Néel CHAMBRAY LES TOURS", "city": "CHAMBRAY LES TOURS", "country_code": "FR", "brand": "Cultura", "extras": {"brand": "Cultura", "fascia": "Magasin Cultura", "category": "Retail", "edit_date": "20250308", "lat_lon_source": "website"}, "ref": 43, "name": "Cultura Chambray Les Tours", "phone": "02.47.48.42.50", "latitude": 47.3436, "longitude": 0.704503, "opening_hours": [{"dayofweek": "1", "start_time": "09:00", "end_time": "20:00"}, {"dayofweek": "2", "start_time": "09:00", "end_time": "20:00"}, {"dayofweek": "3", "start_time": "09:00", "end_time": "20:00"}, {"dayofweek": "4", "start_time": "09:00", "end_time": "20:00"}, {"dayofweek": "5", "start_time": "09:00", "end_time": "20:00"}, {"dayofweek": "6", "start_time": "09:00", "end_time": "20:00"}], "postcode": "37170", "website": "https://www.cultura.com/les-magasins.html"},
{"address": "69410, 19 Av du General De Gaulle CHAMPAGNE MONT D'OR", "city": "CHAMPAGNE MONT D'OR", "country_code": "FR", "brand": "Cultura", "extras": {"brand": "Cultura", "fascia": "Magasin Cultura", "category": "Retail", "edit_date": "20250308", "lat_lon_source": "website"}, "ref": 13, "name": "Cultura Champagne Au Mont d'Or", "phone": "04.87.65.06.40", "latitude": 45.8041, "longitude": 4.7819, "opening_hours": [{"dayofweek": "1", "start_time": "09:00", "end_time": "20:00"}, {"dayofweek": "2", "start_time": "09:00", "end_time": "20:00"}, {"dayofweek": "3", "start_time": "09:00", "end_time": "20:00"}, {"dayofweek": "4", "start_time": "09:00", "end_time": "20:00"}, {"dayofweek": "5", "start_time": "09:00", "end_time": "20:00"}, {"dayofweek": "6", "start_time": "09:00", "end_time": "20:00"}], "postcode": "69410", "website": "https://www.cultura.com/les-magasins.html"},
{"address": "16430, 163 Allée des commerces CHAMPNIERS", "city": "CHAMPNIERS", "country_code": "FR", "brand": "Cultura", "extras": {"brand": "Cultura", "fascia": "Magasin Cultura", "category": "Retail", "edit_date": "20250308", "lat_lon_source": "website"}, "ref": 217, "name": "Cultura Champniers", "phone": "05.45.97.47.97", "latitude": 45.7149, "longitude": 0.205259, "opening_hours": [{"dayofweek": "1", "start_time": "09:00", "end_time": "20:00"}, {"dayofweek": "2", "start_time": "09:00", "end_time": "20:00"}, {"dayofweek": "3", "start_time": "09:00", "end_time": "20:00"}, {"dayofweek": "4", "start_time": "09:00", "end_time": "20:00"}, {"dayofweek": "5", "start_time": "09:00", "end_time": "20:00"}, {"dayofweek": "6", "start_time": "09:00", "end_time": "20:00"}], "postcode": "16430", "website": "https://www.cultura.com/les-magasins.html"},
{"address": "35135, Allée de Guerledan CHANTEPIE", "city": "CHANTEPIE", "country_code": "FR", "brand": "Cultura", "extras": {"brand": "Cultura", "fascia": "Magasin Cultura", "category": "Retail", "edit_date": "20250308", "lat_lon_source": "website"}, "ref": 46, "name": "Cultura Chantepie", "phone": "02.99.77.02.50", "latitude": 48.084, "longitude": -1.63292, "opening_hours": [{"dayofweek": "1", "start_time": "09:00", "end_time": "20:00"}, {"dayofweek": "2", "start_time": "09:00", "end_time": "20:00"}, {"dayofweek": "3", "start_time": "09:00", "end_time": "20:00"}, {"dayofweek": "4", "start_time": "09:00", "end_time": "20:00"}, {"dayofweek": "5", "start_time": "09:00", "end_time": "20:00"}, {"dayofweek": "6", "start_time": "09:00", "end_time": "20:00"}], "postcode": "35135", "website": "https://www.cultura.com/les-magasins.html"},
{"address": "86360, 12 Allée du Haut Poitou CHASSENEUIL", "city": "CHASSENEUIL", "country_code": "FR", "brand": "Cultura", "extras": {"brand": "Cultura", "fascia": "Magasin Cultura", "category": "Retail", "edit_date": "20250308", "lat_lon_source": "website"}, "ref": 49, "name": "Cultura Chasseneuil Du Poitou", "phone": "05.49.30.80.90", "latitude": 46.6481, "longitude": 0.360004, "opening_hours": [{"dayofweek": "1", "start_time": "09:00", "end_time": "20:00"}, {"dayofweek": "2", "start_time": "09:00", "end_time": "20:00"}, {"dayofweek": "3", "start_time": "09:00", "end_time": "20:00"}, {"dayofweek": "4", "start_time": "09:00", "end_time": "20:00"}, {"dayofweek": "5", "start_time": "09:00", "end_time": "20:00"}, {"dayofweek": "6", "start_time": "09:00", "end_time": "20:00"}], "postcode": "86360", "website": "https://www.cultura.com/les-magasins.html"},
{"address": "49300, L'Autre Faubourg ZAC de l'Ecuyère CHOLET", "city": "CHOLET", "country_code": "FR", "brand": "Cultura", "extras": {"brand": "Cultura", "fascia": "Magasin Cultura", "category": "Retail", "edit_date": "20250308", "lat_lon_source": "website"}, "ref": 157, "name": "Cultura Cholet", "phone": "02.41.71.48.20", "latitude": 47.0754, "longitude": -0.839683, "opening_hours": [{"dayofweek": "1", "start_time": "09:00", "end_time": "20:00"}, {"dayofweek": "2", "start_time": "09:00", "end_time": "20:00"}, {"dayofweek": "3", "start_time": "09:00", "end_time": "20:00"}, {"dayofweek": "4", "start_time": "09:00", "end_time": "20:00"}, {"dayofweek": "5", "start_time": "09:00", "end_time": "20:00"}, {"dayofweek": "6", "start_time": "09:00", "end_time": "20:00"}], "postcode": "49300", "website": "https://www.cultura.com/les-magasins.html"},
{"address": "77410, Rue Victor Drouet CLAYE SOUILLY", "city": "CLAYE SOUILLY", "country_code": "FR", "brand": "Cultura", "extras": {"brand": "Cultura", "fascia": "Magasin Cultura", "category": "Retail", "edit_date": "20250308", "lat_lon_source": "website"}, "ref": 52, "name": "Cultura Claye Souilly", "phone": "01.60.07.80.80", "latitude": 48.9464, "longitude": 2.66937, "opening_hours": [{"dayofweek": "0", "start_time": "10:00", "end_time": "19:30"}, {"dayofweek": "1", "start_time": "09:00", "end_time": "20:00"}, {"dayofweek": "2", "start_time": "09:00", "end_time": "20:00"}, {"dayofweek": "3", "start_time": "09:00", "end_time": "20:00"}, {"dayofweek": "4", "start_time": "09:00", "end_time": "20:00"}, {"dayofweek": "5", "start_time": "09:00", "end_time": "20:00"}, {"dayofweek": "6", "start_time": "09:00", "end_time": "20:00"}], "postcode": "77410", "website": "https://www.cultura.com/les-magasins.html"},
{"address": "51350, 6 rue des Laps CORMONTREUIL", "city": "CORMONTREUIL", "country_code": "FR", "brand": "Cultura", "extras": {"brand": "Cultura", "fascia": "Magasin Cultura", "category": "Retail", "edit_date": "20250308", "lat_lon_source": "website"}, "ref": 235, "name": "Cultura Cormontreuil", "phone": "03.26.77.69.30", "latitude": 49.2144, "longitude": 4.04502, "opening_hours": [{"dayofweek": "1", "start_time": "09:00", "end_time": "20:00"}, {"dayofweek": "2", "start_time": "09:00", "end_time": "20:00"}, {"dayofweek": "3", "start_time": "09:00", "end_time": "20:00"}, {"dayofweek": "4", "start_time": "09:00", "end_time": "20:00"}, {"dayofweek": "5", "start_time": "09:00", "end_time": "20:00"}, {"dayofweek": "6", "start_time": "09:00", "end_time": "20:00"}], "postcode": "51350", "website": "https://www.cultura.com/les-magasins.html"},
{"address": "21000, CC Toison d'Or DIJON", "city": "DIJON", "country_code": "FR", "brand": "Cultura", "extras": {"brand": "Cultura", "fascia": "Magasin Cultura", "category": "Retail", "edit_date": "20250308", "lat_lon_source": "website"}, "ref": 55, "name": "Cultura Dijon", "phone": "03.80.78.90.90", "latitude": 47.3579, "longitude": 5.04814, "opening_hours": [{"dayofweek": "1", "start_time": "09:00", "end_time": "20:00"}, {"dayofweek": "2", "start_time": "09:00", "end_time": "20:00"}, {"dayofweek": "3", "start_time": "09:00", "end_time": "20:00"}, {"dayofweek": "4", "start_time": "09:00", "end_time": "20:00"}, {"dayofweek": "5", "start_time": "09:00", "end_time": "20:00"}, {"dayofweek": "6", "start_time": "09:00", "end_time": "20:00"}], "postcode": "21000", "website": "https://www.cultura.com/les-magasins.html"},
{"address": "74330, 120 rue des Peupliers EPAGNY", "city": "EPAGNY", "country_code": "FR", "brand": "Cultura", "extras": {"brand": "Cultura", "fascia": "Magasin Cultura", "category": "Retail", "edit_date": "20250308", "lat_lon_source": "website"}, "ref": 199, "name": "Cultura Epagny", "phone": "04.50.24.69.49", "latitude": 45.9344, "longitude": 6.08169, "opening_hours": [{"dayofweek": "1", "start_time": "09:00", "end_time": "20:00"}, {"dayofweek": "2", "start_time": "09:00", "end_time": "20:00"}, {"dayofweek": "3", "start_time": "09:00", "end_time": "20:00"}, {"dayofweek": "4", "start_time": "09:00", "end_time": "20:00"}, {"dayofweek": "5", "start_time": "09:00", "end_time": "20:00"}, {"dayofweek": "6", "start_time": "09:00", "end_time": "20:00"}], "postcode": "74330", "website": "https://www.cultura.com/les-magasins.html"},
{"address": "88000, ZAC Des Terres St Jean EPINAL", "city": "EPINAL", "country_code": "FR", "brand": "Cultura", "extras": {"brand": "Cultura", "fascia": "Magasin Cultura", "category": "Retail", "edit_date": "20250308", "lat_lon_source": "website"}, "ref": 58, "name": "Cultura Epinal", "phone": "03.29.81.19.80", "latitude": 48.1907, "longitude": 6.47552, "opening_hours": [{"dayofweek": "1", "start_time": "09:00", "end_time": "20:00"}, {"dayofweek": "2", "start_time": "09:00", "end_time": "20:00"}, {"dayofweek": "3", "start_time": "09:00", "end_time": "20:00"}, {"dayofweek": "4", "start_time": "09:00", "end_time": "20:00"}, {"dayofweek": "5", "start_time": "09:00", "end_time": "20:00"}, {"dayofweek": "6", "start_time": "09:00", "end_time": "20:00"}], "postcode": "88000", "website": "https://www.cultura.com/les-magasins.html"},
{"address": "27930, Allée Marcel Reine Le Vieil Evreux", "city": "Le Vieil Evreux", "country_code": "FR", "brand": "Cultura", "extras": {"brand": "Cultura", "fascia": "Magasin Cultura", "category": "Retail", "edit_date": "20250308", "lat_lon_source": "website"}, "ref": 253, "name": "Cultura Evreux", "phone": "02.32.23.50.30", "latitude": 49.0127, "longitude": 1.17831, "opening_hours": [{"dayofweek": "1", "start_time": "09:00", "end_time": "20:00"}, {"dayofweek": "2", "start_time": "09:00", "end_time": "20:00"}, {"dayofweek": "3", "start_time": "09:00", "end_time": "20:00"}, {"dayofweek": "4", "start_time": "09:00", "end_time": "20:00"}, {"dayofweek": "5", "start_time": "09:00", "end_time": "20:00"}, {"dayofweek": "6", "start_time": "09:00", "end_time": "20:00"}], "postcode": "27930", "website": "https://www.cultura.com/les-magasins.html"},
{"address": "31150, RN 20 FENOUILLET", "city": "FENOUILLET", "country_code": "FR", "brand": "Cultura", "extras": {"brand": "Cultura", "fascia": "Magasin Cultura", "category": "Retail", "edit_date": "20250308", "lat_lon_source": "website"}, "ref": 229, "name": "Cultura Fenouillet", "phone": "05.34.27.04.60", "latitude": 43.689, "longitude": 1.4022, "opening_hours": [{"dayofweek": "1", "start_time": "09:00", "end_time": "20:00"}, {"dayofweek": "2", "start_time": "09:00", "end_time": "20:00"}, {"dayofweek": "3", "start_time": "09:00", "end_time": "20:00"}, {"dayofweek": "4", "start_time": "09:00", "end_time": "20:00"}, {"dayofweek": "5", "start_time": "09:00", "end_time": "20:00"}, {"dayofweek": "6", "start_time": "09:00", "end_time": "20:00"}], "postcode": "31150", "website": "https://www.cultura.com/les-magasins.html"},
{"address": "62350, Le Prieuré de St Pry FOUQUIERES LES BETHUNE", "city": "FOUQUIERES LES BETHUNE", "country_code": "FR", "brand": "Cultura", "extras": {"brand": "Cultura", "fascia": "Magasin Cultura", "category": "Retail", "edit_date": "20250308", "lat_lon_source": "website"}, "ref": 280, "name": "Cultura Fouquieres Les Bethune", "phone": "03.66.13.01.20", "latitude": 50.5117, "longitude": 2.62268, "opening_hours": [{"dayofweek": "1", "start_time": "09:00", "end_time": "20:00"}, {"dayofweek": "2", "start_time": "09:00", "end_time": "20:00"}, {"dayofweek": "3", "start_time": "09:00", "end_time": "20:00"}, {"dayofweek": "4", "start_time": "09:00", "end_time": "20:00"}, {"dayofweek": "5", "start_time": "09:00", "end_time": "20:00"}, {"dayofweek": "6", "start_time": "09:00", "end_time": "20:00"}], "postcode": "62350", "website": "https://www.cultura.com/les-magasins.html"},
{"address": "95130, Parc d'Activités PARISIS FRANCONVILLE", "city": "FRANCONVILLE", "country_code": "FR", "brand": "Cultura", "extras": {"brand": "Cultura", "fascia": "Magasin Cultura", "category": "Retail", "edit_date": "20250308", "lat_lon_source": "website"}, "ref": 61, "name": "Cultura Franconville", "phone": "01.30.72.70.70", "latitude": 48.9891, "longitude": 2.20912, "opening_hours": [{"dayofweek": "0", "start_time": "10:00", "end_time": "19:00"}, {"dayofweek": "1", "start_time": "09:00", "end_time": "20:00"}, {"dayofweek": "2", "start_time": "09:00", "end_time": "20:00"}, {"dayofweek": "3", "start_time": "09:00", "end_time": "20:00"}, {"dayofweek": "4", "start_time": "09:00", "end_time": "20:00"}, {"dayofweek": "5", "start_time": "09:00", "end_time": "20:00"}, {"dayofweek": "6", "start_time": "09:00", "end_time": "20:00"}], "postcode": "95130", "website": "https://www.cultura.com/les-magasins.html"},
{"address": "67118, 7 rue du Fort GEISPOLSHEIM", "city": "GEISPOLSHEIM", "country_code": "FR", "brand": "Cultura", "extras": {"brand": "Cultura", "fascia": "Magasin Cultura", "category": "Retail", "edit_date": "20250308", "lat_lon_source": "website"}, "ref": 277, "name": "Cultura Geispolsheim", "phone": "03.68.71.11.90", "latitude": 48.525, "longitude": 7.68116, "opening_hours": [{"dayofweek": "1", "start_time": "09:00", "end_time": "20:00"}, {"dayofweek": "2", "start_time": "09:00", "end_time": "20:00"}, {"dayofweek": "3", "start_time": "09:00", "end_time": "20:00"}, {"dayofweek": "4", "start_time": "09:00", "end_time": "20:00"}, {"dayofweek": "5", "start_time": "09:00", "end_time": "20:00"}, {"dayofweek": "6", "start_time": "09:00", "end_time": "20:00"}], "postcode": "67118", "website": "https://www.cultura.com/les-magasins.html"},
{"address": "92230, Espace commercial Chanteraines GENNEVILLIERS", "city": "GENNEVILLIERS", "country_code": "FR", "brand": "Cultura", "extras": {"brand": "Cultura", "fascia": "Magasin Cultura", "category": "Retail", "edit_date": "20250308", "lat_lon_source": "website"}, "ref": 64, "name": "Cultura Gennevilliers", "phone": "01.41.47.46.46", "latitude": 48.9338, "longitude": 2.31841, "opening_hours": [{"dayofweek": "0", "start_time": "10:00", "end_time": "19:00"}, {"dayofweek": "1", "start_time": "10:00", "end_time": "20:00"}, {"dayofweek": "2", "start_time": "10:00", "end_time": "20:00"}, {"dayofweek": "3", "start_time": "10:00", "end_time": "20:00"}, {"dayofweek": "4", "start_time": "10:00", "end_time": "20:00"}, {"dayofweek": "5", "start_time": "10:00", "end_time": "20:00"}, {"dayofweek": "6", "start_time": "10:00", "end_time": "20:00"}], "postcode": "92230", "website": "https://www.cultura.com/les-magasins.html"},
{"address": "69700, ZC Les 2 Vallées GIVORS", "city": "GIVORS", "country_code": "FR", "brand": "Cultura", "extras": {"brand": "Cultura", "fascia": "Magasin Cultura", "category": "Retail", "edit_date": "20250308", "lat_lon_source": "website"}, "ref": 67, "name": "Cultura Givors", "phone": "04.37.20.19.30", "latitude": 45.5802, "longitude": 4.73868, "opening_hours": [{"dayofweek": "1", "start_time": "09:00", "end_time": "20:00"}, {"dayofweek": "2", "start_time": "09:00", "end_time": "20:00"}, {"dayofweek": "3", "start_time": "09:00", "end_time": "20:00"}, {"dayofweek": "4", "start_time": "09:00", "end_time": "20:00"}, {"dayofweek": "5", "start_time": "09:00", "end_time": "20:00"}, {"dayofweek": "6", "start_time": "09:00", "end_time": "20:00"}], "postcode": "69700", "website": "https://www.cultura.com/les-magasins.html"},
{"address": "62110, ZC Noyelles-Godault HENIN BEAUMONT", "city": "HENIN BEAUMONT", "country_code": "FR", "brand": "Cultura", "extras": {"brand": "Cultura", "fascia": "Magasin Cultura", "category": "Retail", "edit_date": "20250308", "lat_lon_source": "website"}, "ref": 70, "name": "Cultura Hénin-Beaumont", "phone": "03.21.08.01.60", "latitude": 50.4077, "longitude": 2.96873, "opening_hours": [{"dayofweek": "1", "start_time": "09:00", "end_time": "20:00"}, {"dayofweek": "2", "start_time": "09:00", "end_time": "20:00"}, {"dayofweek": "3", "start_time": "09:00", "end_time": "20:00"}, {"dayofweek": "4", "start_time": "09:00", "end_time": "20:00"}, {"dayofweek": "5", "start_time": "09:00", "end_time": "20:00"}, {"dayofweek": "6", "start_time": "09:00", "end_time": "20:00"}], "postcode": "62110", "website": "https://www.cultura.com/les-magasins.html"},
{"address": "92130, 12 promenade Cœur de Ville ISSY-LES-MOULINEAUX", "city": "ISSY-LES-MOULINEAUX", "country_code": "FR", "brand": "Cultura", "extras": {"brand": "Cultura", "fascia": "Magasin Cultura", "category": "Retail", "edit_date": "20250308", "lat_lon_source": "website"}, "ref": 328, "name": "Cultura Issy-Les-Moulineaux", "phone": "01.80.87.37.30", "latitude": 48.826404, "longitude": 2.275005, "opening_hours": [{"dayofweek": "0", "start_time": "10:00", "end_time": "19:00"}, {"dayofweek": "1", "start_time": "09:00", "end_time": "20:00"}, {"dayofweek": "2", "start_time": "09:00", "end_time": "20:00"}, {"dayofweek": "3", "start_time": "09:00", "end_time": "20:00"}, {"dayofweek": "4", "start_time": "09:00", "end_time": "20:00"}, {"dayofweek": "5", "start_time": "09:00", "end_time": "20:00"}, {"dayofweek": "6", "start_time": "09:00", "end_time": "20:00"}], "postcode": "92130", "website": "https://www.cultura.com/les-magasins.html"},
{"address": "95260, Centre Commercial du Col Vert MOURS", "city": "MOURS", "country_code": "FR", "brand": "Cultura", "extras": {"brand": "Cultura", "fascia": "Magasin Cultura", "category": "Retail", "edit_date": "20250308", "lat_lon_source": "website"}, "ref": 358, "name": "Cultura L'Isle-Adam", "phone": "01.34.08.30.00", "latitude": 49.127175, "longitude": 2.249485, "opening_hours": [{"dayofweek": "1", "start_time": "09:00", "end_time": "20:00"}, {"dayofweek": "2", "start_time": "09:00", "end_time": "20:00"}, {"dayofweek": "3", "start_time": "09:00", "end_time": "20:00"}, {"dayofweek": "4", "start_time": "09:00", "end_time": "20:00"}, {"dayofweek": "5", "start_time": "09:00", "end_time": "20:00"}, {"dayofweek": "6", "start_time": "09:00", "end_time": "20:00"}], "postcode": "95260", "website": "https://www.cultura.com/les-magasins.html"},
{"address": "92800, 15 parvis de la défense PUTEAUX", "city": "PUTEAUX", "country_code": "FR", "brand": "Cultura", "extras": {"brand": "Cultura", "fascia": "Magasin Cultura", "category": "Retail", "edit_date": "20250308", "lat_lon_source": "website"}, "ref": 184, "name": "Cultura La Défense", "phone": "01.41.45.66.50", "latitude": 48.8929, "longitude": 2.23692, "opening_hours": [{"dayofweek": "0", "start_time": "10:00", "end_time": "20:00"}, {"dayofweek": "1", "start_time": "09:00", "end_time": "20:30"}, {"dayofweek": "2", "start_time": "09:00", "end_time": "20:30"}, {"dayofweek": "3", "start_time": "09:00", "end_time": "20:30"}, {"dayofweek": "4", "start_time": "09:00", "end_time": "20:30"}, {"dayofweek": "5", "start_time": "09:00", "end_time": "20:30"}, {"dayofweek": "6", "start_time": "09:00", "end_time": "20:30"}], "postcode": "92800", "website": "https://www.cultura.com/les-magasins.html"},
{"address": "33260, 310 avenue de l’Europe LA TESTE-DE-BUCH", "city": "LA TESTE-DE-BUCH", "country_code": "FR", "brand": "Cultura", "extras": {"brand": "Cultura", "fascia": "Magasin Cultura", "category": "Retail", "edit_date": "20250308", "lat_lon_source": "website"}, "ref": 100, "name": "Cultura La Teste", "phone": "05.57.16.21.60", "latitude": 44.6173, "longitude": -1.11945, "opening_hours": [{"dayofweek": "0", "start_time": "10:00", "end_time": "13:00"}, {"dayofweek": "0", "start_time": "14:30", "end_time": "19:00"}, {"dayofweek": "1", "start_time": "09:00", "end_time": "20:00"}, {"dayofweek": "2", "start_time": "09:00", "end_time": "20:00"}, {"dayofweek": "3", "start_time": "09:00", "end_time": "20:00"}, {"dayofweek": "4", "start_time": "09:00", "end_time": "20:00"}, {"dayofweek": "5", "start_time": "09:00", "end_time": "20:00"}, {"dayofweek": "6", "start_time": "09:00", "end_time": "20:00"}], "postcode": "33260", "website": "https://www.cultura.com/les-magasins.html"},
{"address": "13011, CC des 3 Horloges Traverse de la Montre MARSEILLE", "city": "MARSEILLE", "country_code": "FR", "brand": "Cultura", "extras": {"brand": "Cultura", "fascia": "Magasin Cultura", "category": "Retail", "edit_date": "20250308", "lat_lon_source": "website"}, "ref": 73, "name": "Cultura La Valentine", "phone": "04.91.87.93.10", "latitude": 43.2978, "longitude": 5.47827, "opening_hours": [{"dayofweek": "1", "start_time": "09:00", "end_time": "20:00"}, {"dayofweek": "2", "start_time": "09:00", "end_time": "20:00"}, {"dayofweek": "3", "start_time": "09:00", "end_time": "20:00"}, {"dayofweek": "4", "start_time": "09:00", "end_time": "20:00"}, {"dayofweek": "5", "start_time": "09:00", "end_time": "20:00"}, {"dayofweek": "6", "start_time": "09:00", "end_time": "20:00"}], "postcode": "13011", "website": "https://www.cultura.com/les-magasins.html"},
{"address": "31670, CC Carrefour LABEGE", "city": "LABEGE", "country_code": "FR", "brand": "Cultura", "extras": {"brand": "Cultura", "fascia": "Magasin Cultura", "category": "Retail", "edit_date": "20250308", "lat_lon_source": "website"}, "ref": 76, "name": "Cultura Labège", "phone": "05.61.00.98.98", "latitude": 43.5527, "longitude": 1.50416, "opening_hours": [{"dayofweek": "1", "start_time": "09:00", "end_time": "20:00"}, {"dayofweek": "2", "start_time": "09:00", "end_time": "20:00"}, {"dayofweek": "3", "start_time": "09:00", "end_time": "20:00"}, {"dayofweek": "4", "start_time": "09:00", "end_time": "20:00"}, {"dayofweek": "5", "start_time": "09:00", "end_time": "20:00"}, {"dayofweek": "6", "start_time": "09:00", "end_time": "20:00"}], "postcode": "31670", "website": "https://www.cultura.com/les-magasins.html"},
{"address": "22360, 1 rue Jules Verne LANGUEUX", "city": "LANGUEUX", "country_code": "FR", "brand": "Cultura", "extras": {"brand": "Cultura", "fascia": "Magasin Cultura", "category": "Retail", "edit_date": "20250308", "lat_lon_source": "website"}, "ref": 256, "name": "Cultura Langueux", "phone": "02.90.52.01.80", "latitude": 48.4953, "longitude": -2.72737, "opening_hours": [{"dayofweek": "1", "start_time": "09:00", "end_time": "20:00"}, {"dayofweek": "2", "start_time": "09:00", "end_time": "20:00"}, {"dayofweek": "3", "start_time": "09:00", "end_time": "20:00"}, {"dayofweek": "4", "start_time": "09:00", "end_time": "20:00"}, {"dayofweek": "5", "start_time": "09:00", "end_time": "20:00"}, {"dayofweek": "6", "start_time": "09:00", "end_time": "20:00"}], "postcode": "22360", "website": "https://www.cultura.com/les-magasins.html"},
{"address": "72000, ZAC de l'ardoise LE MANS", "city": "LE MANS", "country_code": "FR", "brand": "Cultura", "extras": {"brand": "Cultura", "fascia": "Magasin Cultura", "category": "Retail", "edit_date": "20250308", "lat_lon_source": "website"}, "ref": 247, "name": "Cultura Le Mans", "phone": "02.43.20.65.55", "latitude": 48.0322, "longitude": 0.181936, "opening_hours": [{"dayofweek": "1", "start_time": "09:00", "end_time": "20:00"}, {"dayofweek": "2", "start_time": "09:00", "end_time": "20:00"}, {"dayofweek": "3", "start_time": "09:00", "end_time": "20:00"}, {"dayofweek": "4", "start_time": "09:00", "end_time": "20:00"}, {"dayofweek": "5", "start_time": "09:00", "end_time": "20:00"}, {"dayofweek": "6", "start_time": "09:00", "end_time": "20:00"}], "postcode": "72000", "website": "https://www.cultura.com/les-magasins.html"},
{"address": "64230, 180 Bld de l'Europe LESCAR", "city": "LESCAR", "country_code": "FR", "brand": "Cultura", "extras": {"brand": "Cultura", "fascia": "Magasin Cultura", "category": "Retail", "edit_date": "20250308", "lat_lon_source": "website"}, "ref": 79, "name": "Cultura Lescar", "phone": "05.59.77.64.10", "latitude": 43.3182, "longitude": -0.433075, "opening_hours": [{"dayofweek": "1", "start_time": "10:00", "end_time": "20:00"}, {"dayofweek": "2", "start_time": "10:00", "end_time": "20:00"}, {"dayofweek": "3", "start_time": "10:00", "end_time": "20:00"}, {"dayofweek": "4", "start_time": "10:00", "end_time": "20:00"}, {"dayofweek": "5", "start_time": "10:00", "end_time": "20:00"}, {"dayofweek": "6", "start_time": "10:00", "end_time": "20:00"}], "postcode": "64230", "website": "https://www.cultura.com/les-magasins.html"},
{"address": "87280, Family Village de Limoges LIMOGES", "city": "LIMOGES", "country_code": "FR", "brand": "Cultura", "extras": {"brand": "Cultura", "fascia": "Magasin Cultura", "category": "Retail", "edit_date": "20250308", "lat_lon_source": "website"}, "ref": 163, "name": "Cultura Limoges", "phone": "05.55.57.07.50", "latitude": 45.8956, "longitude": 1.27973, "opening_hours": [{"dayofweek": "1", "start_time": "09:00", "end_time": "20:00"}, {"dayofweek": "2", "start_time": "09:00", "end_time": "20:00"}, {"dayofweek": "3", "start_time": "09:00", "end_time": "20:00"}, {"dayofweek": "4", "start_time": "09:00", "end_time": "20:00"}, {"dayofweek": "5", "start_time": "09:00", "end_time": "20:00"}, {"dayofweek": "6", "start_time": "09:00", "end_time": "20:00"}], "postcode": "87280", "website": "https://www.cultura.com/les-magasins.html"},
{"address": "59160, Rue du Château d'Isenghien Lille", "city": "Lille", "country_code": "FR", "brand": "Cultura", "extras": {"brand": "Cultura", "fascia": "Magasin Cultura", "category": "Retail", "edit_date": "20250308", "lat_lon_source": "website"}, "ref": 355, "name": "Cultura Lomme", "phone": "03.20.19.32.00", "latitude": 50.652932, "longitude": 2.988091, "opening_hours": [{"dayofweek": "1", "start_time": "09:00", "end_time": "20:00"}, {"dayofweek": "2", "start_time": "09:00", "end_time": "20:00"}, {"dayofweek": "3", "start_time": "09:00", "end_time": "20:00"}, {"dayofweek": "4", "start_time": "09:00", "end_time": "20:00"}, {"dayofweek": "5", "start_time": "09:00", "end_time": "20:00"}, {"dayofweek": "6", "start_time": "09:00", "end_time": "20:00"}], "postcode": "59160", "website": "https://www.cultura.com/les-magasins.html"},
{"address": "71000, 89 Rte de Lyon MACON", "city": "MACON", "country_code": "FR", "brand": "Cultura", "extras": {"brand": "Cultura", "fascia": "Magasin Cultura", "category": "Retail", "edit_date": "20250308", "lat_lon_source": "website"}, "ref": 82, "name": "Cultura Mâcon", "phone": "03.85.32.88.60", "latitude": 46.2861, "longitude": 4.809, "opening_hours": [{"dayofweek": "1", "start_time": "09:00", "end_time": "20:00"}, {"dayofweek": "2", "start_time": "09:00", "end_time": "20:00"}, {"dayofweek": "3", "start_time": "09:00", "end_time": "20:00"}, {"dayofweek": "4", "start_time": "09:00", "end_time": "20:00"}, {"dayofweek": "5", "start_time": "09:00", "end_time": "20:00"}, {"dayofweek": "6", "start_time": "09:00", "end_time": "20:00"}], "postcode": "71000", "website": "https://www.cultura.com/les-magasins.html"},
{"address": "06210, ZI de la Canardière MANDELIEU LA NAPOULE", "city": "MANDELIEU LA NAPOULE", "country_code": "FR", "brand": "Cultura", "extras": {"brand": "Cultura", "fascia": "Magasin Cultura", "category": "Retail", "edit_date": "20250308", "lat_lon_source": "website"}, "ref": 85, "name": "Cultura Mandelieu", "phone": "04.92.19.57.90", "latitude": 43.5536, "longitude": 6.94601, "opening_hours": [{"dayofweek": "1", "start_time": "09:00", "end_time": "20:00"}, {"dayofweek": "2", "start_time": "09:00", "end_time": "20:00"}, {"dayofweek": "3", "start_time": "09:00", "end_time": "20:00"}, {"dayofweek": "4", "start_time": "09:00", "end_time": "20:00"}, {"dayofweek": "5", "start_time": "09:00", "end_time": "20:00"}, {"dayofweek": "6", "start_time": "09:00", "end_time": "20:00"}], "postcode": "06210", "website": "https://www.cultura.com/les-magasins.html"},
{"address": "24430, Av. Louis Suder MARSAC SUR l'ISLE", "city": "MARSAC SUR l'ISLE", "country_code": "FR", "brand": "Cultura", "extras": {"brand": "Cultura", "fascia": "Magasin Cultura", "category": "Retail", "edit_date": "20250308", "lat_lon_source": "website"}, "ref": 341, "name": "Cultura Marsac", "phone": "05.53.02.56.25", "latitude": 45.191502, "longitude": 0.660392, "opening_hours": [{"dayofweek": "1", "start_time": "09:00", "end_time": "20:00"}, {"dayofweek": "2", "start_time": "09:00", "end_time": "20:00"}, {"dayofweek": "3", "start_time": "09:00", "end_time": "20:00"}, {"dayofweek": "4", "start_time": "09:00", "end_time": "20:00"}, {"dayofweek": "5", "start_time": "09:00", "end_time": "20:00"}, {"dayofweek": "6", "start_time": "09:00", "end_time": "20:00"}], "postcode": "24430", "website": "https://www.cultura.com/les-magasins.html"},
{"address": "78310, Rue Jean Perrin MAUREPAS", "city": "MAUREPAS", "country_code": "FR", "brand": "Cultura", "extras": {"brand": "Cultura", "fascia": "Magasin Cultura", "category": "Retail", "edit_date": "20250308", "lat_lon_source": "website"}, "ref": 334, "name": "Cultura Maurepas", "phone": "01.80.82.43.00", "latitude": 48.758972, "longitude": 1.917544, "opening_hours": [{"dayofweek": "0", "start_time": "10:00", "end_time": "19:00"}, {"dayofweek": "1", "start_time": "09:00", "end_time": "20:00"}, {"dayofweek": "2", "start_time": "09:00", "end_time": "20:00"}, {"dayofweek": "3", "start_time": "09:00", "end_time": "20:00"}, {"dayofweek": "4", "start_time": "09:00", "end_time": "20:00"}, {"dayofweek": "5", "start_time": "09:00", "end_time": "20:00"}, {"dayofweek": "6", "start_time": "09:00", "end_time": "20:00"}], "postcode": "78310", "website": "https://www.cultura.com/les-magasins.html"},
{"address": "33700, 16 rue Jacques Anquetil MERIGNAC", "city": "MERIGNAC", "country_code": "FR", "brand": "Cultura", "extras": {"brand": "Cultura", "fascia": "Magasin Cultura", "category": "Retail", "edit_date": "20250308", "lat_lon_source": "website"}, "ref": 305, "name": "Cultura Mérignac", "phone": "05.57.92.01.20", "latitude": 44.8305, "longitude": -0.662281, "opening_hours": [{"dayofweek": "1", "start_time": "09:00", "end_time": "20:00"}, {"dayofweek": "2", "start_time": "09:00", "end_time": "20:00"}, {"dayofweek": "3", "start_time": "09:00", "end_time": "20:00"}, {"dayofweek": "4", "start_time": "09:00", "end_time": "20:00"}, {"dayofweek": "5", "start_time": "09:00", "end_time": "20:00"}, {"dayofweek": "6", "start_time": "09:00", "end_time": "20:00"}], "postcode": "33700", "website": "https://www.cultura.com/les-magasins.html"},
{"address": "57160, 1 rue de la pie grièche MOULINS-LES-METZ", "city": "MOULINS-LES-METZ", "country_code": "FR", "brand": "Cultura", "extras": {"brand": "Cultura", "fascia": "Magasin Cultura", "category": "Retail", "edit_date": "20250308", "lat_lon_source": "website"}, "ref": 193, "name": "Cultura Metz", "phone": "03.87.50.85.90", "latitude": 49.083, "longitude": 6.10441, "opening_hours": [{"dayofweek": "1", "start_time": "09:00", "end_time": "19:30"}, {"dayofweek": "2", "start_time": "09:00", "end_time": "19:30"}, {"dayofweek": "3", "start_time": "09:00", "end_time": "19:30"}, {"dayofweek": "4", "start_time": "09:00", "end_time": "19:30"}, {"dayofweek": "5", "start_time": "09:00", "end_time": "19:30"}, {"dayofweek": "6", "start_time": "09:00", "end_time": "20:00"}], "postcode": "57160", "website": "https://www.cultura.com/les-magasins.html"},
{"address": "82000, ZC du Futuropole MONTAUBAN", "city": "MONTAUBAN", "country_code": "FR", "brand": "Cultura", "extras": {"brand": "Cultura", "fascia": "Magasin Cultura", "category": "Retail", "edit_date": "20250308", "lat_lon_source": "website"}, "ref": 172, "name": "Cultura Montauban", "phone": "05.63.92.62.90", "latitude": 44.0372, "longitude": 1.38669, "opening_hours": [{"dayofweek": "1", "start_time": "09:00", "end_time": "20:00"}, {"dayofweek": "2", "start_time": "09:00", "end_time": "20:00"}, {"dayofweek": "3", "start_time": "09:00", "end_time": "20:00"}, {"dayofweek": "4", "start_time": "09:00", "end_time": "20:00"}, {"dayofweek": "5", "start_time": "09:00", "end_time": "20:00"}, {"dayofweek": "6", "start_time": "09:00", "end_time": "20:00"}], "postcode": "82000", "website": "https://www.cultura.com/les-magasins.html"},
{"address": "77144, ZAC CLOS du CHENE MONTEVRAIN", "city": "MONTEVRAIN", "country_code": "FR", "brand": "Cultura", "extras": {"brand": "Cultura", "fascia": "Magasin Cultura", "category": "Retail", "edit_date": "20250308", "lat_lon_source": "website"}, "ref": 319, "name": "Cultura Montevrain", "phone": "01.80.81.43.10", "latitude": 48.853178, "longitude": 2.754679, "opening_hours": [{"dayofweek": "0", "start_time": "10:00", "end_time": "19:00"}, {"dayofweek": "1", "start_time": "09:00", "end_time": "20:00"}, {"dayofweek": "2", "start_time": "09:00", "end_time": "20:00"}, {"dayofweek": "3", "start_time": "09:00", "end_time": "20:00"}, {"dayofweek": "4", "start_time": "09:00", "end_time": "20:00"}, {"dayofweek": "5", "start_time": "09:00", "end_time": "20:00"}, {"dayofweek": "6", "start_time": "09:00", "end_time": "20:00"}], "postcode": "77144", "website": "https://www.cultura.com/les-magasins.html"},
{"address": "76290, Avenue Maréchal Foch MONTIVILLIERS", "city": "MONTIVILLIERS", "country_code": "FR", "brand": "Cultura", "extras": {"brand": "Cultura", "fascia": "Magasin Cultura", "category": "Retail", "edit_date": "20250308", "lat_lon_source": "website"}, "ref": 271, "name": "Cultura Montivilliers", "phone": "02.78.34.04.30", "latitude": 49.5322, "longitude": 0.189332, "opening_hours": [{"dayofweek": "1", "start_time": "09:00", "end_time": "20:00"}, {"dayofweek": "2", "start_time": "09:00", "end_time": "20:00"}, {"dayofweek": "3", "start_time": "09:00", "end_time": "20:00"}, {"dayofweek": "4", "start_time": "09:00", "end_time": "20:00"}, {"dayofweek": "5", "start_time": "09:00", "end_time": "20:00"}, {"dayofweek": "6", "start_time": "09:00", "end_time": "20:00"}], "postcode": "76290", "website": "https://www.cultura.com/les-magasins.html"},
{"address": "03100, 15 rue Albert Einstein MONTLUÇON", "city": "MONTLUÇON", "country_code": "FR", "brand": "Cultura", "extras": {"brand": "Cultura", "fascia": "Magasin Cultura", "category": "Retail", "edit_date": "20250308", "lat_lon_source": "website"}, "ref": 178, "name": "Cultura Montluçon", "phone": "04.70.02.35.10", "latitude": 46.3489, "longitude": 2.6037, "opening_hours": [{"dayofweek": "1", "start_time": "09:00", "end_time": "19:00"}, {"dayofweek": "2", "start_time": "09:00", "end_time": "19:00"}, {"dayofweek": "3", "start_time": "09:00", "end_time": "19:00"}, {"dayofweek": "4", "start_time": "09:00", "end_time": "19:00"}, {"dayofweek": "5", "start_time": "09:00", "end_time": "19:00"}, {"dayofweek": "6", "start_time": "09:00", "end_time": "19:00"}], "postcode": "03100", "website": "https://www.cultura.com/les-magasins.html"},
{"address": "67116, CULTURA (C1) REICHSTETT", "city": "REICHSTETT", "country_code": "FR", "brand": "Cultura", "extras": {"brand": "Cultura", "fascia": "Magasin Cultura", "category": "Retail", "edit_date": "20250308", "lat_lon_source": "website"}, "ref": 19, "name": "Cultura Mundolsheim", "phone": "03.69.61.53.10", "latitude": 48.6494, "longitude": 7.73153, "opening_hours": [{"dayofweek": "1", "start_time": "09:00", "end_time": "20:00"}, {"dayofweek": "2", "start_time": "09:00", "end_time": "20:00"}, {"dayofweek": "3", "start_time": "09:00", "end_time": "20:00"}, {"dayofweek": "4", "start_time": "09:00", "end_time": "20:00"}, {"dayofweek": "5", "start_time": "09:00", "end_time": "20:00"}, {"dayofweek": "6", "start_time": "09:00", "end_time": "20:00"}], "postcode": "67116", "website": "https://www.cultura.com/les-magasins.html"},
{"address": "11100, ZAC Bonne Source NARBONNE", "city": "NARBONNE", "country_code": "FR", "brand": "Cultura", "extras": {"brand": "Cultura", "fascia": "Magasin Cultura", "category": "Retail", "edit_date": "20250308", "lat_lon_source": "website"}, "ref": 106, "name": "Cultura Narbonne", "phone": "04.68.91.85.38", "latitude": 43.1798, "longitude": 3.03141, "opening_hours": [{"dayofweek": "1", "start_time": "09:00", "end_time": "20:00"}, {"dayofweek": "2", "start_time": "09:00", "end_time": "20:00"}, {"dayofweek": "3", "start_time": "09:00", "end_time": "20:00"}, {"dayofweek": "4", "start_time": "09:00", "end_time": "20:00"}, {"dayofweek": "5", "start_time": "09:00", "end_time": "20:00"}, {"dayofweek": "6", "start_time": "09:00", "end_time": "20:00"}], "postcode": "11100", "website": "https://www.cultura.com/les-magasins.html"},
{"address": "59960, route de Roncq NEUVILLE-EN-FERRAIN", "city": "NEUVILLE-EN-FERRAIN", "country_code": "FR", "brand": "Cultura", "extras": {"brand": "Cultura", "fascia": "Magasin Cultura", "category": "Retail", "edit_date": "20250308", "lat_lon_source": "website"}, "ref": 244, "name": "Cultura Neuville-en-Ferrain", "phone": "03.20.00.44.68", "latitude": 50.744, "longitude": 3.14469, "opening_hours": [{"dayofweek": "1", "start_time": "09:00", "end_time": "20:00"}, {"dayofweek": "2", "start_time": "09:00", "end_time": "20:00"}, {"dayofweek": "3", "start_time": "09:00", "end_time": "20:00"}, {"dayofweek": "4", "start_time": "09:00", "end_time": "20:00"}, {"dayofweek": "5", "start_time": "09:00", "end_time": "20:00"}, {"dayofweek": "6", "start_time": "09:00", "end_time": "20:00"}], "postcode": "59960", "website": "https://www.cultura.com/les-magasins.html"},
{"address": "06200, CC Nice Lingostiere NICE", "city": "NICE", "country_code": "FR", "brand": "Cultura", "extras": {"brand": "Cultura", "fascia": "Magasin Cultura", "category": "Retail", "edit_date": "20250308", "lat_lon_source": "website"}, "ref": 16, "name": "Cultura Nice", "phone": "04.83.93.59.00", "latitude": 43.7304, "longitude": 7.1862, "opening_hours": [{"dayofweek": "0", "start_time": "08:00", "end_time": "12:30"}, {"dayofweek": "1", "start_time": "09:00", "end_time": "20:00"}, {"dayofweek": "2", "start_time": "09:00", "end_time": "20:00"}, {"dayofweek": "3", "start_time": "09:00", "end_time": "20:00"}, {"dayofweek": "4", "start_time": "09:00", "end_time": "20:00"}, {"dayofweek": "5", "start_time": "09:00", "end_time": "20:00"}, {"dayofweek": "6", "start_time": "09:00", "end_time": "20:00"}], "postcode": "06200", "website": "https://www.cultura.com/les-magasins.html"},
{"address": "30900, ZC Carré Sud NIMES", "city": "NIMES", "country_code": "FR", "brand": "Cultura", "extras": {"brand": "Cultura", "fascia": "Magasin Cultura", "category": "Retail", "edit_date": "20250308", "lat_lon_source": "website"}, "ref": 109, "name": "Cultura Nîmes", "phone": "04.66.70.92.70", "latitude": 43.8106, "longitude": 4.36414, "opening_hours": [{"dayofweek": "1", "start_time": "09:00", "end_time": "20:00"}, {"dayofweek": "2", "start_time": "09:00", "end_time": "20:00"}, {"dayofweek": "3", "start_time": "09:00", "end_time": "20:00"}, {"dayofweek": "4", "start_time": "09:00", "end_time": "20:00"}, {"dayofweek": "5", "start_time": "09:00", "end_time": "20:00"}, {"dayofweek": "6", "start_time": "09:00", "end_time": "20:00"}], "postcode": "30900", "website": "https://www.cultura.com/les-magasins.html"},
{"address": "94510, Avenue de l’Hippodrome LA QUEUE EN BRIE", "city": "LA QUEUE EN BRIE", "country_code": "FR", "brand": "Cultura", "extras": {"brand": "Cultura", "fascia": "Magasin Cultura", "category": "Retail", "edit_date": "20250308", "lat_lon_source": "website"}, "ref": 175, "name": "Cultura Pince Vent", "phone": "01.45.93.93.53", "latitude": 48.7924, "longitude": 2.55775, "opening_hours": [{"dayofweek": "0", "start_time": "09:30", "end_time": "19:30"}, {"dayofweek": "1", "start_time": "09:00", "end_time": "20:00"}, {"dayofweek": "2", "start_time": "09:00", "end_time": "20:00"}, {"dayofweek": "3", "start_time": "09:00", "end_time": "20:00"}, {"dayofweek": "4", "start_time": "09:00", "end_time": "20:00"}, {"dayofweek": "5", "start_time": "09:00", "end_time": "20:00"}, {"dayofweek": "6", "start_time": "09:00", "end_time": "20:00"}], "postcode": "94510", "website": "https://www.cultura.com/les-magasins.html"},
{"address": "78340, ZC Alpha Park Les Clayes-sous-Bois", "city": "Les Clayes-sous-Bois", "country_code": "FR", "brand": "Cultura", "extras": {"brand": "Cultura", "fascia": "Magasin Cultura", "category": "Retail", "edit_date": "20250308", "lat_lon_source": "website"}, "ref": 112, "name": "Cultura Plaisir / Les Clayes-sous-Bois", "phone": "01.30.07.61.00", "latitude": 48.8287, "longitude": 1.97117, "opening_hours": [{"dayofweek": "0", "start_time": "10:00", "end_time": "20:00"}, {"dayofweek": "1", "start_time": "09:00", "end_time": "20:00"}, {"dayofweek": "2", "start_time": "09:00", "end_time": "20:00"}, {"dayofweek": "3", "start_time": "09:00", "end_time": "20:00"}, {"dayofweek": "4", "start_time": "09:00", "end_time": "20:00"}, {"dayofweek": "5", "start_time": "09:00", "end_time": "20:00"}, {"dayofweek": "6", "start_time": "09:00", "end_time": "20:00"}], "postcode": "78340", "website": "https://www.cultura.com/les-magasins.html"},
{"address": "13480, ZAC Plan de campagne CABRIES", "city": "CABRIES", "country_code": "FR", "brand": "Cultura", "extras": {"brand": "Cultura", "fascia": "Magasin Cultura", "category": "Retail", "edit_date": "20250308", "lat_lon_source": "website"}, "ref": 91, "name": "Cultura Plan De Campagne", "phone": "04.42.41.33.84", "latitude": 43.4223, "longitude": 5.36346, "opening_hours": [{"dayofweek": "0", "start_time": "09:00", "end_time": "20:00"}, {"dayofweek": "1", "start_time": "09:00", "end_time": "20:00"}, {"dayofweek": "2", "start_time": "09:00", "end_time": "20:00"}, {"dayofweek": "3", "start_time": "09:00", "end_time": "20:00"}, {"dayofweek": "4", "start_time": "09:00", "end_time": "20:00"}, {"dayofweek": "5", "start_time": "09:00", "end_time": "20:00"}, {"dayofweek": "6", "start_time": "09:00", "end_time": "20:00"}], "postcode": "13480", "website": "https://www.cultura.com/les-magasins.html"},
{"address": "31120, 12 Bd de l'Europe PORTET SUR GARONNE", "city": "PORTET SUR GARONNE", "country_code": "FR", "brand": "Cultura", "extras": {"brand": "Cultura", "fascia": "Magasin Cultura", "category": "Retail", "edit_date": "20250308", "lat_lon_source": "website"}, "ref": 115, "name": "Cultura Portet Sur Garonne", "phone": "05.62.87.68.76", "latitude": 43.5314, "longitude": 1.40108, "opening_hours": [{"dayofweek": "1", "start_time": "09:00", "end_time": "20:00"}, {"dayofweek": "2", "start_time": "09:00", "end_time": "20:00"}, {"dayofweek": "3", "start_time": "09:00", "end_time": "20:00"}, {"dayofweek": "4", "start_time": "09:00", "end_time": "20:00"}, {"dayofweek": "5", "start_time": "09:00", "end_time": "20:00"}, {"dayofweek": "6", "start_time": "09:00", "end_time": "20:00"}], "postcode": "31120", "website": "https://www.cultura.com/les-magasins.html"},
{"address": "74500, Rue du Cartheray Publier", "city": "Publier", "country_code": "FR", "brand": "Cultura", "extras": {"brand": "Cultura", "fascia": "Magasin Cultura", "category": "Retail", "edit_date": "20250308", "lat_lon_source": "website"}, "ref": 268, "name": "Cultura Publier", "phone": "04.56.66.06.20", "latitude": 46.3889, "longitude": 6.52239, "opening_hours": [{"dayofweek": "1", "start_time": "09:00", "end_time": "20:00"}, {"dayofweek": "2", "start_time": "09:00", "end_time": "20:00"}, {"dayofweek": "3", "start_time": "09:00", "end_time": "20:00"}, {"dayofweek": "4", "start_time": "09:00", "end_time": "20:00"}, {"dayofweek": "5", "start_time": "09:00", "end_time": "20:00"}, {"dayofweek": "6", "start_time": "09:00", "end_time": "20:00"}], "postcode": "74500", "website": "https://www.cultura.com/les-magasins.html"},
{"address": "83480, Zone d'activités des Salles PUGET SUR ARGENS", "city": "PUGET SUR ARGENS", "country_code": "FR", "brand": "Cultura", "extras": {"brand": "Cultura", "fascia": "Magasin Cultura", "category": "Retail", "edit_date": "20250308", "lat_lon_source": "website"}, "ref": 160, "name": "Cultura Puget", "phone": "04.98.11.09.60", "latitude": 43.4441, "longitude": 6.70245, "opening_hours": [{"dayofweek": "1", "start_time": "09:00", "end_time": "20:00"}, {"dayofweek": "2", "start_time": "09:00", "end_time": "20:00"}, {"dayofweek": "3", "start_time": "09:00", "end_time": "20:00"}, {"dayofweek": "4", "start_time": "09:00", "end_time": "20:00"}, {"dayofweek": "5", "start_time": "09:00", "end_time": "20:00"}, {"dayofweek": "6", "start_time": "09:00", "end_time": "20:00"}], "postcode": "83480", "website": "https://www.cultura.com/les-magasins.html"},
{"address": "17138, 5 rue de Belgique PUILBOREAU", "city": "PUILBOREAU", "country_code": "FR", "brand": "Cultura", "extras": {"brand": "Cultura", "fascia": "Magasin Cultura", "category": "Retail", "edit_date": "20250308", "lat_lon_source": "website"}, "ref": 205, "name": "Cultura Puilboreau", "phone": "05.46.35.50.50", "latitude": 46.1785, "longitude": -1.1222, "opening_hours": [{"dayofweek": "1", "start_time": "09:00", "end_time": "20:00"}, {"dayofweek": "2", "start_time": "09:00", "end_time": "20:00"}, {"dayofweek": "3", "start_time": "09:00", "end_time": "20:00"}, {"dayofweek": "4", "start_time": "09:00", "end_time": "20:00"}, {"dayofweek": "5", "start_time": "09:00", "end_time": "20:00"}, {"dayofweek": "6", "start_time": "09:00", "end_time": "20:00"}], "postcode": "17138", "website": "https://www.cultura.com/les-magasins.html"},
{"address": "78120, Centre commercial du Bel Air RAMBOUILLET", "city": "RAMBOUILLET", "country_code": "FR", "brand": "Cultura", "extras": {"brand": "Cultura", "fascia": "Magasin Cultura", "category": "Retail", "edit_date": "20250308", "lat_lon_source": "website"}, "ref": 238, "name": "Cultura Rambouillet", "phone": "01.61.39.19.45", "latitude": 48.6293, "longitude": 1.82785, "opening_hours": [{"dayofweek": "0", "start_time": "10:00", "end_time": "19:00"}, {"dayofweek": "1", "start_time": "09:00", "end_time": "20:00"}, {"dayofweek": "2", "start_time": "09:00", "end_time": "20:00"}, {"dayofweek": "3", "start_time": "09:00", "end_time": "20:00"}, {"dayofweek": "4", "start_time": "09:00", "end_time": "20:00"}, {"dayofweek": "5", "start_time": "09:00", "end_time": "20:00"}, {"dayofweek": "6", "start_time": "09:00", "end_time": "20:00"}], "postcode": "78120", "website": "https://www.cultura.com/les-magasins.html"},
{"address": "66600, rue George Méliès RIVESALTES", "city": "RIVESALTES", "country_code": "FR", "brand": "Cultura", "extras": {"brand": "Cultura", "fascia": "Magasin Cultura", "category": "Retail", "edit_date": "20250308", "lat_lon_source": "website"}, "ref": 262, "name": "Cultura Rivesaltes", "phone": "04.11.30.05.60", "latitude": 42.775, "longitude": 2.90881, "opening_hours": [{"dayofweek": "0", "start_time": "10:00", "end_time": "19:00"}, {"dayofweek": "1", "start_time": "09:00", "end_time": "20:00"}, {"dayofweek": "2", "start_time": "09:00", "end_time": "20:00"}, {"dayofweek": "3", "start_time": "09:00", "end_time": "20:00"}, {"dayofweek": "4", "start_time": "09:00", "end_time": "20:00"}, {"dayofweek": "5", "start_time": "09:00", "end_time": "20:00"}, {"dayofweek": "6", "start_time": "09:00", "end_time": "20:00"}], "postcode": "66600", "website": "https://www.cultura.com/les-magasins.html"},
{"address": "34130, 236 Avenue de la ciboulette SAINT AUNES", "city": "SAINT AUNES", "country_code": "FR", "brand": "Cultura", "extras": {"brand": "Cultura", "fascia": "Magasin Cultura", "category": "Retail", "edit_date": "20250308", "lat_lon_source": "website"}, "ref": 202, "name": "Cultura Saint Aunès", "phone": "04.67.40.75.80", "latitude": 43.6482, "longitude": 3.97883, "opening_hours": [{"dayofweek": "1", "start_time": "09:00", "end_time": "20:00"}, {"dayofweek": "2", "start_time": "09:00", "end_time": "20:00"}, {"dayofweek": "3", "start_time": "09:00", "end_time": "20:00"}, {"dayofweek": "4", "start_time": "09:00", "end_time": "20:00"}, {"dayofweek": "5", "start_time": "09:00", "end_time": "20:00"}, {"dayofweek": "6", "start_time": "09:00", "end_time": "20:00"}], "postcode": "34130", "website": "https://www.cultura.com/les-magasins.html"},
{"address": "53940, 66 avenue de Paris SAINT BERTHEVIN", "city": "SAINT BERTHEVIN", "country_code": "FR", "brand": "Cultura", "extras": {"brand": "Cultura", "fascia": "Magasin Cultura", "category": "Retail", "edit_date": "20250308", "lat_lon_source": "website"}, "ref": 97, "name": "Cultura Saint Berthevin", "phone": "02.43.91.45.40", "latitude": 48.0686, "longitude": -0.806533, "opening_hours": [{"dayofweek": "1", "start_time": "09:00", "end_time": "19:30"}, {"dayofweek": "2", "start_time": "09:00", "end_time": "19:30"}, {"dayofweek": "3", "start_time": "09:00", "end_time": "19:30"}, {"dayofweek": "4", "start_time": "09:00", "end_time": "19:30"}, {"dayofweek": "5", "start_time": "09:00", "end_time": "19:30"}, {"dayofweek": "6", "start_time": "09:00", "end_time": "19:30"}], "postcode": "53940", "website": "https://www.cultura.com/les-magasins.html"},
{"address": "18230, 6 Rue du Clos Blanc SAINT DOULCHARD", "city": "SAINT DOULCHARD", "country_code": "FR", "brand": "Cultura", "extras": {"brand": "Cultura", "fascia": "Magasin Cultura", "category": "Retail", "edit_date": "20250308", "lat_lon_source": "website"}, "ref": 241, "name": "Cultura Saint Doulchard", "phone": "02.48.65.05.66", "latitude": 47.1177, "longitude": 2.37622, "opening_hours": [{"dayofweek": "1", "start_time": "09:00", "end_time": "20:00"}, {"dayofweek": "2", "start_time": "09:00", "end_time": "20:00"}, {"dayofweek": "3", "start_time": "09:00", "end_time": "20:00"}, {"dayofweek": "4", "start_time": "09:00", "end_time": "20:00"}, {"dayofweek": "5", "start_time": "09:00", "end_time": "20:00"}, {"dayofweek": "6", "start_time": "09:00", "end_time": "20:00"}], "postcode": "18230", "website": "https://www.cultura.com/les-magasins.html"},
{"address": "35760, Route de Saint Malo SAINT GREGOIRE", "city": "SAINT GREGOIRE", "country_code": "FR", "brand": "Cultura", "extras": {"brand": "Cultura", "fascia": "Magasin Cultura", "category": "Retail", "edit_date": "20250308", "lat_lon_source": "website"}, "ref": 265, "name": "Cultura Saint Grégoire", "phone": "02.30.21.28.50", "latitude": 48.1361, "longitude": -1.69346, "opening_hours": [{"dayofweek": "1", "start_time": "09:00", "end_time": "20:00"}, {"dayofweek": "2", "start_time": "09:00", "end_time": "20:00"}, {"dayofweek": "3", "start_time": "09:00", "end_time": "20:00"}, {"dayofweek": "4", "start_time": "09:00", "end_time": "20:00"}, {"dayofweek": "5", "start_time": "09:00", "end_time": "20:00"}, {"dayofweek": "6", "start_time": "09:00", "end_time": "20:00"}], "postcode": "35760", "website": "https://www.cultura.com/les-magasins.html"},
{"address": "35400, CC La Madeleine SAINT MALO", "city": "SAINT MALO", "country_code": "FR", "brand": "Cultura", "extras": {"brand": "Cultura", "fascia": "Magasin Cultura", "category": "Retail", "edit_date": "20250308", "lat_lon_source": "website"}, "ref": 118, "name": "Cultura Saint Malo", "phone": "02.99.21.34.00", "latitude": 48.6237, "longitude": -1.9965, "opening_hours": [{"dayofweek": "1", "start_time": "09:30", "end_time": "20:00"}, {"dayofweek": "2", "start_time": "09:30", "end_time": "20:00"}, {"dayofweek": "3", "start_time": "09:30", "end_time": "20:00"}, {"dayofweek": "4", "start_time": "09:30", "end_time": "20:00"}, {"dayofweek": "5", "start_time": "09:30", "end_time": "20:00"}, {"dayofweek": "6", "start_time": "09:30", "end_time": "20:00"}], "postcode": "35400", "website": "https://www.cultura.com/les-magasins.html"},
{"address": "36250, ZC Cap Sud SAINT MAUR", "city": "SAINT MAUR", "country_code": "FR", "brand": "Cultura", "extras": {"brand": "Cultura", "fascia": "Magasin Cultura", "category": "Retail", "edit_date": "20250308", "lat_lon_source": "website"}, "ref": 121, "name": "Cultura Saint Maur", "phone": "02.54.08.21.00", "latitude": 46.782355, "longitude": 1.649837, "opening_hours": [{"dayofweek": "1", "start_time": "09:00", "end_time": "20:00"}, {"dayofweek": "2", "start_time": "09:00", "end_time": "20:00"}, {"dayofweek": "3", "start_time": "09:00", "end_time": "20:00"}, {"dayofweek": "4", "start_time": "09:00", "end_time": "20:00"}, {"dayofweek": "5", "start_time": "09:00", "end_time": "20:00"}, {"dayofweek": "6", "start_time": "09:00", "end_time": "20:00"}], "postcode": "36250", "website": "https://www.cultura.com/les-magasins.html"},
{"address": "60740, ZAC du bois des fenêtres SAINT MAXIMIN", "city": "SAINT MAXIMIN", "country_code": "FR", "brand": "Cultura", "extras": {"brand": "Cultura", "fascia": "Magasin Cultura", "category": "Retail", "edit_date": "20250308", "lat_lon_source": "website"}, "ref": 124, "name": "Cultura Saint Maximin", "phone": "03.44.32.08.10", "latitude": 49.2388, "longitude": 2.4669, "opening_hours": [{"dayofweek": "1", "start_time": "09:00", "end_time": "20:00"}, {"dayofweek": "2", "start_time": "09:00", "end_time": "20:00"}, {"dayofweek": "3", "start_time": "09:00", "end_time": "20:00"}, {"dayofweek": "4", "start_time": "09:00", "end_time": "20:00"}, {"dayofweek": "5", "start_time": "09:00", "end_time": "20:00"}, {"dayofweek": "6", "start_time": "09:00", "end_time": "20:00"}], "postcode": "60740", "website": "https://www.cultura.com/les-magasins.html"},
{"address": "69800, CC PORTE DES ALPES ST PRIEST", "city": "ST PRIEST", "country_code": "FR", "brand": "Cultura", "extras": {"brand": "Cultura", "fascia": "Magasin Cultura", "category": "Retail", "edit_date": "20250308", "lat_lon_source": "website"}, "ref": 331, "name": "Cultura Saint Priest", "phone": "04.81.91.24.00", "latitude": 45.72105, "longitude": 4.930946, "opening_hours": [{"dayofweek": "1", "start_time": "09:00", "end_time": "20:00"}, {"dayofweek": "2", "start_time": "09:00", "end_time": "20:00"}, {"dayofweek": "3", "start_time": "09:00", "end_time": "20:00"}, {"dayofweek": "4", "start_time": "09:00", "end_time": "20:00"}, {"dayofweek": "5", "start_time": "09:00", "end_time": "20:00"}, {"dayofweek": "6", "start_time": "09:00", "end_time": "20:00"}], "postcode": "69800", "website": "https://www.cultura.com/les-magasins.html"},
{"address": "02100, CC AUCHAN St Quentin/Fayet FAYET", "city": "FAYET", "country_code": "FR", "brand": "Cultura", "extras": {"brand": "Cultura", "fascia": "Magasin Cultura", "category": "Retail", "edit_date": "20250308", "lat_lon_source": "website"}, "ref": 130, "name": "Cultura Saint Quentin Fayet", "phone": "03.23.07.59.40", "latitude": 49.8612, "longitude": 3.26034, "opening_hours": [{"dayofweek": "1", "start_time": "09:00", "end_time": "20:00"}, {"dayofweek": "2", "start_time": "09:00", "end_time": "20:00"}, {"dayofweek": "3", "start_time": "09:00", "end_time": "20:00"}, {"dayofweek": "4", "start_time": "09:00", "end_time": "20:00"}, {"dayofweek": "5", "start_time": "09:00", "end_time": "20:00"}, {"dayofweek": "6", "start_time": "09:00", "end_time": "20:00"}], "postcode": "02100", "website": "https://www.cultura.com/les-magasins.html"},
{"address": "91700, 20 - 22 avenue de la Croix Blanche SAINTE GENEVIEVE DES BOIS", "city": "SAINTE GENEVIEVE DES BOIS", "country_code": "FR", "brand": "Cultura", "extras": {"brand": "Cultura", "fascia": "Magasin Cultura", "category": "Retail", "edit_date": "20250308", "lat_lon_source": "website"}, "ref": 338, "name": "Cultura Sainte Geneviève Des Bois", "phone": "01.69.46.57.10", "latitude": 48.621331, "longitude": 2.348879, "opening_hours": [{"dayofweek": "0", "start_time": "09:00", "end_time": "20:00"}, {"dayofweek": "1", "start_time": "09:00", "end_time": "20:00"}, {"dayofweek": "2", "start_time": "09:00", "end_time": "20:00"}, {"dayofweek": "3", "start_time": "09:00", "end_time": "20:00"}, {"dayofweek": "4", "start_time": "09:00", "end_time": "20:00"}, {"dayofweek": "5", "start_time": "09:00", "end_time": "20:00"}, {"dayofweek": "6", "start_time": "09:00", "end_time": "20:00"}], "postcode": "91700", "website": "https://www.cultura.com/les-magasins.html"},
{"address": "38150, 415 Avenue Plein Sud SALAISE SUR SANNE", "city": "SALAISE SUR SANNE", "country_code": "FR", "brand": "Cultura", "extras": {"brand": "Cultura", "fascia": "Magasin Cultura", "category": "Retail", "edit_date": "20250308", "lat_lon_source": "website"}, "ref": 322, "name": "Cultura Salaise", "phone": "04.82.62.60.20", "latitude": 45.330598, "longitude": 4.804453, "opening_hours": [{"dayofweek": "1", "start_time": "09:00", "end_time": "19:30"}, {"dayofweek": "2", "start_time": "09:00", "end_time": "19:30"}, {"dayofweek": "3", "start_time": "09:00", "end_time": "19:30"}, {"dayofweek": "4", "start_time": "09:00", "end_time": "19:30"}, {"dayofweek": "5", "start_time": "09:00", "end_time": "19:30"}, {"dayofweek": "6", "start_time": "09:00", "end_time": "19:30"}], "postcode": "38150", "website": "https://www.cultura.com/les-magasins.html"},
{"address": "45770, Parc d'Activités Ciale de SARAN SARAN", "city": "SARAN", "country_code": "FR", "brand": "Cultura", "extras": {"brand": "Cultura", "fascia": "Magasin Cultura", "category": "Retail", "edit_date": "20250308", "lat_lon_source": "website"}, "ref": 274, "name": "Cultura Saran", "phone": "02.45.40.04.90", "latitude": 47.9621, "longitude": 1.88504, "opening_hours": [{"dayofweek": "1", "start_time": "09:00", "end_time": "20:00"}, {"dayofweek": "2", "start_time": "09:00", "end_time": "20:00"}, {"dayofweek": "3", "start_time": "09:00", "end_time": "20:00"}, {"dayofweek": "4", "start_time": "09:00", "end_time": "20:00"}, {"dayofweek": "5", "start_time": "09:00", "end_time": "20:00"}, {"dayofweek": "6", "start_time": "09:00", "end_time": "20:00"}], "postcode": "45770", "website": "https://www.cultura.com/les-magasins.html"},
{"address": "57400, ZA les terrasses de la Sarres Sarrebourg", "city": "Sarrebourg", "country_code": "FR", "brand": "Cultura", "extras": {"brand": "Cultura", "fascia": "Magasin Cultura", "category": "Retail", "edit_date": "20250308", "lat_lon_source": "website"}, "ref": 357, "name": "Cultura Sarrebourg", "phone": "03.87.25.64.72", "latitude": 48.717434, "longitude": 7.0444, "opening_hours": [{"dayofweek": "1", "start_time": "09:30", "end_time": "19:00"}, {"dayofweek": "2", "start_time": "09:30", "end_time": "19:00"}, {"dayofweek": "3", "start_time": "09:30", "end_time": "19:00"}, {"dayofweek": "4", "start_time": "09:30", "end_time": "19:00"}, {"dayofweek": "5", "start_time": "09:30", "end_time": "19:00"}, {"dayofweek": "6", "start_time": "09:30", "end_time": "19:00"}], "postcode": "57400", "website": "https://www.cultura.com/les-magasins.html"},
{"address": "67590, 10 Place du Geisselbronn SCHWEIGHOUSE-SUR-MODER (Haguenau)", "city": "SCHWEIGHOUSE-SUR-MODER (Haguenau)", "country_code": "FR", "brand": "Cultura", "extras": {"brand": "Cultura", "fascia": "Magasin Cultura", "category": "Retail", "edit_date": "20250308", "lat_lon_source": "website"}, "ref": 351, "name": "Cultura Schweighouse-sur-Moder", "phone": "03.67.17.60.00", "latitude": 48.831003, "longitude": 7.740761, "opening_hours": [{"dayofweek": "1", "start_time": "09:00", "end_time": "20:00"}, {"dayofweek": "2", "start_time": "09:00", "end_time": "20:00"}, {"dayofweek": "3", "start_time": "09:00", "end_time": "20:00"}, {"dayofweek": "4", "start_time": "09:00", "end_time": "20:00"}, {"dayofweek": "5", "start_time": "09:00", "end_time": "20:00"}, {"dayofweek": "6", "start_time": "09:00", "end_time": "20:00"}], "postcode": "67590", "website": "https://www.cultura.com/les-magasins.html"},
{"address": "84700, CC Avignon Nord SORGUES", "city": "SORGUES", "country_code": "FR", "brand": "Cultura", "extras": {"brand": "Cultura", "fascia": "Magasin Cultura", "category": "Retail", "edit_date": "20250308", "lat_lon_source": "website"}, "ref": 136, "name": "Cultura Sorgues", "phone": "04.90.03.09.70", "latitude": 43.986, "longitude": 4.88189, "opening_hours": [{"dayofweek": "1", "start_time": "09:00", "end_time": "20:00"}, {"dayofweek": "2", "start_time": "09:00", "end_time": "20:00"}, {"dayofweek": "3", "start_time": "09:00", "end_time": "20:00"}, {"dayofweek": "4", "start_time": "09:00", "end_time": "20:00"}, {"dayofweek": "5", "start_time": "09:00", "end_time": "20:00"}, {"dayofweek": "6", "start_time": "09:00", "end_time": "20:00"}], "postcode": "84700", "website": "https://www.cultura.com/les-magasins.html"},
{"address": "57180, CC LECLERC TERVILLE", "city": "TERVILLE", "country_code": "FR", "brand": "Cultura", "extras": {"brand": "Cultura", "fascia": "Magasin Cultura", "category": "Retail", "edit_date": "20250308", "lat_lon_source": "website"}, "ref": 139, "name": "Cultura Terville", "phone": "03.82.59.69.50", "latitude": 49.353, "longitude": 6.13463, "opening_hours": [{"dayofweek": "1", "start_time": "09:00", "end_time": "20:00"}, {"dayofweek": "2", "start_time": "09:00", "end_time": "20:00"}, {"dayofweek": "3", "start_time": "09:00", "end_time": "20:00"}, {"dayofweek": "4", "start_time": "09:00", "end_time": "20:00"}, {"dayofweek": "5", "start_time": "09:00", "end_time": "20:00"}, {"dayofweek": "6", "start_time": "09:00", "end_time": "20:00"}], "postcode": "57180", "website": "https://www.cultura.com/les-magasins.html"},
{"address": "83130, 1215 Chemin des Plantades LA GARDE", "city": "LA GARDE", "country_code": "FR", "brand": "Cultura", "extras": {"brand": "Cultura", "fascia": "Magasin Cultura", "category": "Retail", "edit_date": "20250308", "lat_lon_source": "website"}, "ref": 259, "name": "Cultura Toulon", "phone": "04.83.69.14.00", "latitude": 43.1397, "longitude": 6.02093, "opening_hours": [{"dayofweek": "1", "start_time": "09:00", "end_time": "20:00"}, {"dayofweek": "2", "start_time": "09:00", "end_time": "20:00"}, {"dayofweek": "3", "start_time": "09:00", "end_time": "20:00"}, {"dayofweek": "4", "start_time": "09:00", "end_time": "20:00"}, {"dayofweek": "5", "start_time": "09:00", "end_time": "20:00"}, {"dayofweek": "6", "start_time": "09:00", "end_time": "20:00"}], "postcode": "83130", "website": "https://www.cultura.com/les-magasins.html"},
{"address": "37100, place Copernic TOURS", "city": "TOURS", "country_code": "FR", "brand": "Cultura", "extras": {"brand": "Cultura", "fascia": "Magasin Cultura", "category": "Retail", "edit_date": "20250308", "lat_lon_source": "website"}, "ref": 94, "name": "Cultura Tours", "phone": "02.47.46.48.60", "latitude": 47.4272, "longitude": 0.702546, "opening_hours": [{"dayofweek": "1", "start_time": "09:00", "end_time": "20:00"}, {"dayofweek": "2", "start_time": "09:00", "end_time": "20:00"}, {"dayofweek": "3", "start_time": "09:00", "end_time": "20:00"}, {"dayofweek": "4", "start_time": "09:00", "end_time": "20:00"}, {"dayofweek": "5", "start_time": "09:00", "end_time": "20:00"}, {"dayofweek": "6", "start_time": "09:00", "end_time": "20:00"}], "postcode": "37100", "website": "https://www.cultura.com/les-magasins.html"},
{"address": "44570, CC AUCHAN TRIGNAC", "city": "TRIGNAC", "country_code": "FR", "brand": "Cultura", "extras": {"brand": "Cultura", "fascia": "Magasin Cultura", "category": "Retail", "edit_date": "20250308", "lat_lon_source": "website"}, "ref": 142, "name": "Cultura Trignac", "phone": "02.51.10.53.00", "latitude": 47.2998, "longitude": -2.20733, "opening_hours": [{"dayofweek": "1", "start_time": "09:00", "end_time": "20:00"}, {"dayofweek": "2", "start_time": "09:00", "end_time": "20:00"}, {"dayofweek": "3", "start_time": "09:00", "end_time": "20:00"}, {"dayofweek": "4", "start_time": "09:00", "end_time": "20:00"}, {"dayofweek": "5", "start_time": "09:00", "end_time": "20:00"}, {"dayofweek": "6", "start_time": "09:00", "end_time": "20:00"}], "postcode": "44570", "website": "https://www.cultura.com/les-magasins.html"},
{"address": "10410, 6 rue des Perrières SAINT PARRES AUX TERTRES", "city": "SAINT PARRES AUX TERTRES", "country_code": "FR", "brand": "Cultura", "extras": {"brand": "Cultura", "fascia": "Magasin Cultura", "category": "Retail", "edit_date": "20250308", "lat_lon_source": "website"}, "ref": 127, "name": "Cultura Troyes - St Parres", "phone": "03.25.45.90.20", "latitude": 48.294, "longitude": 4.13338, "opening_hours": [{"dayofweek": "1", "start_time": "09:00", "end_time": "20:00"}, {"dayofweek": "2", "start_time": "09:00", "end_time": "20:00"}, {"dayofweek": "3", "start_time": "09:00", "end_time": "20:00"}, {"dayofweek": "4", "start_time": "09:00", "end_time": "20:00"}, {"dayofweek": "5", "start_time": "09:00", "end_time": "20:00"}, {"dayofweek": "6", "start_time": "09:00", "end_time": "20:00"}], "postcode": "10410", "website": "https://www.cultura.com/les-magasins.html"},
{"address": "26000, ZC le Plateau des Couleures VALENCE", "city": "VALENCE", "country_code": "FR", "brand": "Cultura", "extras": {"brand": "Cultura", "fascia": "Magasin Cultura", "category": "Retail", "edit_date": "20250308", "lat_lon_source": "website"}, "ref": 145, "name": "Cultura Valence", "phone": "04.75.86.17.30", "latitude": 44.9521, "longitude": 4.93329, "opening_hours": [{"dayofweek": "1", "start_time": "09:00", "end_time": "20:00"}, {"dayofweek": "2", "start_time": "09:00", "end_time": "20:00"}, {"dayofweek": "3", "start_time": "09:00", "end_time": "20:00"}, {"dayofweek": "4", "start_time": "09:00", "end_time": "20:00"}, {"dayofweek": "5", "start_time": "09:00", "end_time": "20:00"}, {"dayofweek": "6", "start_time": "09:00", "end_time": "20:00"}], "postcode": "26000", "website": "https://www.cultura.com/les-magasins.html"},
{"address": "60200, ZAC de Jaux de Venette VENETTE", "city": "VENETTE", "country_code": "FR", "brand": "Cultura", "extras": {"brand": "Cultura", "fascia": "Magasin Cultura", "category": "Retail", "edit_date": "20250308", "lat_lon_source": "website"}, "ref": 148, "name": "Cultura Venette", "phone": "03.44.83.80.20", "latitude": 49.4086, "longitude": 2.77949, "opening_hours": [{"dayofweek": "1", "start_time": "09:00", "end_time": "20:00"}, {"dayofweek": "2", "start_time": "09:00", "end_time": "20:00"}, {"dayofweek": "3", "start_time": "09:00", "end_time": "20:00"}, {"dayofweek": "4", "start_time": "09:00", "end_time": "20:00"}, {"dayofweek": "5", "start_time": "09:00", "end_time": "20:00"}, {"dayofweek": "6", "start_time": "09:00", "end_time": "20:00"}], "postcode": "60200", "website": "https://www.cultura.com/les-magasins.html"},
{"address": "74100, 6 rue de Montréal VILLE-LA-GRAND", "city": "VILLE-LA-GRAND", "country_code": "FR", "brand": "Cultura", "extras": {"brand": "Cultura", "fascia": "Magasin Cultura", "category": "Retail", "edit_date": "20250308", "lat_lon_source": "website"}, "ref": 190, "name": "Cultura Ville-la-Grand", "phone": "04.50.84.58.16", "latitude": 46.2027, "longitude": 6.27811, "opening_hours": [{"dayofweek": "1", "start_time": "09:00", "end_time": "20:00"}, {"dayofweek": "2", "start_time": "09:00", "end_time": "20:00"}, {"dayofweek": "3", "start_time": "09:00", "end_time": "20:00"}, {"dayofweek": "4", "start_time": "09:00", "end_time": "20:00"}, {"dayofweek": "5", "start_time": "09:00", "end_time": "20:00"}, {"dayofweek": "6", "start_time": "09:00", "end_time": "20:00"}], "postcode": "74100", "website": "https://www.cultura.com/les-magasins.html"},
{"address": "69400, 1820 route de Frans VILLEFRANCHE SUR SAÔNE", "city": "VILLEFRANCHE SUR SAÔNE", "country_code": "FR", "brand": "Cultura", "extras": {"brand": "Cultura", "fascia": "Magasin Cultura", "category": "Retail", "edit_date": "20250308", "lat_lon_source": "website"}, "ref": 181, "name": "Cultura Villefranche", "phone": "04.37.55.21.36", "latitude": 45.9842, "longitude": 4.745, "opening_hours": [{"dayofweek": "1", "start_time": "09:00", "end_time": "20:00"}, {"dayofweek": "2", "start_time": "09:00", "end_time": "20:00"}, {"dayofweek": "3", "start_time": "09:00", "end_time": "20:00"}, {"dayofweek": "4", "start_time": "09:00", "end_time": "20:00"}, {"dayofweek": "5", "start_time": "09:00", "end_time": "20:00"}, {"dayofweek": "6", "start_time": "09:00", "end_time": "20:00"}], "postcode": "69400", "website": "https://www.cultura.com/les-magasins.html"},
{"address": "59260, CC Héron Parc LEZENNES", "city": "LEZENNES", "country_code": "FR", "brand": "Cultura", "extras": {"brand": "Cultura", "fascia": "Magasin Cultura", "category": "Retail", "edit_date": "20250308", "lat_lon_source": "website"}, "ref": 154, "name": "Cultura Villeneuve D'Ascq", "phone": "03.20.67.65.90", "latitude": 50.6158, "longitude": 3.12288, "opening_hours": [{"dayofweek": "1", "start_time": "09:00", "end_time": "20:00"}, {"dayofweek": "2", "start_time": "09:00", "end_time": "20:00"}, {"dayofweek": "3", "start_time": "09:00", "end_time": "20:00"}, {"dayofweek": "4", "start_time": "09:00", "end_time": "20:00"}, {"dayofweek": "5", "start_time": "09:00", "end_time": "20:00"}, {"dayofweek": "6", "start_time": "09:00", "end_time": "20:00"}], "postcode": "59260", "website": "https://www.cultura.com/les-magasins.html"},
{"address": "78670, Centre Commercial White Park VILLENNES SUR SEINE / ORGEVAL", "city": "VILLENNES SUR SEINE / ORGEVAL", "country_code": "FR", "brand": "Cultura", "extras": {"brand": "Cultura", "fascia": "Magasin Cultura", "category": "Retail", "edit_date": "20250308", "lat_lon_source": "website"}, "ref": 187, "name": "Cultura Villennes Sur Seine / Orgeval", "phone": "01.34.01.14.00", "latitude": 48.9285, "longitude": 1.986, "opening_hours": [{"dayofweek": "0", "start_time": "10:00", "end_time": "19:00"}, {"dayofweek": "1", "start_time": "09:00", "end_time": "20:00"}, {"dayofweek": "2", "start_time": "09:00", "end_time": "20:00"}, {"dayofweek": "3", "start_time": "09:00", "end_time": "20:00"}, {"dayofweek": "4", "start_time": "09:00", "end_time": "20:00"}, {"dayofweek": "5", "start_time": "09:00", "end_time": "20:00"}, {"dayofweek": "6", "start_time": "09:00", "end_time": "20:00"}], "postcode": "78670", "website": "https://www.cultura.com/les-magasins.html"},
{"address": "68270, Rue des mines WITTENHEIM", "city": "WITTENHEIM", "country_code": "FR", "brand": "Cultura", "extras": {"brand": "Cultura", "fascia": "Magasin Cultura", "category": "Retail", "edit_date": "20250308", "lat_lon_source": "website"}, "ref": 226, "name": "Cultura Wittenheim", "phone": "03.89.31.83.60", "latitude": 47.7965, "longitude": 7.30658, "opening_hours": [{"dayofweek": "1", "start_time": "09:00", "end_time": "20:00"}, {"dayofweek": "2", "start_time": "09:00", "end_time": "20:00"}, {"dayofweek": "3", "start_time": "09:00", "end_time": "20:00"}, {"dayofweek": "4", "start_time": "09:00", "end_time": "20:00"}, {"dayofweek": "5", "start_time": "09:00", "end_time": "20:00"}, {"dayofweek": "6", "start_time": "09:00", "end_time": "20:00"}], "postcode": "68270", "website": "https://www.cultura.com/les-magasins.html"}
]