addr_full,brand,city,country,extras,lat,lon,name,opening_hours,phone,postcode,ref,state,website
Supermarket | Αμύρου 8,Sklavenitis,Αγιά,Greece,"{'brand': 'sklavenitis', 'fascia': 'sklavenitis', 'category': 'Retail', 'edit_date': '2025-05-10', 'lat_lon_source': 'Website'}",39.7191,22.75468,Sklavenitis Αγιά,"{'opening_hours': {'Mon': '08:00-21:00', 'Tue': '08:00-21:00', 'Wed': '08:00-21:00', 'Thu': '08:00-21:00', 'Fri': '08:00-21:00', 'Sat': '08:00-20:00', 'Sun': 'Closed'}}",249 402 3799,400 03,1004,Λάρισας,https://www.sklavenitis.gr/about/katastimata
Supermarket +  |  Ιερά Οδός 339 & Ελ. Βενιζέλου,Sklavenitis,Αγία Βαρβάρα,Greece,"{'brand': 'sklavenitis', 'fascia': 'sklavenitis', 'category': 'Retail', 'edit_date': '2025-05-10', 'lat_lon_source': 'Website'}",37.99817,23.66491,Sklavenitis Αγία Βαρβάρα,"{'opening_hours': {'Mon': '08:00-21:00', 'Tue': '08:00-21:00', 'Wed': '08:00-21:00', 'Thu': '08:00-21:00', 'Fri': '08:00-21:00', 'Sat': '08:00-20:00', 'Sun': 'Closed'}}","210 569 6519, ",123 51,611,Αττικής,https://www.sklavenitis.gr/about/katastimata
"Supermarket  |  Κερκύρας 30, Θεμιστοκλέους &  Κνωσσού",Sklavenitis,Αγία Βαρβάρα,Greece,"{'brand': 'sklavenitis', 'fascia': 'sklavenitis', 'category': 'Retail', 'edit_date': '2025-05-10', 'lat_lon_source': 'Website'}",37.98777,23.6523,Sklavenitis Αγία Βαρβάρα,"{'opening_hours': {'Mon': '08:00-21:00', 'Tue': '08:00-21:00', 'Wed': '08:00-21:00', 'Thu': '08:00-21:00', 'Fri': '08:00-21:00', 'Sat': '08:00-20:00', 'Sun': 'Closed'}}",210 562 5355,123 51,910,Αττικής,https://www.sklavenitis.gr/about/katastimata
Freshmarket  |  Μπουμπουλίνας 27,Sklavenitis,Αγία Παρασκευή,Greece,"{'brand': 'sklavenitis', 'fascia': 'sklavenitis', 'category': 'Retail', 'edit_date': '2025-05-10', 'lat_lon_source': 'Website'}",38.00278,23.81379,Sklavenitis Αγία Παρασκευή,"{'opening_hours': {'Mon': '08:00-21:00', 'Tue': '08:00-21:00', 'Wed': '08:00-21:00', 'Thu': '08:00-21:00', 'Fri': '08:00-21:00', 'Sat': '08:00-20:00', 'Sun': 'Closed'}}",210 654 1123,153 41,930,Αττικής,https://www.sklavenitis.gr/about/katastimata
Supermarket  |  Ηπείρου 4,Sklavenitis,Αγία Παρασκευή,Greece,"{'brand': 'sklavenitis', 'fascia': 'sklavenitis', 'category': 'Retail', 'edit_date': '2025-05-10', 'lat_lon_source': 'Website'}",38.01065,23.81183,Sklavenitis Αγία Παρασκευή,"{'opening_hours': {'Mon': '08:00-21:00', 'Tue': '08:00-21:00', 'Wed': '08:00-21:00', 'Thu': '08:00-21:00', 'Fri': '08:00-21:00', 'Sat': '08:00-20:00', 'Sun': 'Closed'}}",210 653 8011,153 41,622,Αττικής,https://www.sklavenitis.gr/about/katastimata
Supermarket  |  Αγίου Ιωάννου 23,Sklavenitis,Αγία Παρασκευή,Greece,"{'brand': 'sklavenitis', 'fascia': 'sklavenitis', 'category': 'Retail', 'edit_date': '2025-05-10', 'lat_lon_source': 'Website'}",38.01093,23.82357,Sklavenitis Αγία Παρασκευή,"{'opening_hours': {'Mon': '08:00-21:00', 'Tue': '08:00-21:00', 'Wed': '08:00-21:00', 'Thu': '08:00-21:00', 'Fri': '08:00-21:00', 'Sat': '08:00-20:00', 'Sun': 'Closed'}}","210 639 1092, ",153 42,703,Αττικής,https://www.sklavenitis.gr/about/katastimata
"Supermarket  |  Δ. Γούναρη 10-12, Λακωνίας & Γορτυνίας 4",Sklavenitis,Άγιος Αντώνιος,Greece,"{'brand': 'sklavenitis', 'fascia': 'sklavenitis', 'category': 'Retail', 'edit_date': '2025-05-10', 'lat_lon_source': 'Website'}",38.00651,23.69701,Sklavenitis Άγιος Αντώνιος,"{'opening_hours': {'Mon': '08:00-21:00', 'Tue': '08:00-21:00', 'Wed': '08:00-21:00', 'Thu': '08:00-21:00', 'Fri': '08:00-21:00', 'Sat': '08:00-20:00', 'Sun': 'Closed'}}",210 571 0055,121 31,868,Αττικής,https://www.sklavenitis.gr/about/katastimata
Supermarket +  |  Λεωφ. Βουλιαγμένης 268,Sklavenitis,Άγιος Δημήτριος,Greece,"{'brand': 'sklavenitis', 'fascia': 'sklavenitis', 'category': 'Retail', 'edit_date': '2025-05-10', 'lat_lon_source': 'Website'}",37.94153,23.74018,Sklavenitis Άγιος Δημήτριος,"{'opening_hours': {'Mon': '08:00-21:00', 'Tue': '08:00-21:00', 'Wed': '08:00-21:00', 'Thu': '08:00-21:00', 'Fri': '08:00-21:00', 'Sat': '08:00-20:00', 'Sun': 'Closed'}}","210 975 0030, ",173 43,872,Αττικής,https://www.sklavenitis.gr/about/katastimata
Supermarket  |  Λεωφ. Αγ. Δημητρίου 298,Sklavenitis,Άγιος Δημήτριος,Greece,"{'brand': 'sklavenitis', 'fascia': 'sklavenitis', 'category': 'Retail', 'edit_date': '2025-05-10', 'lat_lon_source': 'Website'}",37.92347,23.72343,Sklavenitis Άγιος Δημήτριος,"{'opening_hours': {'Mon': '08:00-21:00', 'Tue': '08:00-21:00', 'Wed': '08:00-21:00', 'Thu': '08:00-21:00', 'Fri': '08:00-21:00', 'Sat': '08:00-20:00', 'Sun': 'Closed'}}","210 988 8939, ",173 42,874,Αττικής,https://www.sklavenitis.gr/about/katastimata
Supermarket  |  Λεωφ. Αγ. Δημητρίου 161,Sklavenitis,Άγιος Δημήτριος,Greece,"{'brand': 'sklavenitis', 'fascia': 'sklavenitis', 'category': 'Retail', 'edit_date': '2025-05-10', 'lat_lon_source': 'Website'}",37.93621,23.72976,Sklavenitis Άγιος Δημήτριος,"{'opening_hours': {'Mon': '08:00-21:00', 'Tue': '08:00-21:00', 'Wed': '08:00-21:00', 'Thu': '08:00-21:00', 'Fri': '08:00-21:00', 'Sat': '08:00-20:00', 'Sun': 'Closed'}}",210 976 7280,173 43,875,Αττικής,https://www.sklavenitis.gr/about/katastimata
Supermarket  |  Λιδωρικίου 3,Sklavenitis,Άγιος Δημήτριος,Greece,"{'brand': 'sklavenitis', 'fascia': 'sklavenitis', 'category': 'Retail', 'edit_date': '2025-05-10', 'lat_lon_source': 'Website'}",37.93,23.73444,Sklavenitis Άγιος Δημήτριος,"{'opening_hours': {'Mon': '08:00-21:00', 'Tue': '08:00-21:00', 'Wed': '08:00-21:00', 'Thu': '08:00-21:00', 'Fri': '08:00-21:00', 'Sat': '08:00-20:00', 'Sun': 'Closed'}}",210 996 1458,173 42,908,Αττικής,https://www.sklavenitis.gr/about/katastimata
Freshmarket  |  Σουλίου 30-32,Sklavenitis,Άγιος Δημήτριος,Greece,"{'brand': 'sklavenitis', 'fascia': 'sklavenitis', 'category': 'Retail', 'edit_date': '2025-05-10', 'lat_lon_source': 'Website'}",37.93191,23.74147,Sklavenitis Άγιος Δημήτριος,"{'opening_hours': {'Mon': '08:00-21:00', 'Tue': '08:00-21:00', 'Wed': '08:00-21:00', 'Thu': '08:00-21:00', 'Fri': '08:00-21:00', 'Sat': '08:00-20:00', 'Sun': 'Closed'}}",210 994 4589,173 42,972,Αττικής,https://www.sklavenitis.gr/about/katastimata
Supermarket  |  Αγίου Δημητρίου 49,Sklavenitis,Άγιος Δημήτριος,Greece,"{'brand': 'sklavenitis', 'fascia': 'sklavenitis', 'category': 'Retail', 'edit_date': '2025-05-10', 'lat_lon_source': 'Website'}",37.94552,23.7343,Sklavenitis Άγιος Δημήτριος,"{'opening_hours': {'Mon': '08:00-21:00', 'Tue': '08:00-21:00', 'Wed': '08:00-21:00', 'Thu': '08:00-21:00', 'Fri': '08:00-21:00', 'Sat': '08:00-20:00', 'Sun': 'Closed'}}","210 971 4946, ",173 43,694,Αττικής,https://www.sklavenitis.gr/about/katastimata
Hypermarket  |  Λεωφ. Π. Ράλλη 97,Sklavenitis,Άγιος Ιωάννης Ρέντης,Greece,"{'brand': 'sklavenitis', 'fascia': 'sklavenitis', 'category': 'Retail', 'edit_date': '2025-05-10', 'lat_lon_source': 'Website'}",37.97616,23.67307,Sklavenitis Άγιος Ιωάννης Ρέντης,"{'opening_hours': {'Mon': '08:00-21:00', 'Tue': '08:00-21:00', 'Wed': '08:00-21:00', 'Thu': '08:00-21:00', 'Fri': '08:00-21:00', 'Sat': '08:00-20:00', 'Sun': 'Closed'}}",210 540 2100,182 33,563,Αττικής,https://www.sklavenitis.gr/about/katastimata
Supermarket  |  Μ. Μερκούρη & Βερενίκης,Sklavenitis,Άγιος Νικόλαος,Greece,"{'brand': 'sklavenitis', 'fascia': 'sklavenitis', 'category': 'Retail', 'edit_date': '2025-05-10', 'lat_lon_source': 'Website'}",35.1979,25.70903,Sklavenitis Άγιος Νικόλαος,"{'opening_hours': {'Mon': '08:00-21:00', 'Tue': '08:00-21:00', 'Wed': '08:00-21:00', 'Thu': '08:00-21:00', 'Fri': '08:00-21:00', 'Sat': '08:00-20:00', 'Sun': 'Closed'}}","284 102 6390, ",721 00,778,Λασιθίου,https://www.sklavenitis.gr/about/katastimata
Supermarket +  |  Λεωφ. Κρυονερίου & Ελ. Βενιζέλου,Sklavenitis,Άγιος Στέφανος,Greece,"{'brand': 'sklavenitis', 'fascia': 'sklavenitis', 'category': 'Retail', 'edit_date': '2025-05-10', 'lat_lon_source': 'Website'}",38.13945,23.85169,Sklavenitis Άγιος Στέφανος,"{'opening_hours': {'Mon': '08:00-21:00', 'Tue': '08:00-21:00', 'Wed': '08:00-21:00', 'Thu': '08:00-21:00', 'Fri': '08:00-21:00', 'Sat': '08:00-20:00', 'Sun': 'Closed'}}","210 814 4407, ",145 65,576,Αττικής,https://www.sklavenitis.gr/about/katastimata
Supermarket  |  Καλυβίων 64 & Δροσίνη,Sklavenitis,Αγρίνιο,Greece,"{'brand': 'sklavenitis', 'fascia': 'sklavenitis', 'category': 'Retail', 'edit_date': '2025-05-10', 'lat_lon_source': 'Website'}",38.62324,21.40103,Sklavenitis Αγρίνιο,"{'opening_hours': {'Mon': '08:00-21:00', 'Tue': '08:00-21:00', 'Wed': '08:00-21:00', 'Thu': '08:00-21:00', 'Fri': '08:00-21:00', 'Sat': '08:00-20:00', 'Sun': 'Closed'}}",264 104 7477,301 00,943,Αιτωλοακαρνανίας,https://www.sklavenitis.gr/about/katastimata
Freshmarket  |  Παπαστράτου 79-81,Sklavenitis,Αγρίνιο,Greece,"{'brand': 'sklavenitis', 'fascia': 'sklavenitis', 'category': 'Retail', 'edit_date': '2025-05-10', 'lat_lon_source': 'Website'}",38.63051,21.40871,Sklavenitis Αγρίνιο,"{'opening_hours': {'Mon': '08:00-21:00', 'Tue': '08:00-21:00', 'Wed': '08:00-21:00', 'Thu': '08:00-21:00', 'Fri': '08:00-21:00', 'Sat': '08:00-20:00', 'Sun': 'Closed'}}",264 105 8550,301 00,960,Αιτωλοακαρνανίας,https://www.sklavenitis.gr/about/katastimata
Freshmarket  |  Αγίου Γεωργίου & Καλυδώνος 1,Sklavenitis,Αγρίνιο,Greece,"{'brand': 'sklavenitis', 'fascia': 'sklavenitis', 'category': 'Retail', 'edit_date': '2025-05-10', 'lat_lon_source': 'Website'}",38.61881,21.41105,Sklavenitis Αγρίνιο,"{'opening_hours': {'Mon': '08:00-21:00', 'Tue': '08:00-21:00', 'Wed': '08:00-21:00', 'Thu': '08:00-21:00', 'Fri': '08:00-21:00', 'Sat': '08:00-20:00', 'Sun': 'Closed'}}",264 104 8920,30100,971,Αιτωλοακαρνανίας,https://www.sklavenitis.gr/about/katastimata
Supermarket  |  Εθνικής Αντιστάσεως 63Α,Sklavenitis,Αγρίνιο,Greece,"{'brand': 'sklavenitis', 'fascia': 'sklavenitis', 'category': 'Retail', 'edit_date': '2025-05-10', 'lat_lon_source': 'Website'}",38.62224,21.41899,Sklavenitis Αγρίνιο,"{'opening_hours': {'Mon': '08:00-21:00', 'Tue': '08:00-21:00', 'Wed': '08:00-21:00', 'Thu': '08:00-21:00', 'Fri': '08:00-21:00', 'Sat': '08:00-20:00', 'Sun': 'Closed'}}","264 103 0980, ",301 00,653,Αιτωλοακαρνανίας,https://www.sklavenitis.gr/about/katastimata
Supermarket  |  Ελ. Βενιζέλου & Κέννεντυ,Sklavenitis,Αγρίνιο,Greece,"{'brand': 'sklavenitis', 'fascia': 'sklavenitis', 'category': 'Retail', 'edit_date': '2025-05-10', 'lat_lon_source': 'Website'}",38.63338,21.4031,Sklavenitis Αγρίνιο,"{'opening_hours': {'Mon': '08:00-21:00', 'Tue': '08:00-21:00', 'Wed': '08:00-21:00', 'Thu': '08:00-21:00', 'Fri': '08:00-21:00', 'Sat': '08:00-20:00', 'Sun': 'Closed'}}","264 103 0970, ",300 27,654,Αιτωλοακαρνανίας,https://www.sklavenitis.gr/about/katastimata
Supermarket  |  Μιχαήλ Βόδα 67 & Εϋνάρδου,Sklavenitis,Αθήνα,Greece,"{'brand': 'sklavenitis', 'fascia': 'sklavenitis', 'category': 'Retail', 'edit_date': '2025-05-10', 'lat_lon_source': 'Website'}",37.99463,23.72532,Sklavenitis Αθήνα,"{'opening_hours': {'Mon': '08:00-21:00', 'Tue': '08:00-21:00', 'Wed': '08:00-21:00', 'Thu': '08:00-21:00', 'Fri': '08:00-21:00', 'Sat': '08:00-20:00', 'Sun': 'Closed'}}",210 883 3273,104 40,909,Αττικής,https://www.sklavenitis.gr/about/katastimata
Supermarket  |  Ιουλιανού 33-35 & Γ' Σεπτεμβρίου 74-78,Sklavenitis,Αθήνα,Greece,"{'brand': 'sklavenitis', 'fascia': 'sklavenitis', 'category': 'Retail', 'edit_date': '2025-05-10', 'lat_lon_source': 'Website'}",37.99129,23.72935,Sklavenitis Αθήνα,"{'opening_hours': {'Mon': '08:00-21:00', 'Tue': '08:00-21:00', 'Wed': '08:00-21:00', 'Thu': '08:00-21:00', 'Fri': '08:00-21:00', 'Sat': '08:00-20:00', 'Sun': 'Closed'}}","210 882 4513, ",104 33,706,Αττικής,https://www.sklavenitis.gr/about/katastimata
Hypermarket  |  Λεωφ. Αθηνών 93-97,Sklavenitis,Αθήνα,Greece,"{'brand': 'sklavenitis', 'fascia': 'sklavenitis', 'category': 'Retail', 'edit_date': '2025-05-10', 'lat_lon_source': 'Website'}",37.99084,23.70229,Sklavenitis Αθήνα,"{'opening_hours': {'Mon': '08:00-21:00', 'Tue': '08:00-21:00', 'Wed': '08:00-21:00', 'Thu': '08:00-21:00', 'Fri': '08:00-21:00', 'Sat': '08:00-20:00', 'Sun': 'Closed'}}",210 348 8800,104 47,565,Αττικής,https://www.sklavenitis.gr/about/katastimata
Supermarket +  |  Φιλαδελφείας 8 & Σάμου,Sklavenitis,Αθήνα,Greece,"{'brand': 'sklavenitis', 'fascia': 'sklavenitis', 'category': 'Retail', 'edit_date': '2025-05-10', 'lat_lon_source': 'Website'}",37.99237,23.72218,Sklavenitis Αθήνα,"{'opening_hours': {'Mon': '08:00-21:00', 'Tue': '08:00-21:00', 'Wed': '08:00-21:00', 'Thu': '08:00-21:00', 'Fri': '08:00-21:00', 'Sat': '08:00-20:00', 'Sun': 'Closed'}}","210 825 9960, ",104 40,581,Αττικής,https://www.sklavenitis.gr/about/katastimata
Self-service  |  Αθηνάς 62,Sklavenitis,Αθήνα,Greece,"{'brand': 'sklavenitis', 'fascia': 'sklavenitis', 'category': 'Retail', 'edit_date': '2025-05-10', 'lat_lon_source': 'Website'}",37.98319,23.72778,Sklavenitis Αθήνα,"{'opening_hours': {'Mon': '08:00-21:00', 'Tue': '08:00-21:00', 'Wed': '08:00-21:00', 'Thu': '08:00-21:00', 'Fri': '08:00-21:00', 'Sat': '08:00-20:00', 'Sun': 'Closed'}}",210 324 8024,105 51,589,Αττικής,https://www.sklavenitis.gr/about/katastimata
Freshmarket  |  Κολοφώνος 4,Sklavenitis,Αθήνα,Greece,"{'brand': 'sklavenitis', 'fascia': 'sklavenitis', 'category': 'Retail', 'edit_date': '2025-05-10', 'lat_lon_source': 'Website'}",38.00137,23.72741,Sklavenitis Αθήνα,"{'opening_hours': {'Mon': '08:00-21:00', 'Tue': '08:00-21:00', 'Wed': '08:00-21:00', 'Thu': '08:00-21:00', 'Fri': '08:00-21:00', 'Sat': '08:00-20:00', 'Sun': 'Closed'}}",210 866 3575,104 46,946,Αττικής,https://www.sklavenitis.gr/about/katastimata
Supermarket  |  Αχαρνών 300,Sklavenitis,Αθήνα,Greece,"{'brand': 'sklavenitis', 'fascia': 'sklavenitis', 'category': 'Retail', 'edit_date': '2025-05-10', 'lat_lon_source': 'Website'}",38.00959,23.72954,Sklavenitis Αθήνα,"{'opening_hours': {'Mon': '08:00-21:00', 'Tue': '08:00-21:00', 'Wed': '08:00-21:00', 'Thu': '08:00-21:00', 'Fri': '08:00-21:00', 'Sat': '08:00-20:00', 'Sun': 'Closed'}}","210 867 9224, ",112 54,693,Αττικής,https://www.sklavenitis.gr/about/katastimata
Supermarket  |  Κανάρη 9,Sklavenitis,Αθήνα,Greece,"{'brand': 'sklavenitis', 'fascia': 'sklavenitis', 'category': 'Retail', 'edit_date': '2025-05-10', 'lat_lon_source': 'Website'}",37.97717,23.73858,Sklavenitis Αθήνα,"{'opening_hours': {'Mon': '08:00-21:00', 'Tue': '08:00-21:00', 'Wed': '08:00-21:00', 'Thu': '08:00-21:00', 'Fri': '08:00-21:00', 'Sat': '08:00-20:00', 'Sun': 'Closed'}}","210 362 4907, ",106 71,587,Αττικής,https://www.sklavenitis.gr/about/katastimata
Supermarket  |  Ι. Δροσοπούλου 155,Sklavenitis,Αθήνα,Greece,"{'brand': 'sklavenitis', 'fascia': 'sklavenitis', 'category': 'Retail', 'edit_date': '2025-05-10', 'lat_lon_source': 'Website'}",38.00771,23.73604,Sklavenitis Αθήνα,"{'opening_hours': {'Mon': '08:00-21:00', 'Tue': '08:00-21:00', 'Wed': '08:00-21:00', 'Thu': '08:00-21:00', 'Fri': '08:00-21:00', 'Sat': '08:00-20:00', 'Sun': 'Closed'}}",210 862 9434,112 56,593,Αττικής,https://www.sklavenitis.gr/about/katastimata
Self-service  |  Ασκληπιού 28,Sklavenitis,Αθήνα,Greece,"{'brand': 'sklavenitis', 'fascia': 'sklavenitis', 'category': 'Retail', 'edit_date': '2025-05-10', 'lat_lon_source': 'Website'}",37.98302,23.73721,Sklavenitis Αθήνα,"{'opening_hours': {'Mon': '08:00-21:00', 'Tue': '08:00-21:00', 'Wed': '08:00-21:00', 'Thu': '08:00-21:00', 'Fri': '08:00-21:00', 'Sat': '08:00-20:00', 'Sun': 'Closed'}}",210 362 8681,106 80,629,Αττικής,https://www.sklavenitis.gr/about/katastimata
Freshmarket  |  Πατησίων 295,Sklavenitis,Αθήνα,Greece,"{'brand': 'sklavenitis', 'fascia': 'sklavenitis', 'category': 'Retail', 'edit_date': '2025-05-10', 'lat_lon_source': 'Website'}",38.0149,23.73534,Sklavenitis Αθήνα,"{'opening_hours': {'Mon': '08:00-21:00', 'Tue': '08:00-21:00', 'Wed': '08:00-21:00', 'Thu': '08:00-21:00', 'Fri': '08:00-21:00', 'Sat': '08:00-20:00', 'Sun': 'Closed'}}",210 228 5756,111 44,667,Αττικής,https://www.sklavenitis.gr/about/katastimata
Self-service  |  Μυριοφύτου 55 & Κουντουριώτου 40,Sklavenitis,Αιγάλεω,Greece,"{'brand': 'sklavenitis', 'fascia': 'sklavenitis', 'category': 'Retail', 'edit_date': '2025-05-10', 'lat_lon_source': 'Website'}",37.99501,23.68546,Sklavenitis Αιγάλεω,"{'opening_hours': {'Mon': '08:00-21:00', 'Tue': '08:00-21:00', 'Wed': '08:00-21:00', 'Thu': '08:00-21:00', 'Fri': '08:00-21:00', 'Sat': '08:00-20:00', 'Sun': 'Closed'}}",210 531 5544,122 42,964,Αττικής,https://www.sklavenitis.gr/about/katastimata
Supermarket +  |  Θηβών 310 & Θεσσαλονίκης,Sklavenitis,Αιγάλεω,Greece,"{'brand': 'sklavenitis', 'fascia': 'sklavenitis', 'category': 'Retail', 'edit_date': '2025-05-10', 'lat_lon_source': 'Website'}",37.98679,23.67505,Sklavenitis Αιγάλεω,"{'opening_hours': {'Mon': '08:00-21:00', 'Tue': '08:00-21:00', 'Wed': '08:00-21:00', 'Thu': '08:00-21:00', 'Fri': '08:00-21:00', 'Sat': '08:00-20:00', 'Sun': 'Closed'}}","210 569 8303, ",122 41,840,Αττικής,https://www.sklavenitis.gr/about/katastimata
Freshmarket  |  Ιερά Οδός 240,Sklavenitis,Αιγάλεω,Greece,"{'brand': 'sklavenitis', 'fascia': 'sklavenitis', 'category': 'Retail', 'edit_date': '2025-05-10', 'lat_lon_source': 'Website'}",37.99162,23.68128,Sklavenitis Αιγάλεω,"{'opening_hours': {'Mon': '08:00-21:00', 'Tue': '08:00-21:00', 'Wed': '08:00-21:00', 'Thu': '08:00-21:00', 'Fri': '08:00-21:00', 'Sat': '08:00-20:00', 'Sun': 'Closed'}}","210 531 4594, ",122 42,595,Αττικής,https://www.sklavenitis.gr/about/katastimata
Supermarket  |  Κανελλοπούλου 51,Sklavenitis,Αίγιο,Greece,"{'brand': 'sklavenitis', 'fascia': 'sklavenitis', 'category': 'Retail', 'edit_date': '2025-05-10', 'lat_lon_source': 'Website'}",38.24788,22.0913,Sklavenitis Αίγιο,"{'opening_hours': {'Mon': '08:00-21:00', 'Tue': '08:00-21:00', 'Wed': '08:00-21:00', 'Thu': '08:00-21:00', 'Fri': '08:00-21:00', 'Sat': '08:00-20:00', 'Sun': 'Closed'}}",269 102 6650,251 00,942,Αχαΐας,https://www.sklavenitis.gr/about/katastimata
Supermarket +  |  Λεωφ. Κορίνθου 69 & Αρκαδίου,Sklavenitis,Αίγιο,Greece,"{'brand': 'sklavenitis', 'fascia': 'sklavenitis', 'category': 'Retail', 'edit_date': '2025-05-10', 'lat_lon_source': 'Website'}",38.24184,22.09377,Sklavenitis Αίγιο,"{'opening_hours': {'Mon': '08:00-21:00', 'Tue': '08:00-21:00', 'Wed': '08:00-21:00', 'Thu': '08:00-21:00', 'Fri': '08:00-21:00', 'Sat': '08:00-20:00', 'Sun': 'Closed'}}",269 106 8630,251 00,739,Αχαΐας,https://www.sklavenitis.gr/about/katastimata
Freshmarket  |  Α. Λόντου 41,Sklavenitis,Αίγιο,Greece,"{'brand': 'sklavenitis', 'fascia': 'sklavenitis', 'category': 'Retail', 'edit_date': '2025-05-10', 'lat_lon_source': 'Website'}",38.24894,22.08806,Sklavenitis Αίγιο,"{'opening_hours': {'Mon': '08:00-21:00', 'Tue': '08:00-21:00', 'Wed': '08:00-21:00', 'Thu': '08:00-21:00', 'Fri': '08:00-21:00', 'Sat': '08:00-20:00', 'Sun': 'Closed'}}",269 106 0431,251 00,655,Αχαΐας,https://www.sklavenitis.gr/about/katastimata
Supermarket  |  Πλαστήρα 57,Sklavenitis,Αλεξάνδρεια,Greece,"{'brand': 'sklavenitis', 'fascia': 'sklavenitis', 'category': 'Retail', 'edit_date': '2025-05-10', 'lat_lon_source': 'Website'}",40.62496,22.44281,Sklavenitis Αλεξάνδρεια,"{'opening_hours': {'Mon': '08:00-21:00', 'Tue': '08:00-21:00', 'Wed': '08:00-21:00', 'Thu': '08:00-21:00', 'Fri': '08:00-21:00', 'Sat': '08:00-20:00', 'Sun': 'Closed'}}","233 302 3404, ",593 00,780,Ημαθίας,https://www.sklavenitis.gr/about/katastimata
Supermarket  |  Λεωφ. Χ. Γιαννούτσου,Sklavenitis,Αλεξανδρούπολη,Greece,"{'brand': 'sklavenitis', 'fascia': 'sklavenitis', 'category': 'Retail', 'edit_date': '2025-05-10', 'lat_lon_source': 'Website'}",40.86245,25.87633,Sklavenitis Αλεξανδρούπολη,"{'opening_hours': {'Mon': '08:00-21:00', 'Tue': '08:00-21:00', 'Wed': '08:00-21:00', 'Thu': '08:00-21:00', 'Fri': '08:00-21:00', 'Sat': '08:00-20:00', 'Sun': 'Closed'}}","255 102 5980, ",681 00,793,Έβρου,https://www.sklavenitis.gr/about/katastimata
Hypermarket  |  4ο χλμ. Αλεξανδρούπολης–Κήπων (περιοχή Μαΐστρος),Sklavenitis,Αλεξανδρούπολη,Greece,"{'brand': 'sklavenitis', 'fascia': 'sklavenitis', 'category': 'Retail', 'edit_date': '2025-05-10', 'lat_lon_source': 'Website'}",40.85635,25.92398,Sklavenitis Αλεξανδρούπολη,"{'opening_hours': {'Mon': '08:00-21:00', 'Tue': '08:00-21:00', 'Wed': '08:00-21:00', 'Thu': '08:00-21:00', 'Fri': '08:00-21:00', 'Sat': '08:00-20:00', 'Sun': 'Closed'}}",255 104 5590,681 00,585,Έβρου,https://www.sklavenitis.gr/about/katastimata
Supermarket  |  Λεωφ. Δημοκρατίας & Εμπορίου,Sklavenitis,Αλεξανδρούπολη,Greece,"{'brand': 'sklavenitis', 'fascia': 'sklavenitis', 'category': 'Retail', 'edit_date': '2025-05-10', 'lat_lon_source': 'Website'}",40.84803,25.88693,Sklavenitis Αλεξανδρούπολη,"{'opening_hours': {'Mon': '08:00-21:00', 'Tue': '08:00-21:00', 'Wed': '08:00-21:00', 'Thu': '08:00-21:00', 'Fri': '08:00-21:00', 'Sat': '08:00-20:00', 'Sun': 'Closed'}}",255 108 1922,681 00,656,Έβρου,https://www.sklavenitis.gr/about/katastimata
"Supermarket  |  Ε.Ο. Αλιβερίου–Λεπούρων, Ο.Τ. 253",Sklavenitis,Αλιβέρι,Greece,"{'brand': 'sklavenitis', 'fascia': 'sklavenitis', 'category': 'Retail', 'edit_date': '2025-05-10', 'lat_lon_source': 'Website'}",38.40158,24.04422,Sklavenitis Αλιβέρι,"{'opening_hours': {'Mon': '08:00-21:00', 'Tue': '08:00-21:00', 'Wed': '08:00-21:00', 'Thu': '08:00-21:00', 'Fri': '08:00-21:00', 'Sat': '08:00-20:00', 'Sun': 'Closed'}}",222 302 5282,345 00,669,Ευβοίας,https://www.sklavenitis.gr/about/katastimata
Self-service  |  Ιωνίας 68,Sklavenitis,Άλιμος,Greece,"{'brand': 'sklavenitis', 'fascia': 'sklavenitis', 'category': 'Retail', 'edit_date': '2025-05-10', 'lat_lon_source': 'Website'}",37.92324,23.73935,Sklavenitis Άλιμος,"{'opening_hours': {'Mon': '08:00-21:00', 'Tue': '08:00-21:00', 'Wed': '08:00-21:00', 'Thu': '08:00-21:00', 'Fri': '08:00-21:00', 'Sat': '08:00-20:00', 'Sun': 'Closed'}}",210 994 3540,174 56,955,Αττικής,https://www.sklavenitis.gr/about/katastimata
Supermarket  |  Θεομήτορος 53,Sklavenitis,Άλιμος,Greece,"{'brand': 'sklavenitis', 'fascia': 'sklavenitis', 'category': 'Retail', 'edit_date': '2025-05-10', 'lat_lon_source': 'Website'}",37.91921,23.72568,Sklavenitis Άλιμος,"{'opening_hours': {'Mon': '08:00-21:00', 'Tue': '08:00-21:00', 'Wed': '08:00-21:00', 'Thu': '08:00-21:00', 'Fri': '08:00-21:00', 'Sat': '08:00-20:00', 'Sun': 'Closed'}}","210 985 4525, ",174 55,752,Αττικής,https://www.sklavenitis.gr/about/katastimata
Hypermarket  |  Παλαιστίνης & Λαμίας 1,Sklavenitis,Άλιμος,Greece,"{'brand': 'sklavenitis', 'fascia': 'sklavenitis', 'category': 'Retail', 'edit_date': '2025-05-10', 'lat_lon_source': 'Website'}",37.90744,23.73534,Sklavenitis Άλιμος,"{'opening_hours': {'Mon': '08:00-21:00', 'Tue': '08:00-21:00', 'Wed': '08:00-21:00', 'Thu': '08:00-21:00', 'Fri': '08:00-21:00', 'Sat': '08:00-20:00', 'Sun': 'Closed'}}",210 987 2500,174 55,554,Αττικής,https://www.sklavenitis.gr/about/katastimata
Supermarket  |  Μεσσηνίας 31,Sklavenitis,Αλσούπολη,Greece,"{'brand': 'sklavenitis', 'fascia': 'sklavenitis', 'category': 'Retail', 'edit_date': '2025-05-10', 'lat_lon_source': 'Website'}",38.03641,23.77933,Sklavenitis Αλσούπολη,"{'opening_hours': {'Mon': '08:00-21:00', 'Tue': '08:00-21:00', 'Wed': '08:00-21:00', 'Thu': '08:00-21:00', 'Fri': '08:00-21:00', 'Sat': '08:00-20:00', 'Sun': 'Closed'}}",210 272 0310,142 35,918,Αττικής,https://www.sklavenitis.gr/about/katastimata
Supermarket  |  Α. Πετραλιά & Δημ. Οδού Αμαλιάδος–Κουρούτας,Sklavenitis,Αμαλιάδα,Greece,"{'brand': 'sklavenitis', 'fascia': 'sklavenitis', 'category': 'Retail', 'edit_date': '2025-05-10', 'lat_lon_source': 'Website'}",37.7917,21.3371,Sklavenitis Αμαλιάδα,"{'opening_hours': {'Mon': '08:00-21:00', 'Tue': '08:00-21:00', 'Wed': '08:00-21:00', 'Thu': '08:00-21:00', 'Fri': '08:00-21:00', 'Sat': '08:00-20:00', 'Sun': 'Closed'}}",262 202 1269,272 00,766,Ηλείας,https://www.sklavenitis.gr/about/katastimata
Supermarket  |  Σεβαστουπόλεως 135 & Ιατρίδου 2-4,Sklavenitis,Αμπελόκηποι,Greece,"{'brand': 'sklavenitis', 'fascia': 'sklavenitis', 'category': 'Retail', 'edit_date': '2025-05-10', 'lat_lon_source': 'Website'}",37.995,23.76889,Sklavenitis Αμπελόκηποι,"{'opening_hours': {'Mon': '08:00-21:00', 'Tue': '08:00-21:00', 'Wed': '08:00-21:00', 'Thu': '08:00-21:00', 'Fri': '08:00-21:00', 'Sat': '08:00-20:00', 'Sun': 'Closed'}}","210 692 8490, ",115 26,854,Αττικής,https://www.sklavenitis.gr/about/katastimata
Supermarket  |  Λεωφ. Αλεξάνδρας 106,Sklavenitis,Αμπελόκηποι,Greece,"{'brand': 'sklavenitis', 'fascia': 'sklavenitis', 'category': 'Retail', 'edit_date': '2025-05-10', 'lat_lon_source': 'Website'}",37.98898,23.74732,Sklavenitis Αμπελόκηποι,"{'opening_hours': {'Mon': '08:00-21:00', 'Tue': '08:00-21:00', 'Wed': '08:00-21:00', 'Thu': '08:00-21:00', 'Fri': '08:00-21:00', 'Sat': '08:00-20:00', 'Sun': 'Closed'}}","210 646 2252, ",114 72,588,Αττικής,https://www.sklavenitis.gr/about/katastimata
Supermarket  |  Λαρίσης 20 & Λουίζης Ριανκούρ,Sklavenitis,Αμπελόκηποι,Greece,"{'brand': 'sklavenitis', 'fascia': 'sklavenitis', 'category': 'Retail', 'edit_date': '2025-05-10', 'lat_lon_source': 'Website'}",37.99225,23.76396,Sklavenitis Αμπελόκηποι,"{'opening_hours': {'Mon': '08:00-21:00', 'Tue': '08:00-21:00', 'Wed': '08:00-21:00', 'Thu': '08:00-21:00', 'Fri': '08:00-21:00', 'Sat': '08:00-20:00', 'Sun': 'Closed'}}","210 693 0620, ",115 23,911,Αττικής,https://www.sklavenitis.gr/about/katastimata
Hypermarket  |  Αιτωλίας 29 & Λεωφ. Κηφισίας 7,Sklavenitis,Αμπελόκηποι,Greece,"{'brand': 'sklavenitis', 'fascia': 'sklavenitis', 'category': 'Retail', 'edit_date': '2025-05-10', 'lat_lon_source': 'Website'}",37.98754,23.76175,Sklavenitis Αμπελόκηποι,"{'opening_hours': {'Mon': '08:00-21:00', 'Tue': '08:00-21:00', 'Wed': '08:00-21:00', 'Thu': '08:00-21:00', 'Fri': '08:00-21:00', 'Sat': '08:00-20:00', 'Sun': 'Closed'}}",210 641 9700,115 23,562,Αττικής,https://www.sklavenitis.gr/about/katastimata
Supermarket  |  Πανόρμου 71-73,Sklavenitis,Αμπελόκηποι,Greece,"{'brand': 'sklavenitis', 'fascia': 'sklavenitis', 'category': 'Retail', 'edit_date': '2025-05-10', 'lat_lon_source': 'Website'}",37.99252,23.76117,Sklavenitis Αμπελόκηποι,"{'opening_hours': {'Mon': '08:00-21:00', 'Tue': '08:00-21:00', 'Wed': '08:00-21:00', 'Thu': '08:00-21:00', 'Fri': '08:00-21:00', 'Sat': '08:00-20:00', 'Sun': 'Closed'}}","210 692 7001, ",115 24,823,Αττικής,https://www.sklavenitis.gr/about/katastimata
Supermarket | Δ. Γκόλτσιου 11,Sklavenitis,Αμπελώνας,Greece,"{'brand': 'sklavenitis', 'fascia': 'sklavenitis', 'category': 'Retail', 'edit_date': '2025-05-10', 'lat_lon_source': 'Website'}",39.74674,22.36002,Sklavenitis Αμπελώνας,"{'opening_hours': {'Mon': '08:00-21:00', 'Tue': '08:00-21:00', 'Wed': '08:00-21:00', 'Thu': '08:00-21:00', 'Fri': '08:00-21:00', 'Sat': '08:00-20:00', 'Sun': 'Closed'}}",249 203 1804,404 00,1009,Λάρισας,https://www.sklavenitis.gr/about/katastimata
Supermarket  |  Κ. Καραμανλή & Κραβαρτόγιαννου,Sklavenitis,Άμφισσα,Greece,"{'brand': 'sklavenitis', 'fascia': 'sklavenitis', 'category': 'Retail', 'edit_date': '2025-05-10', 'lat_lon_source': 'Website'}",38.52504,22.38426,Sklavenitis Άμφισσα,"{'opening_hours': {'Mon': '08:00-21:00', 'Tue': '08:00-21:00', 'Wed': '08:00-21:00', 'Thu': '08:00-21:00', 'Fri': '08:00-21:00', 'Sat': '08:00-20:00', 'Sun': 'Closed'}}","226 507 2395, ",331 00,711,Φωκίδας,https://www.sklavenitis.gr/about/katastimata
Supermarket  |  Λεωφ. Καραμανλή,Sklavenitis,Ανάβυσσος,Greece,"{'brand': 'sklavenitis', 'fascia': 'sklavenitis', 'category': 'Retail', 'edit_date': '2025-05-10', 'lat_lon_source': 'Website'}",37.73329,23.94814,Sklavenitis Ανάβυσσος,"{'opening_hours': {'Mon': '08:00-21:00', 'Tue': '08:00-21:00', 'Wed': '08:00-21:00', 'Thu': '08:00-21:00', 'Fri': '08:00-21:00', 'Sat': '08:00-20:00', 'Sun': 'Closed'}}",229 104 1144,190 13,623,Αττικής,https://www.sklavenitis.gr/about/katastimata
Freshmarket  |  Προμάχου 8 & Κωνσταντινουπόλεως,Sklavenitis,Ανθούπολη,Greece,"{'brand': 'sklavenitis', 'fascia': 'sklavenitis', 'category': 'Retail', 'edit_date': '2025-05-10', 'lat_lon_source': 'Website'}",38.02751,23.68827,Sklavenitis Ανθούπολη,"{'opening_hours': {'Mon': '08:00-21:00', 'Tue': '08:00-21:00', 'Wed': '08:00-21:00', 'Thu': '08:00-21:00', 'Fri': '08:00-21:00', 'Sat': '08:00-20:00', 'Sun': 'Closed'}}","210 575 9064, ",121 35,852,Αττικής,https://www.sklavenitis.gr/about/katastimata
Supermarket  |  Λεωφ. Μαραθώνος 41 & Αμπελιών,Sklavenitis,Άνοιξη,Greece,"{'brand': 'sklavenitis', 'fascia': 'sklavenitis', 'category': 'Retail', 'edit_date': '2025-05-10', 'lat_lon_source': 'Website'}",38.12976,23.85771,Sklavenitis Άνοιξη,"{'opening_hours': {'Mon': '08:00-21:00', 'Tue': '08:00-21:00', 'Wed': '08:00-21:00', 'Thu': '08:00-21:00', 'Fri': '08:00-21:00', 'Sat': '08:00-20:00', 'Sun': 'Closed'}}","210 814 2713, ",145 89,833,Αττικής,https://www.sklavenitis.gr/about/katastimata
Supermarket  |  Λεωφ. Φυλής 250,Sklavenitis,Άνω Λιόσια,Greece,"{'brand': 'sklavenitis', 'fascia': 'sklavenitis', 'category': 'Retail', 'edit_date': '2025-05-10', 'lat_lon_source': 'Website'}",38.0842,23.69514,Sklavenitis Άνω Λιόσια,"{'opening_hours': {'Mon': '08:00-21:00', 'Tue': '08:00-21:00', 'Wed': '08:00-21:00', 'Thu': '08:00-21:00', 'Fri': '08:00-21:00', 'Sat': '08:00-20:00', 'Sun': 'Closed'}}",210 247 3210,133 43,797,Αττικής,https://www.sklavenitis.gr/about/katastimata
Hypermarket  |  1ο χλμ. Ε.Ο. Άργους–Κορίνθου,Sklavenitis,Άργος,Greece,"{'brand': 'sklavenitis', 'fascia': 'sklavenitis', 'category': 'Retail', 'edit_date': '2025-05-10', 'lat_lon_source': 'Website'}",37.6562,22.72699,Sklavenitis Άργος,"{'opening_hours': {'Mon': '08:00-21:00', 'Tue': '08:00-21:00', 'Wed': '08:00-21:00', 'Thu': '08:00-21:00', 'Fri': '08:00-21:00', 'Sat': '08:00-20:00', 'Sun': 'Closed'}}","275 102 2100, ",212 00,570,Αργολίδας,https://www.sklavenitis.gr/about/katastimata
Freshmarket  |  Καποδιστρίου & 28ης Οκτωβρίου,Sklavenitis,Άργος,Greece,"{'brand': 'sklavenitis', 'fascia': 'sklavenitis', 'category': 'Retail', 'edit_date': '2025-05-10', 'lat_lon_source': 'Website'}",37.63297,22.72908,Sklavenitis Άργος,"{'opening_hours': {'Mon': '08:00-21:00', 'Tue': '08:00-21:00', 'Wed': '08:00-21:00', 'Thu': '08:00-21:00', 'Fri': '08:00-21:00', 'Sat': '08:00-20:00', 'Sun': 'Closed'}}",275 102 5573,212 00,791,Αργολίδας,https://www.sklavenitis.gr/about/katastimata
Hypermarket  |  Λεωφ. Κύπρου 185,Sklavenitis,Αργυρούπολη,Greece,"{'brand': 'sklavenitis', 'fascia': 'sklavenitis', 'category': 'Retail', 'edit_date': '2025-05-10', 'lat_lon_source': 'Website'}",37.89763,23.75848,Sklavenitis Αργυρούπολη,"{'opening_hours': {'Mon': '08:00-21:00', 'Tue': '08:00-21:00', 'Wed': '08:00-21:00', 'Thu': '08:00-21:00', 'Fri': '08:00-21:00', 'Sat': '08:00-20:00', 'Sun': 'Closed'}}",210 962 4710,164 51,573,Αττικής,https://www.sklavenitis.gr/about/katastimata
Supermarket +  |  Λέοντος 4 & Ελευθερίας,Sklavenitis,Αργυρούπολη,Greece,"{'brand': 'sklavenitis', 'fascia': 'sklavenitis', 'category': 'Retail', 'edit_date': '2025-05-10', 'lat_lon_source': 'Website'}",37.91306,23.74389,Sklavenitis Αργυρούπολη,"{'opening_hours': {'Mon': '08:00-21:00', 'Tue': '08:00-21:00', 'Wed': '08:00-21:00', 'Thu': '08:00-21:00', 'Fri': '08:00-21:00', 'Sat': '08:00-20:00', 'Sun': 'Closed'}}","210 990 1330, ",164 52,861,Αττικής,https://www.sklavenitis.gr/about/katastimata
Supermarket  |  Οικοδ. Τετράγωνο 413 (θέση Τρίγωνο),Sklavenitis,Άρτα,Greece,"{'brand': 'sklavenitis', 'fascia': 'sklavenitis', 'category': 'Retail', 'edit_date': '2025-05-10', 'lat_lon_source': 'Website'}",39.15194,20.97716,Sklavenitis Άρτα,"{'opening_hours': {'Mon': '08:00-21:00', 'Tue': '08:00-21:00', 'Wed': '08:00-21:00', 'Thu': '08:00-21:00', 'Fri': '08:00-21:00', 'Sat': '08:00-20:00', 'Sun': 'Closed'}}",268 102 1281,471 00,729,Άρτας,https://www.sklavenitis.gr/about/katastimata
Self-service  |  Σκουφά 197,Sklavenitis,Άρτα,Greece,"{'brand': 'sklavenitis', 'fascia': 'sklavenitis', 'category': 'Retail', 'edit_date': '2025-05-10', 'lat_lon_source': 'Website'}",39.15835,20.98199,Sklavenitis Άρτα,"{'opening_hours': {'Mon': '08:00-21:00', 'Tue': '08:00-21:00', 'Wed': '08:00-21:00', 'Thu': '08:00-21:00', 'Fri': '08:00-21:00', 'Sat': '08:00-20:00', 'Sun': 'Closed'}}",268 102 4475,471 00,962,Άρτας,https://www.sklavenitis.gr/about/katastimata
Supermarket  |  Κρυστάλλη 49,Sklavenitis,Άρτα,Greece,"{'brand': 'sklavenitis', 'fascia': 'sklavenitis', 'category': 'Retail', 'edit_date': '2025-05-10', 'lat_lon_source': 'Website'}",39.15669,20.99883,Sklavenitis Άρτα,"{'opening_hours': {'Mon': '08:00-21:00', 'Tue': '08:00-21:00', 'Wed': '08:00-21:00', 'Thu': '08:00-21:00', 'Fri': '08:00-21:00', 'Sat': '08:00-20:00', 'Sun': 'Closed'}}","268 107 4393, ",471 00,714,Άρτας,https://www.sklavenitis.gr/about/katastimata
Supermarket  |  Ελ. Βενιζέλου 34,Sklavenitis,Άρτα,Greece,"{'brand': 'sklavenitis', 'fascia': 'sklavenitis', 'category': 'Retail', 'edit_date': '2025-05-10', 'lat_lon_source': 'Website'}",39.16105,20.98115,Sklavenitis Άρτα,"{'opening_hours': {'Mon': '08:00-21:00', 'Tue': '08:00-21:00', 'Wed': '08:00-21:00', 'Thu': '08:00-21:00', 'Fri': '08:00-21:00', 'Sat': '08:00-20:00', 'Sun': 'Closed'}}","268 102 1642, ",471 00,619,Άρτας,https://www.sklavenitis.gr/about/katastimata
"Supermarket | Λεωφ. Σπάτων, Επαρχιακή Οδός Παιανίας - Λούτσας",Sklavenitis,Αρτέμιδα,Greece,"{'brand': 'sklavenitis', 'fascia': 'sklavenitis', 'category': 'Retail', 'edit_date': '2025-05-10', 'lat_lon_source': 'Website'}",37.96219,23.98249,Sklavenitis Αρτέμιδα,"{'opening_hours': {'Mon': '08:00-21:00', 'Tue': '08:00-21:00', 'Wed': '08:00-21:00', 'Thu': '08:00-21:00', 'Fri': '08:00-21:00', 'Sat': '08:00-20:00', 'Sun': 'Closed'}}",229 408 6887,190 16,999,Αττικής,https://www.sklavenitis.gr/about/katastimata
Supermarket  |  28ο χλμ. Λεωφ. Σπάτων–Αρτέμιδος,Sklavenitis,Αρτέμιδα,Greece,"{'brand': 'sklavenitis', 'fascia': 'sklavenitis', 'category': 'Retail', 'edit_date': '2025-05-10', 'lat_lon_source': 'Website'}",37.96914,24.00268,Sklavenitis Αρτέμιδα,"{'opening_hours': {'Mon': '08:00-21:00', 'Tue': '08:00-21:00', 'Wed': '08:00-21:00', 'Thu': '08:00-21:00', 'Fri': '08:00-21:00', 'Sat': '08:00-20:00', 'Sun': 'Closed'}}",229 408 0964,190 16,628,Αττικής,https://www.sklavenitis.gr/about/katastimata
"Supermarket | Παλαιά Εθνική Οδός Θεσσαλονίκης - Καβάλας, Ασπροβάλτα",Sklavenitis,Ασπροβάλτα,Greece,"{'brand': 'sklavenitis', 'fascia': 'sklavenitis', 'category': 'Retail', 'edit_date': '2025-05-10', 'lat_lon_source': 'Website'}",40.7144,23.70296,Sklavenitis Ασπροβάλτα,"{'opening_hours': {'Mon': '08:00-21:00', 'Tue': '08:00-21:00', 'Wed': '08:00-21:00', 'Thu': '08:00-21:00', 'Fri': '08:00-21:00', 'Sat': '08:00-20:00', 'Sun': 'Closed'}}","239 702 4978, ",570 21,1014,Θεσσαλονίκης,https://www.sklavenitis.gr/about/katastimata
"Supermarket  |  Γ. Παπανδρέου, Νέα Περιφερειακή Οδός Ασπροπύργου",Sklavenitis,Ασπρόπυργος,Greece,"{'brand': 'sklavenitis', 'fascia': 'sklavenitis', 'category': 'Retail', 'edit_date': '2025-05-10', 'lat_lon_source': 'Website'}",38.05504,23.58941,Sklavenitis Ασπρόπυργος,"{'opening_hours': {'Mon': '08:00-21:00', 'Tue': '08:00-21:00', 'Wed': '08:00-21:00', 'Thu': '08:00-21:00', 'Fri': '08:00-21:00', 'Sat': '08:00-20:00', 'Sun': 'Closed'}}","210 557 9200, ",193 00,882,Αττικής,https://www.sklavenitis.gr/about/katastimata
Supermarket +  |  Φυλής & Θρασυβούλου (εμπορικό κέντρο WEST PLAZA),Sklavenitis,Ασπρόπυργος,Greece,"{'brand': 'sklavenitis', 'fascia': 'sklavenitis', 'category': 'Retail', 'edit_date': '2025-05-10', 'lat_lon_source': 'Website'}",38.06571,23.5983,Sklavenitis Ασπρόπυργος,"{'opening_hours': {'Mon': '08:00-21:00', 'Tue': '08:00-21:00', 'Wed': '08:00-21:00', 'Thu': '08:00-21:00', 'Fri': '08:00-21:00', 'Sat': '08:00-20:00', 'Sun': 'Closed'}}","210 558 0933, ",193 00,794,Αττικής,https://www.sklavenitis.gr/about/katastimata
Supermarket  |  Παλαιά Ε.Ο. Κορίνθου–Πατρών,Sklavenitis,Άσσος - Λέχαιο,Greece,"{'brand': 'sklavenitis', 'fascia': 'sklavenitis', 'category': 'Retail', 'edit_date': '2025-05-10', 'lat_lon_source': 'Website'}",37.94173,22.82628,Sklavenitis Άσσος - Λέχαιο,"{'opening_hours': {'Mon': '08:00-21:00', 'Tue': '08:00-21:00', 'Wed': '08:00-21:00', 'Thu': '08:00-21:00', 'Fri': '08:00-21:00', 'Sat': '08:00-20:00', 'Sun': 'Closed'}}","27410 82028, ",200 11,707,Κορίνθου,https://www.sklavenitis.gr/about/katastimata
Freshmarket  |  Ε.Ο. Άστρους–Λεωνιδίου (θέση Καλυβάκι),Sklavenitis,Άστρος Κυνουρίας,Greece,"{'brand': 'sklavenitis', 'fascia': 'sklavenitis', 'category': 'Retail', 'edit_date': '2025-05-10', 'lat_lon_source': 'Website'}",37.40732,22.72886,Sklavenitis Άστρος Κυνουρίας,"{'opening_hours': {'Mon': '08:00-21:00', 'Tue': '08:00-21:00', 'Wed': '08:00-21:00', 'Thu': '08:00-21:00', 'Fri': '08:00-21:00', 'Sat': '08:00-20:00', 'Sun': 'Closed'}}",275 502 4165,220 01,592,Αρκαδίας,https://www.sklavenitis.gr/about/katastimata
Freshmarket  |  Ελ. Βενιζέλου 10,Sklavenitis,Αταλάντη,Greece,"{'brand': 'sklavenitis', 'fascia': 'sklavenitis', 'category': 'Retail', 'edit_date': '2025-05-10', 'lat_lon_source': 'Website'}",38.65481,22.99983,Sklavenitis Αταλάντη,"{'opening_hours': {'Mon': '08:00-21:00', 'Tue': '08:00-21:00', 'Wed': '08:00-21:00', 'Thu': '08:00-21:00', 'Fri': '08:00-21:00', 'Sat': '08:00-20:00', 'Sun': 'Closed'}}",223 308 9170,352 00,688,Φθιώτιδας,https://www.sklavenitis.gr/about/katastimata
Supermarket  |  Τριπτολέμου 1 & Λεωφ. Αναγυρούντος 32,Sklavenitis,Βάρη,Greece,"{'brand': 'sklavenitis', 'fascia': 'sklavenitis', 'category': 'Retail', 'edit_date': '2025-05-10', 'lat_lon_source': 'Website'}",37.83336,23.80311,Sklavenitis Βάρη,"{'opening_hours': {'Mon': '08:00-21:00', 'Tue': '08:00-21:00', 'Wed': '08:00-21:00', 'Thu': '08:00-21:00', 'Fri': '08:00-21:00', 'Sat': '08:00-20:00', 'Sun': 'Closed'}}",210 897 1101,166 72,713,Αττικής,https://www.sklavenitis.gr/about/katastimata
Supermarket  |  Λεωφ. Ευελπίδων 139 & Α. Παπανδρέου 1,Sklavenitis,Βάρη,Greece,"{'brand': 'sklavenitis', 'fascia': 'sklavenitis', 'category': 'Retail', 'edit_date': '2025-05-10', 'lat_lon_source': 'Website'}",37.83486,23.79479,Sklavenitis Βάρη,"{'opening_hours': {'Mon': '08:00-21:00', 'Tue': '08:00-21:00', 'Wed': '08:00-21:00', 'Thu': '08:00-21:00', 'Fri': '08:00-21:00', 'Sat': '08:00-20:00', 'Sun': 'Closed'}}","210 968 9722, ",166 72,856,Αττικής,https://www.sklavenitis.gr/about/katastimata
Supermarket  |  Ποσειδώνος 10 & Ξενίου Διός 1,Sklavenitis,Βάρκιζα,Greece,"{'brand': 'sklavenitis', 'fascia': 'sklavenitis', 'category': 'Retail', 'edit_date': '2025-05-10', 'lat_lon_source': 'Website'}",37.81914,23.80295,Sklavenitis Βάρκιζα,"{'opening_hours': {'Mon': '08:00-21:00', 'Tue': '08:00-21:00', 'Wed': '08:00-21:00', 'Thu': '08:00-21:00', 'Fri': '08:00-21:00', 'Sat': '08:00-20:00', 'Sun': 'Closed'}}",210 965 3160,166 72,913,Αττικής,https://www.sklavenitis.gr/about/katastimata
Supermarket  |  Πιερίων 184 & Χρ. Σμύρνης,Sklavenitis,Βέροια,Greece,"{'brand': 'sklavenitis', 'fascia': 'sklavenitis', 'category': 'Retail', 'edit_date': '2025-05-10', 'lat_lon_source': 'Website'}",40.51087,22.21489,Sklavenitis Βέροια,"{'opening_hours': {'Mon': '08:00-21:00', 'Tue': '08:00-21:00', 'Wed': '08:00-21:00', 'Thu': '08:00-21:00', 'Fri': '08:00-21:00', 'Sat': '08:00-20:00', 'Sun': 'Closed'}}","233 107 3298, ",591 00,763,Ημαθίας,https://www.sklavenitis.gr/about/katastimata
Supermarket +  |  Λεωφ. Στρατού & Νέα Περιφερειακή Οδός,Sklavenitis,Βέροια,Greece,"{'brand': 'sklavenitis', 'fascia': 'sklavenitis', 'category': 'Retail', 'edit_date': '2025-05-10', 'lat_lon_source': 'Website'}",40.52809,22.20886,Sklavenitis Βέροια,"{'opening_hours': {'Mon': '08:00-21:00', 'Tue': '08:00-21:00', 'Wed': '08:00-21:00', 'Thu': '08:00-21:00', 'Fri': '08:00-21:00', 'Sat': '08:00-20:00', 'Sun': 'Closed'}}","233 107 1702, ",591 00,610,Ημαθίας,https://www.sklavenitis.gr/about/katastimata
Supermarket  |  Φυτόκου 35,Sklavenitis,Βόλος,Greece,"{'brand': 'sklavenitis', 'fascia': 'sklavenitis', 'category': 'Retail', 'edit_date': '2025-05-10', 'lat_lon_source': 'Website'}",39.38342,22.93975,Sklavenitis Βόλος,"{'opening_hours': {'Mon': '08:00-21:00', 'Tue': '08:00-21:00', 'Wed': '08:00-21:00', 'Thu': '08:00-21:00', 'Fri': '08:00-21:00', 'Sat': '08:00-20:00', 'Sun': 'Closed'}}",242 108 0930,384 46,928,Μαγνησίας,https://www.sklavenitis.gr/about/katastimata
Supermarket+  |  Λαρίσης 206,Sklavenitis,Βόλος,Greece,"{'brand': 'sklavenitis', 'fascia': 'sklavenitis', 'category': 'Retail', 'edit_date': '2025-05-10', 'lat_lon_source': 'Website'}",39.36838,22.92067,Sklavenitis Βόλος,"{'opening_hours': {'Mon': '08:00-21:00', 'Tue': '08:00-21:00', 'Wed': '08:00-21:00', 'Thu': '08:00-21:00', 'Fri': '08:00-21:00', 'Sat': '08:00-20:00', 'Sun': 'Closed'}}","242 109 0189, ",383 34,578,Μαγνησίας,https://www.sklavenitis.gr/about/katastimata
Supermarket  |  Οδ. Ελύτη 48 & Ε. Σκούρα (συνοικία Κάραγατς),Sklavenitis,Βόλος,Greece,"{'brand': 'sklavenitis', 'fascia': 'sklavenitis', 'category': 'Retail', 'edit_date': '2025-05-10', 'lat_lon_source': 'Website'}",39.36873,22.96676,Sklavenitis Βόλος,"{'opening_hours': {'Mon': '08:00-21:00', 'Tue': '08:00-21:00', 'Wed': '08:00-21:00', 'Thu': '08:00-21:00', 'Fri': '08:00-21:00', 'Sat': '08:00-20:00', 'Sun': 'Closed'}}",242 104 8222,382 21,945,Μαγνησίας,https://www.sklavenitis.gr/about/katastimata
Supermarket  |  Γ. Δήμου & Ιωλκού,Sklavenitis,Βόλος,Greece,"{'brand': 'sklavenitis', 'fascia': 'sklavenitis', 'category': 'Retail', 'edit_date': '2025-05-10', 'lat_lon_source': 'Website'}",39.37013,22.95445,Sklavenitis Βόλος,"{'opening_hours': {'Mon': '08:00-21:00', 'Tue': '08:00-21:00', 'Wed': '08:00-21:00', 'Thu': '08:00-21:00', 'Fri': '08:00-21:00', 'Sat': '08:00-20:00', 'Sun': 'Closed'}}","242 107 8444, ",382 21,726,Μαγνησίας,https://www.sklavenitis.gr/about/katastimata
Supermarket+  |  2ας Νοεμβρίου & Βασσάνη,Sklavenitis,Βόλος,Greece,"{'brand': 'sklavenitis', 'fascia': 'sklavenitis', 'category': 'Retail', 'edit_date': '2025-05-10', 'lat_lon_source': 'Website'}",39.36435,22.93944,Sklavenitis Βόλος,"{'opening_hours': {'Mon': '08:00-21:00', 'Tue': '08:00-21:00', 'Wed': '08:00-21:00', 'Thu': '08:00-21:00', 'Fri': '08:00-21:00', 'Sat': '08:00-20:00', 'Sun': 'Closed'}}",242 103 6391,383 33,663,Μαγνησίας,https://www.sklavenitis.gr/about/katastimata
Supermarket  |  Βασ. Παύλου 100,Sklavenitis,Βούλα,Greece,"{'brand': 'sklavenitis', 'fascia': 'sklavenitis', 'category': 'Retail', 'edit_date': '2025-05-10', 'lat_lon_source': 'Website'}",37.83889,23.76735,Sklavenitis Βούλα,"{'opening_hours': {'Mon': '08:00-21:00', 'Tue': '08:00-21:00', 'Wed': '08:00-21:00', 'Thu': '08:00-21:00', 'Fri': '08:00-21:00', 'Sat': '08:00-20:00', 'Sun': 'Closed'}}",210 895 8344,166 73,600,Αττικής,https://www.sklavenitis.gr/about/katastimata
Freshmarket  |  Ρέας 2,Sklavenitis,Βουλιαγμένη,Greece,"{'brand': 'sklavenitis', 'fascia': 'sklavenitis', 'category': 'Retail', 'edit_date': '2025-05-10', 'lat_lon_source': 'Website'}",37.81497,23.77823,Sklavenitis Βουλιαγμένη,"{'opening_hours': {'Mon': '08:00-21:00', 'Tue': '08:00-21:00', 'Wed': '08:00-21:00', 'Thu': '08:00-21:00', 'Fri': '08:00-21:00', 'Sat': '08:00-20:00', 'Sun': 'Closed'}}","210 967 1650, ",166 71,878,Αττικής,https://www.sklavenitis.gr/about/katastimata
Supermarket  |  Αναπαύσεως & Μητροπούλου,Sklavenitis,Βριλήσσια,Greece,"{'brand': 'sklavenitis', 'fascia': 'sklavenitis', 'category': 'Retail', 'edit_date': '2025-05-10', 'lat_lon_source': 'Website'}",38.04424,23.84309,Sklavenitis Βριλήσσια,"{'opening_hours': {'Mon': '08:00-21:00', 'Tue': '08:00-21:00', 'Wed': '08:00-21:00', 'Thu': '08:00-21:00', 'Fri': '08:00-21:00', 'Sat': '08:00-20:00', 'Sun': 'Closed'}}","210 803 7802, ",152 35,725,Αττικής,https://www.sklavenitis.gr/about/katastimata
Supermarket +  |  Αγ. Αντωνίου 1 & Τενέδου 13,Sklavenitis,Βριλήσσια,Greece,"{'brand': 'sklavenitis', 'fascia': 'sklavenitis', 'category': 'Retail', 'edit_date': '2025-05-10', 'lat_lon_source': 'Website'}",38.02575,23.83396,Sklavenitis Βριλήσσια,"{'opening_hours': {'Mon': '08:00-21:00', 'Tue': '08:00-21:00', 'Wed': '08:00-21:00', 'Thu': '08:00-21:00', 'Fri': '08:00-21:00', 'Sat': '08:00-20:00', 'Sun': 'Closed'}}",210 608 5400,152 35,849,Αττικής,https://www.sklavenitis.gr/about/katastimata
Freshmarket  |  Γ. Γεννηματά 52,Sklavenitis,Βύρωνας,Greece,"{'brand': 'sklavenitis', 'fascia': 'sklavenitis', 'category': 'Retail', 'edit_date': '2025-05-10', 'lat_lon_source': 'Website'}",37.96027,23.76063,Sklavenitis Βύρωνας,"{'opening_hours': {'Mon': '08:00-21:00', 'Tue': '08:00-21:00', 'Wed': '08:00-21:00', 'Thu': '08:00-21:00', 'Fri': '08:00-21:00', 'Sat': '08:00-20:00', 'Sun': 'Closed'}}",210 764 8087,162 31,920,Αττικής,https://www.sklavenitis.gr/about/katastimata
Supermarket  |  Νέας Ελβετίας 7-9,Sklavenitis,Βύρωνας,Greece,"{'brand': 'sklavenitis', 'fascia': 'sklavenitis', 'category': 'Retail', 'edit_date': '2025-05-10', 'lat_lon_source': 'Website'}",37.95734,23.75658,Sklavenitis Βύρωνας,"{'opening_hours': {'Mon': '08:00-21:00', 'Tue': '08:00-21:00', 'Wed': '08:00-21:00', 'Thu': '08:00-21:00', 'Fri': '08:00-21:00', 'Sat': '08:00-20:00', 'Sun': 'Closed'}}","210 766 2777, ",162 31,679,Αττικής,https://www.sklavenitis.gr/about/katastimata
Supermarket  |  Παπαφλέσσα 32-34,Sklavenitis,Γαλάτσι,Greece,"{'brand': 'sklavenitis', 'fascia': 'sklavenitis', 'category': 'Retail', 'edit_date': '2025-05-10', 'lat_lon_source': 'Website'}",38.02039,23.75328,Sklavenitis Γαλάτσι,"{'opening_hours': {'Mon': '08:00-21:00', 'Tue': '08:00-21:00', 'Wed': '08:00-21:00', 'Thu': '08:00-21:00', 'Fri': '08:00-21:00', 'Sat': '08:00-20:00', 'Sun': 'Closed'}}",210 292 5911,111 46,883,Αττικής,https://www.sklavenitis.gr/about/katastimata
Supermarket  |  Ελ. Βενιζέλου 8,Sklavenitis,Γαλάτσι,Greece,"{'brand': 'sklavenitis', 'fascia': 'sklavenitis', 'category': 'Retail', 'edit_date': '2025-05-10', 'lat_lon_source': 'Website'}",38.01158,23.75314,Sklavenitis Γαλάτσι,"{'opening_hours': {'Mon': '08:00-21:00', 'Tue': '08:00-21:00', 'Wed': '08:00-21:00', 'Thu': '08:00-21:00', 'Fri': '08:00-21:00', 'Sat': '08:00-20:00', 'Sun': 'Closed'}}",210 291 1780,111 47,820,Αττικής,https://www.sklavenitis.gr/about/katastimata
Freshmarket  |  Διογένους 2-4 & Μ. Αλεξάνδρου 2-4,Sklavenitis,Γαλάτσι,Greece,"{'brand': 'sklavenitis', 'fascia': 'sklavenitis', 'category': 'Retail', 'edit_date': '2025-05-10', 'lat_lon_source': 'Website'}",38.01361,23.7475,Sklavenitis Γαλάτσι,"{'opening_hours': {'Mon': '08:00-21:00', 'Tue': '08:00-21:00', 'Wed': '08:00-21:00', 'Thu': '08:00-21:00', 'Fri': '08:00-21:00', 'Sat': '08:00-20:00', 'Sun': 'Closed'}}","210 213 0660, ",111 46,850,Αττικής,https://www.sklavenitis.gr/about/katastimata
Supermarket  |  Ερμού 9,Sklavenitis,Γέρακας,Greece,"{'brand': 'sklavenitis', 'fascia': 'sklavenitis', 'category': 'Retail', 'edit_date': '2025-05-10', 'lat_lon_source': 'Website'}",38.02876,23.85219,Sklavenitis Γέρακας,"{'opening_hours': {'Mon': '08:00-21:00', 'Tue': '08:00-21:00', 'Wed': '08:00-21:00', 'Thu': '08:00-21:00', 'Fri': '08:00-21:00', 'Sat': '08:00-20:00', 'Sun': 'Closed'}}","210 639 3090, ",153 44,871,Αττικής,https://www.sklavenitis.gr/about/katastimata
"Supermarket  |  Αγίου Νεκταρίου, Ηριδανού & Διαγόρα",Sklavenitis,Γέρακας,Greece,"{'brand': 'sklavenitis', 'fascia': 'sklavenitis', 'category': 'Retail', 'edit_date': '2025-05-10', 'lat_lon_source': 'Website'}",38.02696,23.85932,Sklavenitis Γέρακας,"{'opening_hours': {'Mon': '08:00-21:00', 'Tue': '08:00-21:00', 'Wed': '08:00-21:00', 'Thu': '08:00-21:00', 'Fri': '08:00-21:00', 'Sat': '08:00-20:00', 'Sun': 'Closed'}}","210 661 8100, ",153 44,762,Αττικής,https://www.sklavenitis.gr/about/katastimata
Hypermarket  |  Λεωφ.  Μαραθώνος 131,Sklavenitis,Γέρακας,Greece,"{'brand': 'sklavenitis', 'fascia': 'sklavenitis', 'category': 'Retail', 'edit_date': '2025-05-10', 'lat_lon_source': 'Website'}",38.00722,23.86112,Sklavenitis Γέρακας,"{'opening_hours': {'Mon': '08:00-21:00', 'Tue': '08:00-21:00', 'Wed': '08:00-21:00', 'Thu': '08:00-21:00', 'Fri': '08:00-21:00', 'Sat': '08:00-20:00', 'Sun': 'Closed'}}",210 660 1300,153 44,564,Αττικής,https://www.sklavenitis.gr/about/katastimata
Self-service  |  Δημάρχου Στάμκου 20 (πρώην Μοιρ. Γεωργίου),Sklavenitis,Γιαννιτσά,Greece,"{'brand': 'sklavenitis', 'fascia': 'sklavenitis', 'category': 'Retail', 'edit_date': '2025-05-10', 'lat_lon_source': 'Website'}",40.7916,22.4129,Sklavenitis Γιαννιτσά,"{'opening_hours': {'Mon': '08:00-21:00', 'Tue': '08:00-21:00', 'Wed': '08:00-21:00', 'Thu': '08:00-21:00', 'Fri': '08:00-21:00', 'Sat': '08:00-20:00', 'Sun': 'Closed'}}",238 202 7292,581 00,980,Πέλλας,https://www.sklavenitis.gr/about/katastimata
Supermarket | Ανατολικής Ρωμυλίας 3,Sklavenitis,Γιαννιτσά,Greece,"{'brand': 'sklavenitis', 'fascia': 'sklavenitis', 'category': 'Retail', 'edit_date': '2025-05-10', 'lat_lon_source': 'Website'}",40.79303,22.40438,Sklavenitis Γιαννιτσά,"{'opening_hours': {'Mon': '08:00-21:00', 'Tue': '08:00-21:00', 'Wed': '08:00-21:00', 'Thu': '08:00-21:00', 'Fri': '08:00-21:00', 'Sat': '08:00-20:00', 'Sun': 'Closed'}}","238 202 0246, ",581 00,981,Πέλλας,https://www.sklavenitis.gr/about/katastimata
Supermarket  |  Γούναρη 185,Sklavenitis,Γλυφάδα,Greece,"{'brand': 'sklavenitis', 'fascia': 'sklavenitis', 'category': 'Retail', 'edit_date': '2025-05-10', 'lat_lon_source': 'Website'}",37.87194,23.76417,Sklavenitis Γλυφάδα,"{'opening_hours': {'Mon': '08:00-21:00', 'Tue': '08:00-21:00', 'Wed': '08:00-21:00', 'Thu': '08:00-21:00', 'Fri': '08:00-21:00', 'Sat': '08:00-20:00', 'Sun': 'Closed'}}","210 965 1635, ",166 74,905,Αττικής,https://www.sklavenitis.gr/about/katastimata
Supermarket  |  Ζέππου 16A & Ξενοφώντος 31,Sklavenitis,Γλυφάδα,Greece,"{'brand': 'sklavenitis', 'fascia': 'sklavenitis', 'category': 'Retail', 'edit_date': '2025-05-10', 'lat_lon_source': 'Website'}",37.87179,23.75386,Sklavenitis Γλυφάδα,"{'opening_hours': {'Mon': '08:00-21:00', 'Tue': '08:00-21:00', 'Wed': '08:00-21:00', 'Thu': '08:00-21:00', 'Fri': '08:00-21:00', 'Sat': '08:00-20:00', 'Sun': 'Closed'}}",210 962 5916,166 75,1011,Αττικής,https://www.sklavenitis.gr/about/katastimata
Supermarket +  |  Λεωφ. Βουλιαγμένης 174 & Πρίγκιπος Πέτρου,Sklavenitis,Γλυφάδα,Greece,"{'brand': 'sklavenitis', 'fascia': 'sklavenitis', 'category': 'Retail', 'edit_date': '2025-05-10', 'lat_lon_source': 'Website'}",37.85417,23.76623,Sklavenitis Γλυφάδα,"{'opening_hours': {'Mon': '08:00-21:00', 'Tue': '08:00-21:00', 'Wed': '08:00-21:00', 'Thu': '08:00-21:00', 'Fri': '08:00-21:00', 'Sat': '08:00-20:00', 'Sun': 'Closed'}}","210 968 0581, ",166 74,844,Αττικής,https://www.sklavenitis.gr/about/katastimata
Supermarket  |  Ηλείας & Ελ. Βενιζέλου 35-37,Sklavenitis,Γλυφάδα,Greece,"{'brand': 'sklavenitis', 'fascia': 'sklavenitis', 'category': 'Retail', 'edit_date': '2025-05-10', 'lat_lon_source': 'Website'}",37.88492,23.74848,Sklavenitis Γλυφάδα,"{'opening_hours': {'Mon': '08:00-21:00', 'Tue': '08:00-21:00', 'Wed': '08:00-21:00', 'Thu': '08:00-21:00', 'Fri': '08:00-21:00', 'Sat': '08:00-20:00', 'Sun': 'Closed'}}",210 963 8204,166 75,699,Αττικής,https://www.sklavenitis.gr/about/katastimata
Supermarket +  |  Λεωφ. Βουλιαγμένης & Υμηττού 2,Sklavenitis,Γλυφάδα,Greece,"{'brand': 'sklavenitis', 'fascia': 'sklavenitis', 'category': 'Retail', 'edit_date': '2025-05-10', 'lat_lon_source': 'Website'}",37.87243,23.75904,Sklavenitis Γλυφάδα,"{'opening_hours': {'Mon': '08:00-21:00', 'Tue': '08:00-21:00', 'Wed': '08:00-21:00', 'Thu': '08:00-21:00', 'Fri': '08:00-21:00', 'Sat': '08:00-20:00', 'Sun': 'Closed'}}","210 962 6137, ",166 74,608,Αττικής,https://www.sklavenitis.gr/about/katastimata
Supermarket  |  13ης Οκτωβρίου 114,Sklavenitis,Γρεβενά,Greece,"{'brand': 'sklavenitis', 'fascia': 'sklavenitis', 'category': 'Retail', 'edit_date': '2025-05-10', 'lat_lon_source': 'Website'}",40.0779,21.42199,Sklavenitis Γρεβενά,"{'opening_hours': {'Mon': '08:00-21:00', 'Tue': '08:00-21:00', 'Wed': '08:00-21:00', 'Thu': '08:00-21:00', 'Fri': '08:00-21:00', 'Sat': '08:00-20:00', 'Sun': 'Closed'}}",246 208 3557,511 00,929,Γρεβενών,https://www.sklavenitis.gr/about/katastimata
Supermarket  |  Λεωφ. Βουλιαγμένης 140 & Μεσολογγίου,Sklavenitis,Δάφνη,Greece,"{'brand': 'sklavenitis', 'fascia': 'sklavenitis', 'category': 'Retail', 'edit_date': '2025-05-10', 'lat_lon_source': 'Website'}",37.9551,23.73617,Sklavenitis Δάφνη,"{'opening_hours': {'Mon': '08:00-21:00', 'Tue': '08:00-21:00', 'Wed': '08:00-21:00', 'Thu': '08:00-21:00', 'Fri': '08:00-21:00', 'Sat': '08:00-20:00', 'Sun': 'Closed'}}","210 927 0972, ",172 34,614,Αττικής,https://www.sklavenitis.gr/about/katastimata
Freshmarket  |  Καφαντάρη 33,Sklavenitis,Δάφνη,Greece,"{'brand': 'sklavenitis', 'fascia': 'sklavenitis', 'category': 'Retail', 'edit_date': '2025-05-10', 'lat_lon_source': 'Website'}",37.95695,23.73797,Sklavenitis Δάφνη,"{'opening_hours': {'Mon': '08:00-21:00', 'Tue': '08:00-21:00', 'Wed': '08:00-21:00', 'Thu': '08:00-21:00', 'Fri': '08:00-21:00', 'Sat': '08:00-20:00', 'Sun': 'Closed'}}","210 901 3830, ",116 31,813,Αττικής,https://www.sklavenitis.gr/about/katastimata
Supermarket  |  Ε. Ευγενίδη 64-82,Sklavenitis,Διδυμότειχο,Greece,"{'brand': 'sklavenitis', 'fascia': 'sklavenitis', 'category': 'Retail', 'edit_date': '2025-05-10', 'lat_lon_source': 'Website'}",41.35377,26.50339,Sklavenitis Διδυμότειχο,"{'opening_hours': {'Mon': '08:00-21:00', 'Tue': '08:00-21:00', 'Wed': '08:00-21:00', 'Thu': '08:00-21:00', 'Fri': '08:00-21:00', 'Sat': '08:00-20:00', 'Sun': 'Closed'}}","255 302 0180, ",683 00,770,Έβρου,https://www.sklavenitis.gr/about/katastimata
Hypermarket  |  2o χλμ. Ε.Ο. Δράμας–Καβάλας,Sklavenitis,Δράμα,Greece,"{'brand': 'sklavenitis', 'fascia': 'sklavenitis', 'category': 'Retail', 'edit_date': '2025-05-10', 'lat_lon_source': 'Website'}",41.13979,24.17803,Sklavenitis Δράμα,"{'opening_hours': {'Mon': '08:00-21:00', 'Tue': '08:00-21:00', 'Wed': '08:00-21:00', 'Thu': '08:00-21:00', 'Fri': '08:00-21:00', 'Sat': '08:00-20:00', 'Sun': 'Closed'}}",252 102 6466,661 00,571,Δράμας,https://www.sklavenitis.gr/about/katastimata
Freshmarket  |  Ηπείρου 39 & Εθνικής Επαναστάσεως 1821,Sklavenitis,Δράμα,Greece,"{'brand': 'sklavenitis', 'fascia': 'sklavenitis', 'category': 'Retail', 'edit_date': '2025-05-10', 'lat_lon_source': 'Website'}",41.1456,24.14815,Sklavenitis Δράμα,"{'opening_hours': {'Mon': '08:00-21:00', 'Tue': '08:00-21:00', 'Wed': '08:00-21:00', 'Thu': '08:00-21:00', 'Fri': '08:00-21:00', 'Sat': '08:00-20:00', 'Sun': 'Closed'}}",252 103 9401,661 00,927,Δράμας,https://www.sklavenitis.gr/about/katastimata
Supermarket  |  Σωκράτους 48-50 & Υπαπαντής,Sklavenitis,Δραπετσώνα,Greece,"{'brand': 'sklavenitis', 'fascia': 'sklavenitis', 'category': 'Retail', 'edit_date': '2025-05-10', 'lat_lon_source': 'Website'}",37.95038,23.63009,Sklavenitis Δραπετσώνα,"{'opening_hours': {'Mon': '08:00-21:00', 'Tue': '08:00-21:00', 'Wed': '08:00-21:00', 'Thu': '08:00-21:00', 'Fri': '08:00-21:00', 'Sat': '08:00-20:00', 'Sun': 'Closed'}}","210 463 4810, ",186 48,816,Αττικής,https://www.sklavenitis.gr/about/katastimata
"Supermarket  |  Πατρ. Χρυσάνθου Α' & Νικ. Γκάτσου, Ο.Τ. 325 (περιοχή Σμαρέκα Δ.)",Sklavenitis,Έδεσσα,Greece,"{'brand': 'sklavenitis', 'fascia': 'sklavenitis', 'category': 'Retail', 'edit_date': '2025-05-10', 'lat_lon_source': 'Website'}",40.80535,22.03731,Sklavenitis Έδεσσα,"{'opening_hours': {'Mon': '08:00-21:00', 'Tue': '08:00-21:00', 'Wed': '08:00-21:00', 'Thu': '08:00-21:00', 'Fri': '08:00-21:00', 'Sat': '08:00-20:00', 'Sun': 'Closed'}}","238 102 5622, ",582 00,673,Πέλλας,https://www.sklavenitis.gr/about/katastimata
Supermarket  |  1ης Μεραρχίας,Sklavenitis,Ελασσόνα,Greece,"{'brand': 'sklavenitis', 'fascia': 'sklavenitis', 'category': 'Retail', 'edit_date': '2025-05-10', 'lat_lon_source': 'Website'}",39.88911,22.19386,Sklavenitis Ελασσόνα,"{'opening_hours': {'Mon': '08:00-21:00', 'Tue': '08:00-21:00', 'Wed': '08:00-21:00', 'Thu': '08:00-21:00', 'Fri': '08:00-21:00', 'Sat': '08:00-20:00', 'Sun': 'Closed'}}",249 302 5586,402 00,789,Λάρισας,https://www.sklavenitis.gr/about/katastimata
Supermarket +  | Μοναστηρίου & Κων/νου Καραμανλή,Sklavenitis,Ελευθέριο-Κορδελιό,Greece,"{'brand': 'sklavenitis', 'fascia': 'sklavenitis', 'category': 'Retail', 'edit_date': '2025-05-10', 'lat_lon_source': 'Website'}",40.66397,22.89592,Sklavenitis Ελευθέριο-Κορδελιό,"{'opening_hours': {'Mon': '08:00-21:00', 'Tue': '08:00-21:00', 'Wed': '08:00-21:00', 'Thu': '08:00-21:00', 'Fri': '08:00-21:00', 'Sat': '08:00-20:00', 'Sun': 'Closed'}}","231 077 5531, ",563 34,698,Θεσσαλονίκης,https://www.sklavenitis.gr/about/katastimata
Supermarket +  |  Δήμητρος 26 & Αρη Βελουχιώτη,Sklavenitis,Ελευσίνα,Greece,"{'brand': 'sklavenitis', 'fascia': 'sklavenitis', 'category': 'Retail', 'edit_date': '2025-05-10', 'lat_lon_source': 'Website'}",38.04642,23.54045,Sklavenitis Ελευσίνα,"{'opening_hours': {'Mon': '08:00-21:00', 'Tue': '08:00-21:00', 'Wed': '08:00-21:00', 'Thu': '08:00-21:00', 'Fri': '08:00-21:00', 'Sat': '08:00-20:00', 'Sun': 'Closed'}}","210 554 8342, ",192 00,884,Αττικής,https://www.sklavenitis.gr/about/katastimata
Supermarket  |  Ηρώων Πολυτεχνείου & Παγκάλου,Sklavenitis,Ελευσίνα,Greece,"{'brand': 'sklavenitis', 'fascia': 'sklavenitis', 'category': 'Retail', 'edit_date': '2025-05-10', 'lat_lon_source': 'Website'}",38.04345,23.54108,Sklavenitis Ελευσίνα,"{'opening_hours': {'Mon': '08:00-21:00', 'Tue': '08:00-21:00', 'Wed': '08:00-21:00', 'Thu': '08:00-21:00', 'Fri': '08:00-21:00', 'Sat': '08:00-20:00', 'Sun': 'Closed'}}","210 556 2116, ",192 00,683,Αττικής,https://www.sklavenitis.gr/about/katastimata
"Freshmarket  |  Τύχης 27, Μ. Γερουλάνου 132 & Αβέρωφ",Sklavenitis,Ελληνικό,Greece,"{'brand': 'sklavenitis', 'fascia': 'sklavenitis', 'category': 'Retail', 'edit_date': '2025-05-10', 'lat_lon_source': 'Website'}",37.89919,23.75019,Sklavenitis Ελληνικό,"{'opening_hours': {'Mon': '08:00-21:00', 'Tue': '08:00-21:00', 'Wed': '08:00-21:00', 'Thu': '08:00-21:00', 'Fri': '08:00-21:00', 'Sat': '08:00-20:00', 'Sun': 'Closed'}}",210 964 3373,167 77,633,Αττικής,https://www.sklavenitis.gr/about/katastimata
Freshmarket  |  Βλαχάκη 44,Sklavenitis,Ελληνορώσων,Greece,"{'brand': 'sklavenitis', 'fascia': 'sklavenitis', 'category': 'Retail', 'edit_date': '2025-05-10', 'lat_lon_source': 'Website'}",37.99668,23.77485,Sklavenitis Ελληνορώσων,"{'opening_hours': {'Mon': '08:00-21:00', 'Tue': '08:00-21:00', 'Wed': '08:00-21:00', 'Thu': '08:00-21:00', 'Fri': '08:00-21:00', 'Sat': '08:00-20:00', 'Sun': 'Closed'}}",210 671 0130,115 25,893,Αττικής,https://www.sklavenitis.gr/about/katastimata
Freshmarket  |  Χαρ. Τρικούπη 111-113,Sklavenitis,Εξάρχεια,Greece,"{'brand': 'sklavenitis', 'fascia': 'sklavenitis', 'category': 'Retail', 'edit_date': '2025-05-10', 'lat_lon_source': 'Website'}",37.98658,23.74034,Sklavenitis Εξάρχεια,"{'opening_hours': {'Mon': '08:00-21:00', 'Tue': '08:00-21:00', 'Wed': '08:00-21:00', 'Thu': '08:00-21:00', 'Fri': '08:00-21:00', 'Sat': '08:00-20:00', 'Sun': 'Closed'}}","210 384 2805, ",114 73,831,Αττικής,https://www.sklavenitis.gr/about/katastimata
Hypermarket  |  Περιφ. Οδός Νέας Ευκαρπίας – Θεσσαλονίκης,Sklavenitis,Ευκαρπία,Greece,"{'brand': 'sklavenitis', 'fascia': 'sklavenitis', 'category': 'Retail', 'edit_date': '2025-05-10', 'lat_lon_source': 'Website'}",40.67939,22.95701,Sklavenitis Ευκαρπία,"{'opening_hours': {'Mon': '08:00-21:00', 'Tue': '08:00-21:00', 'Wed': '08:00-21:00', 'Thu': '08:00-21:00', 'Fri': '08:00-21:00', 'Sat': '08:00-20:00', 'Sun': 'Closed'}}",231 069 1300,564 29,555,Θεσσαλονίκης,https://www.sklavenitis.gr/about/katastimata
Supermarket  |  Γρ. Λαμπράκη & Εθν. Αντιστάσεως,Sklavenitis,Εύοσμος,Greece,"{'brand': 'sklavenitis', 'fascia': 'sklavenitis', 'category': 'Retail', 'edit_date': '2025-05-10', 'lat_lon_source': 'Website'}",40.67439,22.91795,Sklavenitis Εύοσμος,"{'opening_hours': {'Mon': '08:00-21:00', 'Tue': '08:00-21:00', 'Wed': '08:00-21:00', 'Thu': '08:00-21:00', 'Fri': '08:00-21:00', 'Sat': '08:00-20:00', 'Sun': 'Closed'}}","231 058 7420, ",562 24,684,Θεσσαλονίκης,https://www.sklavenitis.gr/about/katastimata
"Supermarket  |  Παπαφλέσσα, Παν. Γρηγορούσης & Τζαβέλλα",Sklavenitis,Ζεφύρι,Greece,"{'brand': 'sklavenitis', 'fascia': 'sklavenitis', 'category': 'Retail', 'edit_date': '2025-05-10', 'lat_lon_source': 'Website'}",38.06621,23.71482,Sklavenitis Ζεφύρι,"{'opening_hours': {'Mon': '08:00-21:00', 'Tue': '08:00-21:00', 'Wed': '08:00-21:00', 'Thu': '08:00-21:00', 'Fri': '08:00-21:00', 'Sat': '08:00-20:00', 'Sun': 'Closed'}}","210 238 9490, ",134 51,731,Αττικής,https://www.sklavenitis.gr/about/katastimata
Freshmarket  |  Γ. Παπανδρέου 52-54,Sklavenitis,Ζωγράφου,Greece,"{'brand': 'sklavenitis', 'fascia': 'sklavenitis', 'category': 'Retail', 'edit_date': '2025-05-10', 'lat_lon_source': 'Website'}",37.98077,23.76771,Sklavenitis Ζωγράφου,"{'opening_hours': {'Mon': '08:00-21:00', 'Tue': '08:00-21:00', 'Wed': '08:00-21:00', 'Thu': '08:00-21:00', 'Fri': '08:00-21:00', 'Sat': '08:00-20:00', 'Sun': 'Closed'}}",210 775 4604,157 73,885,Αττικής,https://www.sklavenitis.gr/about/katastimata
Supermarket  |  Ούλωφ  Πάλμε 24,Sklavenitis,Ζωγράφου,Greece,"{'brand': 'sklavenitis', 'fascia': 'sklavenitis', 'category': 'Retail', 'edit_date': '2025-05-10', 'lat_lon_source': 'Website'}",37.97682,23.76174,Sklavenitis Ζωγράφου,"{'opening_hours': {'Mon': '08:00-21:00', 'Tue': '08:00-21:00', 'Wed': '08:00-21:00', 'Thu': '08:00-21:00', 'Fri': '08:00-21:00', 'Sat': '08:00-20:00', 'Sun': 'Closed'}}","210 775 0712, ",157 71,914,Αττικής,https://www.sklavenitis.gr/about/katastimata
Self-service  |  Γρ. Αυξεντίου 190,Sklavenitis,Ζωγράφου,Greece,"{'brand': 'sklavenitis', 'fascia': 'sklavenitis', 'category': 'Retail', 'edit_date': '2025-05-10', 'lat_lon_source': 'Website'}",37.97113,23.77529,Sklavenitis Ζωγράφου,"{'opening_hours': {'Mon': '08:00-21:00', 'Tue': '08:00-21:00', 'Wed': '08:00-21:00', 'Thu': '08:00-21:00', 'Fri': '08:00-21:00', 'Sat': '08:00-20:00', 'Sun': 'Closed'}}",210 771 2676,157 72,934,Αττικής,https://www.sklavenitis.gr/about/katastimata
Supermarket  |  3ο χλμ. Ε.Ο. Ηγουμενίτσας–Ιωαννίνων,Sklavenitis,Ηγουμενίτσα,Greece,"{'brand': 'sklavenitis', 'fascia': 'sklavenitis', 'category': 'Retail', 'edit_date': '2025-05-10', 'lat_lon_source': 'Website'}",39.52982,20.26617,Sklavenitis Ηγουμενίτσα,"{'opening_hours': {'Mon': '08:00-21:00', 'Tue': '08:00-21:00', 'Wed': '08:00-21:00', 'Thu': '08:00-21:00', 'Fri': '08:00-21:00', 'Sat': '08:00-20:00', 'Sun': 'Closed'}}",266 502 9041,461 00,630,Θεσπρωτίας,https://www.sklavenitis.gr/about/katastimata
Freshmarket  |  Κυπρίων Ηρώων 77 & Πραξιτέλους,Sklavenitis,Ηλιούπολη,Greece,"{'brand': 'sklavenitis', 'fascia': 'sklavenitis', 'category': 'Retail', 'edit_date': '2025-05-10', 'lat_lon_source': 'Website'}",37.92006,23.75076,Sklavenitis Ηλιούπολη,"{'opening_hours': {'Mon': '08:00-21:00', 'Tue': '08:00-21:00', 'Wed': '08:00-21:00', 'Thu': '08:00-21:00', 'Fri': '08:00-21:00', 'Sat': '08:00-20:00', 'Sun': 'Closed'}}",210 995 9402,163 41,969,Αττικής,https://www.sklavenitis.gr/about/katastimata
Supermarket  |  Μαρ. Αντύπα 36 & Αστυδάμαντος,Sklavenitis,Ηλιούπολη,Greece,"{'brand': 'sklavenitis', 'fascia': 'sklavenitis', 'category': 'Retail', 'edit_date': '2025-05-10', 'lat_lon_source': 'Website'}",37.94278,23.74884,Sklavenitis Ηλιούπολη,"{'opening_hours': {'Mon': '08:00-21:00', 'Tue': '08:00-21:00', 'Wed': '08:00-21:00', 'Thu': '08:00-21:00', 'Fri': '08:00-21:00', 'Sat': '08:00-20:00', 'Sun': 'Closed'}}",210 976 6801,163 46,843,Αττικής,https://www.sklavenitis.gr/about/katastimata
"Hypermarket  |  Α. Παπανδρέου 22,  Γάζι–Αμμουδαρά",Sklavenitis,Ηράκλειο,Greece,"{'brand': 'sklavenitis', 'fascia': 'sklavenitis', 'category': 'Retail', 'edit_date': '2025-05-10', 'lat_lon_source': 'Website'}",35.3341,25.09499,Sklavenitis Ηράκλειο,"{'opening_hours': {'Mon': '08:00-21:00', 'Tue': '08:00-21:00', 'Wed': '08:00-21:00', 'Thu': '08:00-21:00', 'Fri': '08:00-21:00', 'Sat': '08:00-20:00', 'Sun': 'Closed'}}",281 037 7800,714 14,557,Ηρακλείου,https://www.sklavenitis.gr/about/katastimata
Supermarket  |  Ιερολοχιτών & Σμπώκου,Sklavenitis,Ηράκλειο,Greece,"{'brand': 'sklavenitis', 'fascia': 'sklavenitis', 'category': 'Retail', 'edit_date': '2025-05-10', 'lat_lon_source': 'Website'}",35.32698,25.13004,Sklavenitis Ηράκλειο,"{'opening_hours': {'Mon': '08:00-21:00', 'Tue': '08:00-21:00', 'Wed': '08:00-21:00', 'Thu': '08:00-21:00', 'Fri': '08:00-21:00', 'Sat': '08:00-20:00', 'Sun': 'Closed'}}",281 023 9009,713 05,602,Ηρακλείου,https://www.sklavenitis.gr/about/katastimata
Supermarket  |  Μελίνας Μερκούρη 17,Sklavenitis,Ηράκλειο,Greece,"{'brand': 'sklavenitis', 'fascia': 'sklavenitis', 'category': 'Retail', 'edit_date': '2025-05-10', 'lat_lon_source': 'Website'}",35.32896,25.12755,Sklavenitis Ηράκλειο,"{'opening_hours': {'Mon': '08:00-21:00', 'Tue': '08:00-21:00', 'Wed': '08:00-21:00', 'Thu': '08:00-21:00', 'Fri': '08:00-21:00', 'Sat': '08:00-20:00', 'Sun': 'Closed'}}","281 031 8426, ",713 05,603,Ηρακλείου,https://www.sklavenitis.gr/about/katastimata
Supermarket +  |  Λεωφ. Κνωσού 86 & Αλεξάνδρειας,Sklavenitis,Ηράκλειο,Greece,"{'brand': 'sklavenitis', 'fascia': 'sklavenitis', 'category': 'Retail', 'edit_date': '2025-05-10', 'lat_lon_source': 'Website'}",35.32613,25.13854,Sklavenitis Ηράκλειο,"{'opening_hours': {'Mon': '08:00-21:00', 'Tue': '08:00-21:00', 'Wed': '08:00-21:00', 'Thu': '08:00-21:00', 'Fri': '08:00-21:00', 'Sat': '08:00-20:00', 'Sun': 'Closed'}}","281 032 5570, ",713 06,613,Ηρακλείου,https://www.sklavenitis.gr/about/katastimata
Supermarket  |  Μίνωος 65 & Μιχ. Αρχαγγέλου – Θέρισσος,Sklavenitis,Ηράκλειο,Greece,"{'brand': 'sklavenitis', 'fascia': 'sklavenitis', 'category': 'Retail', 'edit_date': '2025-05-10', 'lat_lon_source': 'Website'}",35.33519,25.12061,Sklavenitis Ηράκλειο,"{'opening_hours': {'Mon': '08:00-21:00', 'Tue': '08:00-21:00', 'Wed': '08:00-21:00', 'Thu': '08:00-21:00', 'Fri': '08:00-21:00', 'Sat': '08:00-20:00', 'Sun': 'Closed'}}","281 031 2961, ",713 04,604,Ηρακλείου,https://www.sklavenitis.gr/about/katastimata
Supermarket +  |  Λεωφ. Ικάρου & Λεωφ. Καζαντζίδη,Sklavenitis,Ηράκλειο,Greece,"{'brand': 'sklavenitis', 'fascia': 'sklavenitis', 'category': 'Retail', 'edit_date': '2025-05-10', 'lat_lon_source': 'Website'}",35.33881,25.15532,Sklavenitis Ηράκλειο,"{'opening_hours': {'Mon': '08:00-21:00', 'Tue': '08:00-21:00', 'Wed': '08:00-21:00', 'Thu': '08:00-21:00', 'Fri': '08:00-21:00', 'Sat': '08:00-20:00', 'Sun': 'Closed'}}","281 034 1631, ",716 01,664,Ηρακλείου,https://www.sklavenitis.gr/about/katastimata
Supermarket  |  Βασιλική Ταβάκη 25 & Τσαλδάρη,Sklavenitis,Θέρμη,Greece,"{'brand': 'sklavenitis', 'fascia': 'sklavenitis', 'category': 'Retail', 'edit_date': '2025-05-10', 'lat_lon_source': 'Website'}",40.54602,23.01921,Sklavenitis Θέρμη,"{'opening_hours': {'Mon': '08:00-21:00', 'Tue': '08:00-21:00', 'Wed': '08:00-21:00', 'Thu': '08:00-21:00', 'Fri': '08:00-21:00', 'Sat': '08:00-20:00', 'Sun': 'Closed'}}","231 048 7590, ",570 01,756,Θεσσαλονίκης,https://www.sklavenitis.gr/about/katastimata
Self-service  |  Παπαδάκη 20,Sklavenitis,Θεσσαλονίκη,Greece,"{'brand': 'sklavenitis', 'fascia': 'sklavenitis', 'category': 'Retail', 'edit_date': '2025-05-10', 'lat_lon_source': 'Website'}",40.59589,22.96033,Sklavenitis Θεσσαλονίκη,"{'opening_hours': {'Mon': '08:00-21:00', 'Tue': '08:00-21:00', 'Wed': '08:00-21:00', 'Thu': '08:00-21:00', 'Fri': '08:00-21:00', 'Sat': '08:00-20:00', 'Sun': 'Closed'}}",231 032 7710,542 48,977,Θεσσαλονίκης,https://www.sklavenitis.gr/about/katastimata
Supermarket  |  Μεγ. Αλεξάνδρου 3Α,Sklavenitis,Θεσσαλονίκη,Greece,"{'brand': 'sklavenitis', 'fascia': 'sklavenitis', 'category': 'Retail', 'edit_date': '2025-05-10', 'lat_lon_source': 'Website'}",40.59368,23.01091,Sklavenitis Θεσσαλονίκη,"{'opening_hours': {'Mon': '08:00-21:00', 'Tue': '08:00-21:00', 'Wed': '08:00-21:00', 'Thu': '08:00-21:00', 'Fri': '08:00-21:00', 'Sat': '08:00-20:00', 'Sun': 'Closed'}}","231 033 2672, ",552 36,800,Θεσσαλονίκης,https://www.sklavenitis.gr/about/katastimata
Supermarket  |  Λεωφ. Αναγεννήσεως 156,Sklavenitis,Θεσσαλονίκη,Greece,"{'brand': 'sklavenitis', 'fascia': 'sklavenitis', 'category': 'Retail', 'edit_date': '2025-05-10', 'lat_lon_source': 'Website'}",40.68228,22.93038,Sklavenitis Θεσσαλονίκη,"{'opening_hours': {'Mon': '08:00-21:00', 'Tue': '08:00-21:00', 'Wed': '08:00-21:00', 'Thu': '08:00-21:00', 'Fri': '08:00-21:00', 'Sat': '08:00-20:00', 'Sun': 'Closed'}}","231 068 8403, ",562 24,722,Θεσσαλονίκης,https://www.sklavenitis.gr/about/katastimata
Freshmarket  |  Δελφών 75 & Ορέστου,Sklavenitis,Θεσσαλονίκη,Greece,"{'brand': 'sklavenitis', 'fascia': 'sklavenitis', 'category': 'Retail', 'edit_date': '2025-05-10', 'lat_lon_source': 'Website'}",40.60948,22.95752,Sklavenitis Θεσσαλονίκη,"{'opening_hours': {'Mon': '08:00-21:00', 'Tue': '08:00-21:00', 'Wed': '08:00-21:00', 'Thu': '08:00-21:00', 'Fri': '08:00-21:00', 'Sat': '08:00-20:00', 'Sun': 'Closed'}}","231 084 0546, ",546 42,744,Θεσσαλονίκης,https://www.sklavenitis.gr/about/katastimata
Hypermarket  |  Γιαννιτσών & Κωλέττη,Sklavenitis,Θεσσαλονίκη,Greece,"{'brand': 'sklavenitis', 'fascia': 'sklavenitis', 'category': 'Retail', 'edit_date': '2025-05-10', 'lat_lon_source': 'Website'}",40.64739,22.9202,Sklavenitis Θεσσαλονίκη,"{'opening_hours': {'Mon': '08:00-21:00', 'Tue': '08:00-21:00', 'Wed': '08:00-21:00', 'Thu': '08:00-21:00', 'Fri': '08:00-21:00', 'Sat': '08:00-20:00', 'Sun': 'Closed'}}",231 054 9500,546 27,568,Θεσσαλονίκης,https://www.sklavenitis.gr/about/katastimata
Supermarket +  |  Λαγκαδά 11,Sklavenitis,Θεσσαλονίκη,Greece,"{'brand': 'sklavenitis', 'fascia': 'sklavenitis', 'category': 'Retail', 'edit_date': '2025-05-10', 'lat_lon_source': 'Website'}",40.64226,22.93525,Sklavenitis Θεσσαλονίκη,"{'opening_hours': {'Mon': '08:00-21:00', 'Tue': '08:00-21:00', 'Wed': '08:00-21:00', 'Thu': '08:00-21:00', 'Fri': '08:00-21:00', 'Sat': '08:00-20:00', 'Sun': 'Closed'}}",231 053 2828,546 29,590,Θεσσαλονίκης,https://www.sklavenitis.gr/about/katastimata
Supermarket  |  Βασ. Όλγας 9 – Φάληρο,Sklavenitis,Θεσσαλονίκη,Greece,"{'brand': 'sklavenitis', 'fascia': 'sklavenitis', 'category': 'Retail', 'edit_date': '2025-05-10', 'lat_lon_source': 'Website'}",40.61689,22.95463,Sklavenitis Θεσσαλονίκη,"{'opening_hours': {'Mon': '08:00-21:00', 'Tue': '08:00-21:00', 'Wed': '08:00-21:00', 'Thu': '08:00-21:00', 'Fri': '08:00-21:00', 'Sat': '08:00-20:00', 'Sun': 'Closed'}}",231 082 8787,546 40,591,Θεσσαλονίκης,https://www.sklavenitis.gr/about/katastimata
Supermarket  |  Κωνσταντινουπόλεως 55 & Ψαρρών,Sklavenitis,Θεσσαλονίκη,Greece,"{'brand': 'sklavenitis', 'fascia': 'sklavenitis', 'category': 'Retail', 'edit_date': '2025-05-10', 'lat_lon_source': 'Website'}",40.61082,22.96184,Sklavenitis Θεσσαλονίκη,"{'opening_hours': {'Mon': '08:00-21:00', 'Tue': '08:00-21:00', 'Wed': '08:00-21:00', 'Thu': '08:00-21:00', 'Fri': '08:00-21:00', 'Sat': '08:00-20:00', 'Sun': 'Closed'}}",231 086 5036,546 42,601,Θεσσαλονίκης,https://www.sklavenitis.gr/about/katastimata
Supermarket  |  Πανταζίδου 4 & Μανδηλαρά,Sklavenitis,Θεσσαλονίκη,Greece,"{'brand': 'sklavenitis', 'fascia': 'sklavenitis', 'category': 'Retail', 'edit_date': '2025-05-10', 'lat_lon_source': 'Website'}",40.61191,22.98252,Sklavenitis Θεσσαλονίκη,"{'opening_hours': {'Mon': '08:00-21:00', 'Tue': '08:00-21:00', 'Wed': '08:00-21:00', 'Thu': '08:00-21:00', 'Fri': '08:00-21:00', 'Sat': '08:00-20:00', 'Sun': 'Closed'}}","231 090 8816, ",543 52,636,Θεσσαλονίκης,https://www.sklavenitis.gr/about/katastimata
Supermarket  |  Αγίου Δημητρίου 156,Sklavenitis,Θεσσαλονίκη,Greece,"{'brand': 'sklavenitis', 'fascia': 'sklavenitis', 'category': 'Retail', 'edit_date': '2025-05-10', 'lat_lon_source': 'Website'}",40.6356,22.95354,Sklavenitis Θεσσαλονίκη,"{'opening_hours': {'Mon': '08:00-21:00', 'Tue': '08:00-21:00', 'Wed': '08:00-21:00', 'Thu': '08:00-21:00', 'Fri': '08:00-21:00', 'Sat': '08:00-20:00', 'Sun': 'Closed'}}","231 096 0978, ",546 35,801,Θεσσαλονίκης,https://www.sklavenitis.gr/about/katastimata
Supermarket  |  Δελφών 19 & Ιλιάδος 3,Sklavenitis,Θεσσαλονίκη,Greece,"{'brand': 'sklavenitis', 'fascia': 'sklavenitis', 'category': 'Retail', 'edit_date': '2025-05-10', 'lat_lon_source': 'Website'}",40.61539,22.95817,Sklavenitis Θεσσαλονίκη,"{'opening_hours': {'Mon': '08:00-21:00', 'Tue': '08:00-21:00', 'Wed': '08:00-21:00', 'Thu': '08:00-21:00', 'Fri': '08:00-21:00', 'Sat': '08:00-20:00', 'Sun': 'Closed'}}",231 081 0108,546 41,975,Θεσσαλονίκης,https://www.sklavenitis.gr/about/katastimata
Freshmarket  |  Βασ. Όλγας 164,Sklavenitis,Θεσσαλονίκη,Greece,"{'brand': 'sklavenitis', 'fascia': 'sklavenitis', 'category': 'Retail', 'edit_date': '2025-05-10', 'lat_lon_source': 'Website'}",40.59881,22.95507,Sklavenitis Θεσσαλονίκη,"{'opening_hours': {'Mon': '08:00-21:00', 'Tue': '08:00-21:00', 'Wed': '08:00-21:00', 'Thu': '08:00-21:00', 'Fri': '08:00-21:00', 'Sat': '08:00-20:00', 'Sun': 'Closed'}}","231 041 5314, ",546 46,691,Θεσσαλονίκης,https://www.sklavenitis.gr/about/katastimata
Supermarket  |  Αλεξ. Σβώλου 33 & Δ. Γούναρη,Sklavenitis,Θεσσαλονίκη,Greece,"{'brand': 'sklavenitis', 'fascia': 'sklavenitis', 'category': 'Retail', 'edit_date': '2025-05-10', 'lat_lon_source': 'Website'}",40.63087,22.95049,Sklavenitis Θεσσαλονίκη,"{'opening_hours': {'Mon': '08:00-21:00', 'Tue': '08:00-21:00', 'Wed': '08:00-21:00', 'Thu': '08:00-21:00', 'Fri': '08:00-21:00', 'Sat': '08:00-20:00', 'Sun': 'Closed'}}",231 025 0361,546 22,692,Θεσσαλονίκης,https://www.sklavenitis.gr/about/katastimata
Supermarket  |  Θεοδ. Νάτσινα 52 – Χαριλάου,Sklavenitis,Θεσσαλονίκη,Greece,"{'brand': 'sklavenitis', 'fascia': 'sklavenitis', 'category': 'Retail', 'edit_date': '2025-05-10', 'lat_lon_source': 'Website'}",40.60409,22.96791,Sklavenitis Θεσσαλονίκη,"{'opening_hours': {'Mon': '08:00-21:00', 'Tue': '08:00-21:00', 'Wed': '08:00-21:00', 'Thu': '08:00-21:00', 'Fri': '08:00-21:00', 'Sat': '08:00-20:00', 'Sun': 'Closed'}}",231 030 2831,542 49,594,Θεσσαλονίκης,https://www.sklavenitis.gr/about/katastimata
Supermarket  |  Πινδάρου 108,Sklavenitis,Θήβα,Greece,"{'brand': 'sklavenitis', 'fascia': 'sklavenitis', 'category': 'Retail', 'edit_date': '2025-05-10', 'lat_lon_source': 'Website'}",38.32305,23.31795,Sklavenitis Θήβα,"{'opening_hours': {'Mon': '08:00-21:00', 'Tue': '08:00-21:00', 'Wed': '08:00-21:00', 'Thu': '08:00-21:00', 'Fri': '08:00-21:00', 'Sat': '08:00-20:00', 'Sun': 'Closed'}}","226 202 1942, ",322 00,776,Βοιωτίας,https://www.sklavenitis.gr/about/katastimata
Supermarket  |  Αυλίδος 72,Sklavenitis,Θήβα,Greece,"{'brand': 'sklavenitis', 'fascia': 'sklavenitis', 'category': 'Retail', 'edit_date': '2025-05-10', 'lat_lon_source': 'Website'}",38.3278,23.32897,Sklavenitis Θήβα,"{'opening_hours': {'Mon': '08:00-21:00', 'Tue': '08:00-21:00', 'Wed': '08:00-21:00', 'Thu': '08:00-21:00', 'Fri': '08:00-21:00', 'Sat': '08:00-20:00', 'Sun': 'Closed'}}",226 208 0425,322 00,777,Βοιωτίας,https://www.sklavenitis.gr/about/katastimata
Self-service  |  Επαμεινώνδα 63,Sklavenitis,Θήβα,Greece,"{'brand': 'sklavenitis', 'fascia': 'sklavenitis', 'category': 'Retail', 'edit_date': '2025-05-10', 'lat_lon_source': 'Website'}",38.31882,23.31709,Sklavenitis Θήβα,"{'opening_hours': {'Mon': '08:00-21:00', 'Tue': '08:00-21:00', 'Wed': '08:00-21:00', 'Thu': '08:00-21:00', 'Fri': '08:00-21:00', 'Sat': '08:00-20:00', 'Sun': 'Closed'}}",226 208 0566,322 00,956,Βοιωτίας,https://www.sklavenitis.gr/about/katastimata
Supermarket  |  Κύπρου 21,Sklavenitis,Ιεράπετρα,Greece,"{'brand': 'sklavenitis', 'fascia': 'sklavenitis', 'category': 'Retail', 'edit_date': '2025-05-10', 'lat_lon_source': 'Website'}",35.00869,25.73518,Sklavenitis Ιεράπετρα,"{'opening_hours': {'Mon': '08:00-21:00', 'Tue': '08:00-21:00', 'Wed': '08:00-21:00', 'Thu': '08:00-21:00', 'Fri': '08:00-21:00', 'Sat': '08:00-20:00', 'Sun': 'Closed'}}","284 202 5817, ",722 00,718,Λασιθίου,https://www.sklavenitis.gr/about/katastimata
"Supermarket  |  Επαρχιακή Οδός Αγίου Νικολάου – Κεντρί, Ο.Τ. 281",Sklavenitis,Ιεράπετρα,Greece,"{'brand': 'sklavenitis', 'fascia': 'sklavenitis', 'category': 'Retail', 'edit_date': '2025-05-10', 'lat_lon_source': 'Website'}",35.01521,25.74538,Sklavenitis Ιεράπετρα,"{'opening_hours': {'Mon': '08:00-21:00', 'Tue': '08:00-21:00', 'Wed': '08:00-21:00', 'Thu': '08:00-21:00', 'Fri': '08:00-21:00', 'Sat': '08:00-20:00', 'Sun': 'Closed'}}","284 202 2601, ",722 00,753,Λασιθίου,https://www.sklavenitis.gr/about/katastimata
Hypermarket  |  Λεωφ. Δημοκρατίας 67Α,Sklavenitis,Ίλιον,Greece,"{'brand': 'sklavenitis', 'fascia': 'sklavenitis', 'category': 'Retail', 'edit_date': '2025-05-10', 'lat_lon_source': 'Website'}",38.04222,23.72591,Sklavenitis Ίλιον,"{'opening_hours': {'Mon': '08:00-21:00', 'Tue': '08:00-21:00', 'Wed': '08:00-21:00', 'Thu': '08:00-21:00', 'Fri': '08:00-21:00', 'Sat': '08:00-20:00', 'Sun': 'Closed'}}",210 237 0000 έως και 9,131 22,560,Αττικής,https://www.sklavenitis.gr/about/katastimata
Supermarket  |  Ιδομενέως 102,Sklavenitis,Ίλιον,Greece,"{'brand': 'sklavenitis', 'fascia': 'sklavenitis', 'category': 'Retail', 'edit_date': '2025-05-10', 'lat_lon_source': 'Website'}",38.03061,23.70307,Sklavenitis Ίλιον,"{'opening_hours': {'Mon': '08:00-21:00', 'Tue': '08:00-21:00', 'Wed': '08:00-21:00', 'Thu': '08:00-21:00', 'Fri': '08:00-21:00', 'Sat': '08:00-20:00', 'Sun': 'Closed'}}","210 262 2902, ",131 22,702,Αττικής,https://www.sklavenitis.gr/about/katastimata
Supermarket  |  Αγίου Νικολάου 38,Sklavenitis,Ίλιον,Greece,"{'brand': 'sklavenitis', 'fascia': 'sklavenitis', 'category': 'Retail', 'edit_date': '2025-05-10', 'lat_lon_source': 'Website'}",38.0407,23.70348,Sklavenitis Ίλιον,"{'opening_hours': {'Mon': '08:00-21:00', 'Tue': '08:00-21:00', 'Wed': '08:00-21:00', 'Thu': '08:00-21:00', 'Fri': '08:00-21:00', 'Sat': '08:00-20:00', 'Sun': 'Closed'}}",210 269 0980,131 23,705,Αττικής,https://www.sklavenitis.gr/about/katastimata
Supermarket  |  Ιλίου 11 & Ψαρρών,Sklavenitis,Ίλιον,Greece,"{'brand': 'sklavenitis', 'fascia': 'sklavenitis', 'category': 'Retail', 'edit_date': '2025-05-10', 'lat_lon_source': 'Website'}",38.03018,23.71397,Sklavenitis Ίλιον,"{'opening_hours': {'Mon': '08:00-21:00', 'Tue': '08:00-21:00', 'Wed': '08:00-21:00', 'Thu': '08:00-21:00', 'Fri': '08:00-21:00', 'Sat': '08:00-20:00', 'Sun': 'Closed'}}",210 262 6456,131 22,835,Αττικής,https://www.sklavenitis.gr/about/katastimata
Supermarket  |  Θηβών 489 & Χ. Τρικούπη 2,Sklavenitis,Ίλιον,Greece,"{'brand': 'sklavenitis', 'fascia': 'sklavenitis', 'category': 'Retail', 'edit_date': '2025-05-10', 'lat_lon_source': 'Website'}",38.03025,23.70048,Sklavenitis Ίλιον,"{'opening_hours': {'Mon': '08:00-21:00', 'Tue': '08:00-21:00', 'Wed': '08:00-21:00', 'Thu': '08:00-21:00', 'Fri': '08:00-21:00', 'Sat': '08:00-20:00', 'Sun': 'Closed'}}","210 261 6476, ",131 23,870,Αττικής,https://www.sklavenitis.gr/about/katastimata
Supermarket  |  Παπαδιαμαντοπούλου 57,Sklavenitis,Ιλίσια,Greece,"{'brand': 'sklavenitis', 'fascia': 'sklavenitis', 'category': 'Retail', 'edit_date': '2025-05-10', 'lat_lon_source': 'Website'}",37.98033,23.75892,Sklavenitis Ιλίσια,"{'opening_hours': {'Mon': '08:00-21:00', 'Tue': '08:00-21:00', 'Wed': '08:00-21:00', 'Thu': '08:00-21:00', 'Fri': '08:00-21:00', 'Sat': '08:00-20:00', 'Sun': 'Closed'}}",210 771 4403,115 28,915,Αττικής,https://www.sklavenitis.gr/about/katastimata
Supermarket  |  Η. Τρίγκα 33,Sklavenitis,Ιτέα,Greece,"{'brand': 'sklavenitis', 'fascia': 'sklavenitis', 'category': 'Retail', 'edit_date': '2025-05-10', 'lat_lon_source': 'Website'}",38.43323,22.42374,Sklavenitis Ιτέα,"{'opening_hours': {'Mon': '08:00-21:00', 'Tue': '08:00-21:00', 'Wed': '08:00-21:00', 'Thu': '08:00-21:00', 'Fri': '08:00-21:00', 'Sat': '08:00-20:00', 'Sun': 'Closed'}}",226 503 5270,332 00,785,Φωκίδας,https://www.sklavenitis.gr/about/katastimata
Supermarket | Στρατηγού Ιωάννου Βογιάννου 29 & Μόσχως Τζαβέλλα,Sklavenitis,Ιωάννινα,Greece,"{'brand': 'sklavenitis', 'fascia': 'sklavenitis', 'category': 'Retail', 'edit_date': '2025-05-10', 'lat_lon_source': 'Website'}",39.65365,20.86061,Sklavenitis Ιωάννινα,"{'opening_hours': {'Mon': '08:00-21:00', 'Tue': '08:00-21:00', 'Wed': '08:00-21:00', 'Thu': '08:00-21:00', 'Fri': '08:00-21:00', 'Sat': '08:00-20:00', 'Sun': 'Closed'}}",265 102 8000,452 21,993,Ιωαννίνων,https://www.sklavenitis.gr/about/katastimata
Self-service  | Θωμά Πασχίδη 66-68,Sklavenitis,Ιωάννινα,Greece,"{'brand': 'sklavenitis', 'fascia': 'sklavenitis', 'category': 'Retail', 'edit_date': '2025-05-10', 'lat_lon_source': 'Website'}",39.68078,20.83307,Sklavenitis Ιωάννινα,"{'opening_hours': {'Mon': '08:00-21:00', 'Tue': '08:00-21:00', 'Wed': '08:00-21:00', 'Thu': '08:00-21:00', 'Fri': '08:00-21:00', 'Sat': '08:00-20:00', 'Sun': 'Closed'}}",265 103 2700,454 45,994,Ιωαννίνων,https://www.sklavenitis.gr/about/katastimata
Supermarket | Λεωφόρος Γεωργίου Παπανδρέου 64,Sklavenitis,Ιωάννινα,Greece,"{'brand': 'sklavenitis', 'fascia': 'sklavenitis', 'category': 'Retail', 'edit_date': '2025-05-10', 'lat_lon_source': 'Website'}",39.67446,20.84623,Sklavenitis Ιωάννινα,"{'opening_hours': {'Mon': '08:00-21:00', 'Tue': '08:00-21:00', 'Wed': '08:00-21:00', 'Thu': '08:00-21:00', 'Fri': '08:00-21:00', 'Sat': '08:00-20:00', 'Sun': 'Closed'}}",265 103 0330,454 44,995,Ιωαννίνων,https://www.sklavenitis.gr/about/katastimata
Supermarket | Παναγιώτη Ασημακόπουλου 27 & Ευαγόρα Παλληκαρίδη,Sklavenitis,Ιωάννινα,Greece,"{'brand': 'sklavenitis', 'fascia': 'sklavenitis', 'category': 'Retail', 'edit_date': '2025-05-10', 'lat_lon_source': 'Website'}",39.64247,20.84282,Sklavenitis Ιωάννινα,"{'opening_hours': {'Mon': '08:00-21:00', 'Tue': '08:00-21:00', 'Wed': '08:00-21:00', 'Thu': '08:00-21:00', 'Fri': '08:00-21:00', 'Sat': '08:00-20:00', 'Sun': 'Closed'}}",265 100 3600,455 00,996,Ιωαννίνων,https://www.sklavenitis.gr/about/katastimata
Supermarket+  |  Λεωφ. Γράμμου 69 & Δημοκρατίας,Sklavenitis,Ιωάννινα,Greece,"{'brand': 'sklavenitis', 'fascia': 'sklavenitis', 'category': 'Retail', 'edit_date': '2025-05-10', 'lat_lon_source': 'Website'}",39.68535,20.83258,Sklavenitis Ιωάννινα,"{'opening_hours': {'Mon': '08:00-21:00', 'Tue': '08:00-21:00', 'Wed': '08:00-21:00', 'Thu': '08:00-21:00', 'Fri': '08:00-21:00', 'Sat': '08:00-20:00', 'Sun': 'Closed'}}","265 102 1317, ",454 45,742,Ιωαννίνων,https://www.sklavenitis.gr/about/katastimata
Hypermarket  |  Λεωφόρος Σταύρου Νιάρχου 52,Sklavenitis,Ιωάννινα,Greece,"{'brand': 'sklavenitis', 'fascia': 'sklavenitis', 'category': 'Retail', 'edit_date': '2025-05-10', 'lat_lon_source': 'Website'}",39.63379,20.85039,Sklavenitis Ιωάννινα,"{'opening_hours': {'Mon': '08:00-21:00', 'Tue': '08:00-21:00', 'Wed': '08:00-21:00', 'Thu': '08:00-21:00', 'Fri': '08:00-21:00', 'Sat': '08:00-20:00', 'Sun': 'Closed'}}",265 105 0000,455 00,569,Ιωαννίνων,https://www.sklavenitis.gr/about/katastimata
Supermarket | Μιχαήλ Αγγέλου 53,Sklavenitis,Ιωάννινα,Greece,"{'brand': 'sklavenitis', 'fascia': 'sklavenitis', 'category': 'Retail', 'edit_date': '2025-05-10', 'lat_lon_source': 'Website'}",39.66608,20.84855,Sklavenitis Ιωάννινα,"{'opening_hours': {'Mon': '08:00-21:00', 'Tue': '08:00-21:00', 'Wed': '08:00-21:00', 'Thu': '08:00-21:00', 'Fri': '08:00-21:00', 'Sat': '08:00-20:00', 'Sun': 'Closed'}}",265 100 2600,453 33,988,Ιωαννίνων,https://www.sklavenitis.gr/about/katastimata
Freshmarket | Λεωφ. Δωδώνης 66,Sklavenitis,Ιωάννινα,Greece,"{'brand': 'sklavenitis', 'fascia': 'sklavenitis', 'category': 'Retail', 'edit_date': '2025-05-10', 'lat_lon_source': 'Website'}",39.6565,20.85014,Sklavenitis Ιωάννινα,"{'opening_hours': {'Mon': '08:00-21:00', 'Tue': '08:00-21:00', 'Wed': '08:00-21:00', 'Thu': '08:00-21:00', 'Fri': '08:00-21:00', 'Sat': '08:00-20:00', 'Sun': 'Closed'}}",265 100 2700,453 32,989,Ιωαννίνων,https://www.sklavenitis.gr/about/katastimata
Supermarket | Μ. Αλεξάνδρου 1 & Πετροπουλάκη 2,Sklavenitis,Ιωάννινα,Greece,"{'brand': 'sklavenitis', 'fascia': 'sklavenitis', 'category': 'Retail', 'edit_date': '2025-05-10', 'lat_lon_source': 'Website'}",39.66862,20.84229,Sklavenitis Ιωάννινα,"{'opening_hours': {'Mon': '08:00-21:00', 'Tue': '08:00-21:00', 'Wed': '08:00-21:00', 'Thu': '08:00-21:00', 'Fri': '08:00-21:00', 'Sat': '08:00-20:00', 'Sun': 'Closed'}}",265 100 2500,453 33,990,Ιωαννίνων,https://www.sklavenitis.gr/about/katastimata
Self-service | Βαλαωρίτου 14,Sklavenitis,Ιωάννινα,Greece,"{'brand': 'sklavenitis', 'fascia': 'sklavenitis', 'category': 'Retail', 'edit_date': '2025-05-10', 'lat_lon_source': 'Website'}",39.67014,20.84736,Sklavenitis Ιωάννινα,"{'opening_hours': {'Mon': '08:00-21:00', 'Tue': '08:00-21:00', 'Wed': '08:00-21:00', 'Thu': '08:00-21:00', 'Fri': '08:00-21:00', 'Sat': '08:00-20:00', 'Sun': 'Closed'}}",265 103 3000,453 33,991,Ιωαννίνων,https://www.sklavenitis.gr/about/katastimata
Supermarket | Εθνικής Αντίστασης 46,Sklavenitis,Ιωάννινα,Greece,"{'brand': 'sklavenitis', 'fascia': 'sklavenitis', 'category': 'Retail', 'edit_date': '2025-05-10', 'lat_lon_source': 'Website'}",39.63041,20.87811,Sklavenitis Ιωάννινα,"{'opening_hours': {'Mon': '08:00-21:00', 'Tue': '08:00-21:00', 'Wed': '08:00-21:00', 'Thu': '08:00-21:00', 'Fri': '08:00-21:00', 'Sat': '08:00-20:00', 'Sun': 'Closed'}}",265 109 1000,452 21,992,Ιωαννίνων,https://www.sklavenitis.gr/about/katastimata
Supermarket+  |  Αμύντα 8 - Δημοτική αγορά,Sklavenitis,Καβάλα,Greece,"{'brand': 'sklavenitis', 'fascia': 'sklavenitis', 'category': 'Retail', 'edit_date': '2025-05-10', 'lat_lon_source': 'Website'}",40.93807,24.41302,Sklavenitis Καβάλα,"{'opening_hours': {'Mon': '08:00-21:00', 'Tue': '08:00-21:00', 'Wed': '08:00-21:00', 'Thu': '08:00-21:00', 'Fri': '08:00-21:00', 'Sat': '08:00-20:00', 'Sun': 'Closed'}}","251 023 0352, ",653 02,574,Καβάλας,https://www.sklavenitis.gr/about/katastimata
Supermarket  |  Τενέδου 26 & Αργοναυτών,Sklavenitis,Καβάλα,Greece,"{'brand': 'sklavenitis', 'fascia': 'sklavenitis', 'category': 'Retail', 'edit_date': '2025-05-10', 'lat_lon_source': 'Website'}",40.92904,24.39102,Sklavenitis Καβάλα,"{'opening_hours': {'Mon': '08:00-21:00', 'Tue': '08:00-21:00', 'Wed': '08:00-21:00', 'Thu': '08:00-21:00', 'Fri': '08:00-21:00', 'Sat': '08:00-20:00', 'Sun': 'Closed'}}","251 060 0357, ",654 04,759,Καβάλας,https://www.sklavenitis.gr/about/katastimata
Supermarket  |  Εθν. Αντιστάσεως 99 -103 & Κλαζομενών 21,Sklavenitis,Καισαριανή,Greece,"{'brand': 'sklavenitis', 'fascia': 'sklavenitis', 'category': 'Retail', 'edit_date': '2025-05-10', 'lat_lon_source': 'Website'}",37.96799,23.76081,Sklavenitis Καισαριανή,"{'opening_hours': {'Mon': '08:00-21:00', 'Tue': '08:00-21:00', 'Wed': '08:00-21:00', 'Thu': '08:00-21:00', 'Fri': '08:00-21:00', 'Sat': '08:00-20:00', 'Sun': 'Closed'}}","210 724 4546, ",161 21,855,Αττικής,https://www.sklavenitis.gr/about/katastimata
Supermarket  |  Αγ. Δημητρίου 46,Sklavenitis,Καλαμάκι,Greece,"{'brand': 'sklavenitis', 'fascia': 'sklavenitis', 'category': 'Retail', 'edit_date': '2025-05-10', 'lat_lon_source': 'Website'}",37.91379,23.72398,Sklavenitis Καλαμάκι,"{'opening_hours': {'Mon': '08:00-21:00', 'Tue': '08:00-21:00', 'Wed': '08:00-21:00', 'Thu': '08:00-21:00', 'Fri': '08:00-21:00', 'Sat': '08:00-20:00', 'Sun': 'Closed'}}",210 981 6030,174 55,907,Αττικής,https://www.sklavenitis.gr/about/katastimata
Supermarket  |  Λεωφ. Καλαμακίου 63,Sklavenitis,Καλαμάκι,Greece,"{'brand': 'sklavenitis', 'fascia': 'sklavenitis', 'category': 'Retail', 'edit_date': '2025-05-10', 'lat_lon_source': 'Website'}",37.91542,23.71712,Sklavenitis Καλαμάκι,"{'opening_hours': {'Mon': '08:00-21:00', 'Tue': '08:00-21:00', 'Wed': '08:00-21:00', 'Thu': '08:00-21:00', 'Fri': '08:00-21:00', 'Sat': '08:00-20:00', 'Sun': 'Closed'}}","210 988 9802, ",174 55,848,Αττικής,https://www.sklavenitis.gr/about/katastimata
Self-service | Θουκυδίδου 42,Sklavenitis,Καλαμάκι,Greece,"{'brand': 'sklavenitis', 'fascia': 'sklavenitis', 'category': 'Retail', 'edit_date': '2025-05-10', 'lat_lon_source': 'Website'}",37.91306,23.71194,Sklavenitis Καλαμάκι,"{'opening_hours': {'Mon': '08:00-21:00', 'Tue': '08:00-21:00', 'Wed': '08:00-21:00', 'Thu': '08:00-21:00', 'Fri': '08:00-21:00', 'Sat': '08:00-20:00', 'Sun': 'Closed'}}",210 985 1219,174 55,901,Αττικής,https://www.sklavenitis.gr/about/katastimata
Supermarket  |  Κ. Καραμανλή 12 & Κακουλίδη,Sklavenitis,Καλαμαριά,Greece,"{'brand': 'sklavenitis', 'fascia': 'sklavenitis', 'category': 'Retail', 'edit_date': '2025-05-10', 'lat_lon_source': 'Website'}",40.5685,22.971,Sklavenitis Καλαμαριά,"{'opening_hours': {'Mon': '08:00-21:00', 'Tue': '08:00-21:00', 'Wed': '08:00-21:00', 'Thu': '08:00-21:00', 'Fri': '08:00-21:00', 'Sat': '08:00-20:00', 'Sun': 'Closed'}}",231 045 2604,551 32,675,Θεσσαλονίκης,https://www.sklavenitis.gr/about/katastimata
Supermarket  |  Εθν. Αντιστάσεως 33 & Πλουτάρχου 82,Sklavenitis,Καλαμαριά,Greece,"{'brand': 'sklavenitis', 'fascia': 'sklavenitis', 'category': 'Retail', 'edit_date': '2025-05-10', 'lat_lon_source': 'Website'}",40.5867,22.96233,Sklavenitis Καλαμαριά,"{'opening_hours': {'Mon': '08:00-21:00', 'Tue': '08:00-21:00', 'Wed': '08:00-21:00', 'Thu': '08:00-21:00', 'Fri': '08:00-21:00', 'Sat': '08:00-20:00', 'Sun': 'Closed'}}","231 045 6911, ",551 34,680,Θεσσαλονίκης,https://www.sklavenitis.gr/about/katastimata
Supermarket  |  Ορσιλόχου 2 & Βασ. Γεωργίου (θέση Πηγαδίτσι–Φαραί),Sklavenitis,Καλαμάτα,Greece,"{'brand': 'sklavenitis', 'fascia': 'sklavenitis', 'category': 'Retail', 'edit_date': '2025-05-10', 'lat_lon_source': 'Website'}",37.03639,22.12392,Sklavenitis Καλαμάτα,"{'opening_hours': {'Mon': '08:00-21:00', 'Tue': '08:00-21:00', 'Wed': '08:00-21:00', 'Thu': '08:00-21:00', 'Fri': '08:00-21:00', 'Sat': '08:00-20:00', 'Sun': 'Closed'}}","272 108 1420, ",241 00,719,Μεσσηνίας,https://www.sklavenitis.gr/about/katastimata
Hypermarket  |  Αρτέμιδος 177 (θέση Γουλινίβες),Sklavenitis,Καλαμάτα,Greece,"{'brand': 'sklavenitis', 'fascia': 'sklavenitis', 'category': 'Retail', 'edit_date': '2025-05-10', 'lat_lon_source': 'Website'}",37.0325,22.10236,Sklavenitis Καλαμάτα,"{'opening_hours': {'Mon': '08:00-21:00', 'Tue': '08:00-21:00', 'Wed': '08:00-21:00', 'Thu': '08:00-21:00', 'Fri': '08:00-21:00', 'Sat': '08:00-20:00', 'Sun': 'Closed'}}","272 102 0145, ",241 00,579,Μεσσηνίας,https://www.sklavenitis.gr/about/katastimata
Supermarket  |  Ψαρρών 16 & Δημοσθένους 11,Sklavenitis,Καλαμάτα,Greece,"{'brand': 'sklavenitis', 'fascia': 'sklavenitis', 'category': 'Retail', 'edit_date': '2025-05-10', 'lat_lon_source': 'Website'}",37.03558,22.10958,Sklavenitis Καλαμάτα,"{'opening_hours': {'Mon': '08:00-21:00', 'Tue': '08:00-21:00', 'Wed': '08:00-21:00', 'Thu': '08:00-21:00', 'Fri': '08:00-21:00', 'Sat': '08:00-20:00', 'Sun': 'Closed'}}","272 109 4741, ",241 00,637,Μεσσηνίας,https://www.sklavenitis.gr/about/katastimata
Supermarket  |  Λεωφ. Αθηνών,Sklavenitis,Καλαμάτα,Greece,"{'brand': 'sklavenitis', 'fascia': 'sklavenitis', 'category': 'Retail', 'edit_date': '2025-05-10', 'lat_lon_source': 'Website'}",37.04307,22.09105,Sklavenitis Καλαμάτα,"{'opening_hours': {'Mon': '08:00-21:00', 'Tue': '08:00-21:00', 'Wed': '08:00-21:00', 'Thu': '08:00-21:00', 'Fri': '08:00-21:00', 'Sat': '08:00-20:00', 'Sun': 'Closed'}}",272 109 9103,241 00,936,Μεσσηνίας,https://www.sklavenitis.gr/about/katastimata
Supermarket  |  Γ. Μπουλούκου 21,Sklavenitis,Καλαμάτα,Greece,"{'brand': 'sklavenitis', 'fascia': 'sklavenitis', 'category': 'Retail', 'edit_date': '2025-05-10', 'lat_lon_source': 'Website'}",37.04226,22.10818,Sklavenitis Καλαμάτα,"{'opening_hours': {'Mon': '08:00-21:00', 'Tue': '08:00-21:00', 'Wed': '08:00-21:00', 'Thu': '08:00-21:00', 'Fri': '08:00-21:00', 'Sat': '08:00-20:00', 'Sun': 'Closed'}}","272 109 7183, ",241 00,627,Μεσσηνίας,https://www.sklavenitis.gr/about/katastimata
Supermarket  |  Γ. Ραμμίδη 14,Sklavenitis,Καλαμπάκα,Greece,"{'brand': 'sklavenitis', 'fascia': 'sklavenitis', 'category': 'Retail', 'edit_date': '2025-05-10', 'lat_lon_source': 'Website'}",39.70602,21.62771,Sklavenitis Καλαμπάκα,"{'opening_hours': {'Mon': '08:00-21:00', 'Tue': '08:00-21:00', 'Wed': '08:00-21:00', 'Thu': '08:00-21:00', 'Fri': '08:00-21:00', 'Sat': '08:00-20:00', 'Sun': 'Closed'}}",243 207 8503,422 00,799,Τρικάλων,https://www.sklavenitis.gr/about/katastimata
Supermarket  |  Αραπάκη 11,Sklavenitis,Καλλιθέα,Greece,"{'brand': 'sklavenitis', 'fascia': 'sklavenitis', 'category': 'Retail', 'edit_date': '2025-05-10', 'lat_lon_source': 'Website'}",37.95972,23.70611,Sklavenitis Καλλιθέα,"{'opening_hours': {'Mon': '08:00-21:00', 'Tue': '08:00-21:00', 'Wed': '08:00-21:00', 'Thu': '08:00-21:00', 'Fri': '08:00-21:00', 'Sat': '08:00-20:00', 'Sun': 'Closed'}}","210 957 7018, ",176 76,898,Αττικής,https://www.sklavenitis.gr/about/katastimata
Supermarket  |  Λεωφ. Ελ. Βενιζέλου 33,Sklavenitis,Καλλιθέα,Greece,"{'brand': 'sklavenitis', 'fascia': 'sklavenitis', 'category': 'Retail', 'edit_date': '2025-05-10', 'lat_lon_source': 'Website'}",37.96215,23.71218,Sklavenitis Καλλιθέα,"{'opening_hours': {'Mon': '08:00-21:00', 'Tue': '08:00-21:00', 'Wed': '08:00-21:00', 'Thu': '08:00-21:00', 'Fri': '08:00-21:00', 'Sat': '08:00-20:00', 'Sun': 'Closed'}}","210 956 4117, ",176 71,819,Αττικής,https://www.sklavenitis.gr/about/katastimata
Supermarket  |  Δημοσθένους 101,Sklavenitis,Καλλιθέα,Greece,"{'brand': 'sklavenitis', 'fascia': 'sklavenitis', 'category': 'Retail', 'edit_date': '2025-05-10', 'lat_lon_source': 'Website'}",37.95371,23.68665,Sklavenitis Καλλιθέα,"{'opening_hours': {'Mon': '08:00-21:00', 'Tue': '08:00-21:00', 'Wed': '08:00-21:00', 'Thu': '08:00-21:00', 'Fri': '08:00-21:00', 'Sat': '08:00-20:00', 'Sun': 'Closed'}}",210 958 1587,176 72,635,Αττικής,https://www.sklavenitis.gr/about/katastimata
Freshmarket  |  Λασκαρίδου 75-77,Sklavenitis,Καλλιθέα,Greece,"{'brand': 'sklavenitis', 'fascia': 'sklavenitis', 'category': 'Retail', 'edit_date': '2025-05-10', 'lat_lon_source': 'Website'}",37.95924,23.70278,Sklavenitis Καλλιθέα,"{'opening_hours': {'Mon': '08:00-21:00', 'Tue': '08:00-21:00', 'Wed': '08:00-21:00', 'Thu': '08:00-21:00', 'Fri': '08:00-21:00', 'Sat': '08:00-20:00', 'Sun': 'Closed'}}",210 956 0215,176 76,923,Αττικής,https://www.sklavenitis.gr/about/katastimata
"Hypermarket  |  Ευριπίδου 69, Αιγέως 31-35 & Ασκληπιού",Sklavenitis,Καλλιθέα,Greece,"{'brand': 'sklavenitis', 'fascia': 'sklavenitis', 'category': 'Retail', 'edit_date': '2025-05-10', 'lat_lon_source': 'Website'}",37.94829,23.68665,Sklavenitis Καλλιθέα,"{'opening_hours': {'Mon': '08:00-21:00', 'Tue': '08:00-21:00', 'Wed': '08:00-21:00', 'Thu': '08:00-21:00', 'Fri': '08:00-21:00', 'Sat': '08:00-20:00', 'Sun': 'Closed'}}","210 941 4941, ",176 75,847,Αττικής,https://www.sklavenitis.gr/about/katastimata
Supermarket  |  Λυκούργου 176,Sklavenitis,Καλλιθέα,Greece,"{'brand': 'sklavenitis', 'fascia': 'sklavenitis', 'category': 'Retail', 'edit_date': '2025-05-10', 'lat_lon_source': 'Website'}",37.95472,23.69361,Sklavenitis Καλλιθέα,"{'opening_hours': {'Mon': '08:00-21:00', 'Tue': '08:00-21:00', 'Wed': '08:00-21:00', 'Thu': '08:00-21:00', 'Fri': '08:00-21:00', 'Sat': '08:00-20:00', 'Sun': 'Closed'}}",210 957 8848,176 75,899,Αττικής,https://www.sklavenitis.gr/about/katastimata
Supermarket  |  Ηρακλέους 235-239,Sklavenitis,Καλλιθέα,Greece,"{'brand': 'sklavenitis', 'fascia': 'sklavenitis', 'category': 'Retail', 'edit_date': '2025-05-10', 'lat_lon_source': 'Website'}",37.94612,23.69763,Sklavenitis Καλλιθέα,"{'opening_hours': {'Mon': '08:00-21:00', 'Tue': '08:00-21:00', 'Wed': '08:00-21:00', 'Thu': '08:00-21:00', 'Fri': '08:00-21:00', 'Sat': '08:00-20:00', 'Sun': 'Closed'}}",210 940 8770,176 74,620,Αττικής,https://www.sklavenitis.gr/about/katastimata
Supermarket  |  Ηροδότου 113 & Αγ. Μαρίνας,Sklavenitis,Καλλίπολη,Greece,"{'brand': 'sklavenitis', 'fascia': 'sklavenitis', 'category': 'Retail', 'edit_date': '2025-05-10', 'lat_lon_source': 'Website'}",37.93069,23.63624,Sklavenitis Καλλίπολη,"{'opening_hours': {'Mon': '08:00-21:00', 'Tue': '08:00-21:00', 'Wed': '08:00-21:00', 'Thu': '08:00-21:00', 'Fri': '08:00-21:00', 'Sat': '08:00-20:00', 'Sun': 'Closed'}}",210 452 0554,185 39,828,Αττικής,https://www.sklavenitis.gr/about/katastimata
Supermarket  |  Ρήγα Φεραίου & Θεμιστοκλέους,Sklavenitis,Καλύβια,Greece,"{'brand': 'sklavenitis', 'fascia': 'sklavenitis', 'category': 'Retail', 'edit_date': '2025-05-10', 'lat_lon_source': 'Website'}",37.8441,23.927,Sklavenitis Καλύβια,"{'opening_hours': {'Mon': '08:00-21:00', 'Tue': '08:00-21:00', 'Wed': '08:00-21:00', 'Thu': '08:00-21:00', 'Fri': '08:00-21:00', 'Sat': '08:00-20:00', 'Sun': 'Closed'}}","229 906 1143, ",190 10,795,Αττικής,https://www.sklavenitis.gr/about/katastimata
Freshmarket  |  Καμάρες Αιγιαλείας,Sklavenitis,Καμάρες Αιγιαλείας,Greece,"{'brand': 'sklavenitis', 'fascia': 'sklavenitis', 'category': 'Retail', 'edit_date': '2025-05-10', 'lat_lon_source': 'Website'}",38.29789,22.0011,Sklavenitis Καμάρες Αιγιαλείας,"{'opening_hours': {'Mon': '08:00-21:00', 'Tue': '08:00-21:00', 'Wed': '08:00-21:00', 'Thu': '08:00-21:00', 'Fri': '08:00-21:00', 'Sat': '08:00-20:00', 'Sun': 'Closed'}}","269 103 2286, ",250 09,652,Αχαΐας,https://www.sklavenitis.gr/about/katastimata
Freshmarket  |  Καματερού 6 & Ολύμπου,Sklavenitis,Καματερό,Greece,"{'brand': 'sklavenitis', 'fascia': 'sklavenitis', 'category': 'Retail', 'edit_date': '2025-05-10', 'lat_lon_source': 'Website'}",38.0564,23.71251,Sklavenitis Καματερό,"{'opening_hours': {'Mon': '08:00-21:00', 'Tue': '08:00-21:00', 'Wed': '08:00-21:00', 'Thu': '08:00-21:00', 'Fri': '08:00-21:00', 'Sat': '08:00-20:00', 'Sun': 'Closed'}}",210 238 1776,134 51,676,Αττικής,https://www.sklavenitis.gr/about/katastimata
Supermarket +  |  Φυλής 217 ,Sklavenitis,Καματερό,Greece,"{'brand': 'sklavenitis', 'fascia': 'sklavenitis', 'category': 'Retail', 'edit_date': '2025-05-10', 'lat_lon_source': 'Website'}",38.0634,23.7138,Sklavenitis Καματερό,"{'opening_hours': {'Mon': '08:00-21:00', 'Tue': '08:00-21:00', 'Wed': '08:00-21:00', 'Thu': '08:00-21:00', 'Fri': '08:00-21:00', 'Sat': '08:00-20:00', 'Sun': 'Closed'}}","210 231 0130, ",134 51,865,Αττικής,https://www.sklavenitis.gr/about/katastimata
Supermarket +  |  Λεωφ. Αθηνών–Πειραιώς 87,Sklavenitis,Καμίνια,Greece,"{'brand': 'sklavenitis', 'fascia': 'sklavenitis', 'category': 'Retail', 'edit_date': '2025-05-10', 'lat_lon_source': 'Website'}",37.95094,23.66181,Sklavenitis Καμίνια,"{'opening_hours': {'Mon': '08:00-21:00', 'Tue': '08:00-21:00', 'Wed': '08:00-21:00', 'Thu': '08:00-21:00', 'Fri': '08:00-21:00', 'Sat': '08:00-20:00', 'Sun': 'Closed'}}","210 481 1000, ",185 41,825,Αττικής,https://www.sklavenitis.gr/about/katastimata
Supermarket  |  Πλατεία  Καπανδριτίου,Sklavenitis,Καπανδρίτι,Greece,"{'brand': 'sklavenitis', 'fascia': 'sklavenitis', 'category': 'Retail', 'edit_date': '2025-05-10', 'lat_lon_source': 'Website'}",38.21607,23.87696,Sklavenitis Καπανδρίτι,"{'opening_hours': {'Mon': '08:00-21:00', 'Tue': '08:00-21:00', 'Wed': '08:00-21:00', 'Thu': '08:00-21:00', 'Fri': '08:00-21:00', 'Sat': '08:00-20:00', 'Sun': 'Closed'}}","229 505 3474, ",190 14,886,Αττικής,https://www.sklavenitis.gr/about/katastimata
Supermarket+  |  1ο χλμ. Ε.Ο. Αθηνών–Καρδίτσας ,Sklavenitis,Καρδίτσα,Greece,"{'brand': 'sklavenitis', 'fascia': 'sklavenitis', 'category': 'Retail', 'edit_date': '2025-05-10', 'lat_lon_source': 'Website'}",39.3645,21.94361,Sklavenitis Καρδίτσα,"{'opening_hours': {'Mon': '08:00-21:00', 'Tue': '08:00-21:00', 'Wed': '08:00-21:00', 'Thu': '08:00-21:00', 'Fri': '08:00-21:00', 'Sat': '08:00-20:00', 'Sun': 'Closed'}}","244 104 7081, ",431 00,575,Καρδίτσας,https://www.sklavenitis.gr/about/katastimata
Supermarket+ | Λεωφόρος Δημοκρατίας 38,Sklavenitis,Καρδίτσα,Greece,"{'brand': 'sklavenitis', 'fascia': 'sklavenitis', 'category': 'Retail', 'edit_date': '2025-05-10', 'lat_lon_source': 'Website'}",39.3631,21.93211,Sklavenitis Καρδίτσα,"{'opening_hours': {'Mon': '08:00-21:00', 'Tue': '08:00-21:00', 'Wed': '08:00-21:00', 'Thu': '08:00-21:00', 'Fri': '08:00-21:00', 'Sat': '08:00-20:00', 'Sun': 'Closed'}}","244 107 2678, ",431 00,1012,Καρδίτσας,https://www.sklavenitis.gr/about/katastimata
Supermarket+  |  Τρικάλων 185,Sklavenitis,Καρδίτσα,Greece,"{'brand': 'sklavenitis', 'fascia': 'sklavenitis', 'category': 'Retail', 'edit_date': '2025-05-10', 'lat_lon_source': 'Website'}",39.37082,21.9167,Sklavenitis Καρδίτσα,"{'opening_hours': {'Mon': '08:00-21:00', 'Tue': '08:00-21:00', 'Wed': '08:00-21:00', 'Thu': '08:00-21:00', 'Fri': '08:00-21:00', 'Sat': '08:00-20:00', 'Sun': 'Closed'}}",244 104 7158,431 00,804,Καρδίτσας,https://www.sklavenitis.gr/about/katastimata
