[

][
﻿{"addr_full": "Γρ. Λαμπράκη  152-154", "brand": "Public", "city": "Πειραιάς", "country": "Ελλάδα", "extras": {"brand": "Public", "fascia": "Public", "category": "Retail", "edit_date": "20250511", "lat_lon_source": "Third Party"}, "lon": 23.648, "lat": 37.94, "name": "Public + Home Πειραιάς", "phone": "210 8181333", "postalCode": "18535", "ref": "7050", "state": "Athens", "website": null},
﻿{"addr_full": "Λεωφ. Μαραθώνος 149", "brand": "Public", "city": "Γέρακας", "country": "Ελλάδα", "extras": {"brand": "Public", "fascia": "Public", "category": "Retail", "edit_date": "20250511", "lat_lon_source": "Third Party"}, "lon": 23.8633358, "lat": 38.0076043, "name": "Public + home  Γέρακας", "phone": "210 8181333", "postalCode": "15344", "ref": "7504", "state": "Athens", "website": null},
﻿{"addr_full": "Λεωφ. Αθηνών 64, Αθήνα 121 36", "brand": "Public", "city": "Περιστέρι", "country": "Ελλάδα", "extras": {"brand": "Public", "fascia": "Public", "category": "Retail", "edit_date": "20250511", "lat_lon_source": "Third Party"}, "lon": 23.6853639, "lat": 38.0019715, "name": "Public + home  Περιστέρι", "phone": "210 8181333", "postalCode": "12136", "ref": "7508", "state": "Athens", "website": null},
﻿{"addr_full": "Πετρουπόλεως 41", "brand": "Public", "city": "Ίλιον", "country": "Ελλάδα", "extras": {"brand": "Public", "fascia": "Public", "category": "Retail", "edit_date": "20250511", "lat_lon_source": "Third Party"}, "lon": 23.697, "lat": 38.032, "name": "Public + home Ίλιον", "phone": "210 8181333", "postalCode": "13121", "ref": "7512", "state": "Athens", "website": null},
﻿{"addr_full": "Λέοντος 4 & Ελευθερίας ", "brand": "Public", "city": "Αργυρούπολη", "country": "Ελλάδα", "extras": {"brand": "Public", "fascia": "Public", "category": "Retail", "edit_date": "20250511", "lat_lon_source": "Third Party"}, "lon": 23.7431963, "lat": 37.9132545, "name": "Public + home Αργυρούπολη", "phone": "210 8181333", "postalCode": "16452", "ref": "7503", "state": "Athens", "website": null},
﻿{"addr_full": "Λεωφ. Κνωσού 172", "brand": "Public", "city": "Ηράκλειο Public + home", "country": "Ελλάδα", "extras": {"brand": "Public", "fascia": "Public", "category": "Retail", "edit_date": "20250511", "lat_lon_source": "Third Party"}, "lon": 25.145, "lat": 35.318, "name": "Public + home Ηράκλειο", "phone": null, "postalCode": "71409", "ref": "7513", "state": "Other", "website": null},
﻿{"addr_full": "Πυρσινέλλα 4 &  Γ. Μελανίδη", "brand": "Public", "city": "Ιωάννινα", "country": "Ελλάδα", "extras": {"brand": "Public", "fascia": "Public", "category": "Retail", "edit_date": "20250511", "lat_lon_source": "Third Party"}, "lon": 20.851, "lat": 39.663, "name": "Public + home Ιωάννινα", "phone": "210 8181333", "postalCode": "45221", "ref": "7060", "state": "Other", "website": null},
﻿{"addr_full": "Fashion City Outlet", "brand": "Public", "city": "Λάρισα", "country": "Ελλάδα", "extras": {"brand": "Public", "fascia": "Public", "category": "Retail", "edit_date": "20250511", "lat_lon_source": "Third Party"}, "lon": 22.4422897, "lat": 39.6064188, "name": "Public + home Λάρισα", "phone": "210 8181333", "postalCode": "41335", "ref": "7505", "state": "Other", "website": null},
﻿{"addr_full": "Λεωφ. Κηφισίας 49 ", "brand": "Public", "city": "Μαρούσι", "country": "Ελλάδα", "extras": {"brand": "Public", "fascia": "Public", "category": "Retail", "edit_date": "20250511", "lat_lon_source": "Third Party"}, "lon": 23.7972829, "lat": 38.0368649, "name": "Public + home Μαρούσι", "phone": "210 8181333", "postalCode": "15123", "ref": "7506", "state": "Athens", "website": null},
﻿{"addr_full": "Ακτή Δυμαίων 17", "brand": "Public", "city": "Πάτρα", "country": "Ελλάδα", "extras": {"brand": "Public", "fascia": "Public", "category": "Retail", "edit_date": "20250511", "lat_lon_source": "Third Party"}, "lon": 21.726, "lat": 38.238, "name": "Public + home Πάτρα", "phone": "210 8181333", "postalCode": "26221 ", "ref": "7507", "state": "Other", "website": null},
﻿{"addr_full": "Ποσειδώνος 30", "brand": "Public", "city": "Θεσσαλονίκη", "country": null, "extras": {"brand": "Public", "fascia": "Public", "category": "Retail", "edit_date": "20250511", "lat_lon_source": "Third Party"}, "lon": 22.97, "lat": 40.579, "name": "Public + home Πυλαία Ποσειδώνος ", "phone": "210 8181333", "postalCode": " 55535", "ref": "7509", "state": "Thessaloniki", "website": null},
﻿{"addr_full": "Λεωφ. Κηφισού 161 Αγ. Ι.Ρέντης", "brand": "Public", "city": "Αγ. Ι. Ρέντης", "country": "Ελλάδα", "extras": {"brand": "Public", "fascia": "Public", "category": "Retail", "edit_date": "20250511", "lat_lon_source": "Third Party"}, "lon": 23.675, "lat": 37.975, "name": "Public + home Ρέντης ", "phone": "210 8181333", "postalCode": "18233", "ref": "7501", "state": "Athens", "website": null},
﻿{"addr_full": "7ο χλμ. Εθνικής Οδού Ρόδου – Λίνδου", "brand": "Public", "city": "Ρόδος Public + home", "country": "Ελλάδα", "extras": {"brand": "Public", "fascia": "Public", "category": "Retail", "edit_date": "20250511", "lat_lon_source": "Third Party"}, "lon": 28.2008, "lat": 36.3999, "name": "Public + home Ρόδος", "phone": "210 8181333", "postalCode": "85150", "ref": "7511", "state": "Other", "website": null},
﻿{"addr_full": "Αυστραλίας 84-86  Νέα Μαρίνα", "brand": "Public", "city": "Ρόδος", "country": "Ελλάδα", "extras": {"brand": "Public", "fascia": "Public", "category": "Retail", "edit_date": "20250511", "lat_lon_source": "Third Party"}, "lon": 28.237, "lat": 36.437, "name": "Public + home Ρόδος - Νέα Μαρίνα", "phone": "2241025444", "postalCode": "85100", "ref": "7094", "state": "Other", "website": null},
﻿{"addr_full": "Νέα Δυτική Είσοδος Κωλέττη", "brand": "Public", "city": "Θεσσαλονίκη", "country": "Ελλάδα", "extras": {"brand": "Public", "fascia": "Public", "category": "Retail", "edit_date": "20250511", "lat_lon_source": "Third Party"}, "lon": 22.925, "lat": 40.647, "name": "Public + home Σταθμός", "phone": "210 8181333", "postalCode": "54627", "ref": "7510", "state": "Thessaloniki", "website": null},
﻿{"addr_full": "Λαγκαδά  341/Μίκη Θεοδωράκη 341", "brand": "Public", "city": "Θεσσαλονίκη", "country": "Ελλάδα", "extras": {"brand": "Public", "fascia": "Public", "category": "Retail", "edit_date": "20250511", "lat_lon_source": "Third Party"}, "lon": 22.936, "lat": 40.675, "name": "Public + home Σταυρούπολη", "phone": "210 8181333", "postalCode": "56430 ", "ref": "7247", "state": "Thessaloniki", "website": null},
﻿{"addr_full": "Λεωφ. Ανδρέα Συγγρού  340", "brand": "Public", "city": "Καλλιθέα ", "country": "Ελλάδα", "extras": {"brand": "Public", "fascia": "Public", "category": "Retail", "edit_date": "20250511", "lat_lon_source": "Third Party"}, "lon": 23.701, "lat": 37.945, "name": "Public + home Συγγρού", "phone": "210 8181333", "postalCode": "17673", "ref": "7248", "state": "Athens", "website": null},
﻿{"addr_full": "Λεωφόρος Βουλιαγμένης 276", "brand": "Public", "city": "Άγιος Δημήτριος", "country": "Ελλάδα", "extras": {"brand": "Public", "fascia": "Public", "category": "Retail", "edit_date": "20250511", "lat_lon_source": "Third Party"}, "lon": 23.739, "lat": 37.939, "name": "Public Athens Metro Mall", "phone": null, "postalCode": "17343", "ref": "7085", "state": "Athens", "website": null},
﻿{"addr_full": "Λεωφόρος Κηφισίας 37Α", "brand": "Public", "city": "Μαρούσι", "country": "Ελλάδα", "extras": {"brand": "Public", "fascia": "Public", "category": "Retail", "edit_date": "20250511", "lat_lon_source": "Third Party"}, "lon": 23.7938297, "lat": 38.0339043, "name": "Public GoldenHall", "phone": null, "postalCode": "15123", "ref": "7234", "state": "Athens", "website": null},
﻿{"addr_full": "Λεωφ. Κηφισού 161 Αγ. Ι.Ρέντης", "brand": "Public", "city": "Αγ. Ι. Ρέντης", "country": null, "extras": {"brand": "Public", "fascia": "Public", "category": "Retail", "edit_date": "20250511", "lat_lon_source": "Third Party"}, "lon": 23.6749054, "lat": 37.9753512, "name": "Public Outlet Ρέντης", "phone": null, "postalCode": "18233", "ref": null, "state": "Athens", "website": null},
﻿{"addr_full": "Ανδρέα Παπανδρέου  35", "brand": "Public", "city": "Μαρούσι", "country": "Ελλάδα", "extras": {"brand": "Public", "fascia": "Public", "category": "Retail", "edit_date": "20250511", "lat_lon_source": "Third Party"}, "lon": 23.79, "lat": 38.045, "name": "Public The Mall Athens", "phone": null, "postalCode": "15122", "ref": "7075", "state": "Athens", "website": null},
﻿{"addr_full": "Λεωφόρος Μεσογείων  402", "brand": "Public", "city": "Αγία Παρασκευή", "country": "Ελλάδα", "extras": {"brand": "Public", "fascia": "Public", "category": "Retail", "edit_date": "20250511", "lat_lon_source": "Third Party"}, "lon": 23.819, "lat": 38.013, "name": "Public Αγία Παρασκευή", "phone": "2106003118", "postalCode": "15342", "ref": "7090", "state": "Athens", "website": null},
﻿{"addr_full": "προσβάσιμο μόνο σε όσους ταξιδεύουν", "brand": "Public", "city": "Σπάτα", "country": "Ελλάδα", "extras": {"brand": "Public", "fascia": "Public", "category": "Retail", "edit_date": "20250511", "lat_lon_source": "Third Party"}, "lon": 23.948, "lat": 37.936, "name": "Public Αεροδρόμιο Ελ. Βενιζέλος", "phone": "2103533625 ", "postalCode": "19004", "ref": "7244", "state": "Athens", "website": null},
﻿{"addr_full": "Λεωφόρος Δημοκρατίας 210", "brand": "Public", "city": "Αλεξανδρούπολη", "country": "Ελλάδα", "extras": {"brand": "Public", "fascia": "Public", "category": "Retail", "edit_date": "20250511", "lat_lon_source": "Third Party"}, "lon": 25.877, "lat": 40.846, "name": "Public Αλεξανδρούπολη", "phone": "2551023251", "postalCode": "68100", "ref": "7236", "state": "Other", "website": null},
﻿{"addr_full": "Ογλ 28 & Ι. Κονταράτου 9", "brand": "Public", "city": "Βόλος", "country": "Ελλάδα", "extras": {"brand": "Public", "fascia": "Public", "category": "Retail", "edit_date": "20250511", "lat_lon_source": "Third Party"}, "lon": 22.951, "lat": 39.36, "name": "Public Βόλος", "phone": "2421022904", "postalCode": "38221", "ref": "7020", "state": "Other", "website": null},
﻿{"addr_full": "Σ. Καράγιωργα 4 & Λαζαράκη", "brand": "Public", "city": "Γλυφάδα", "country": "Ελλάδα", "extras": {"brand": "Public", "fascia": "Public", "category": "Retail", "edit_date": "20250511", "lat_lon_source": "Third Party"}, "lon": 23.745, "lat": 37.866, "name": "Public Γλυφάδα", "phone": "2108984300", "postalCode": "16675", "ref": "7080", "state": "Athens", "website": null},
﻿{"addr_full": "Εθνικής Αμύνης 13", "brand": "Public", "city": "Δράμα", "country": "Ελλάδα", "extras": {"brand": "Public", "fascia": "Public", "category": "Retail", "edit_date": "20250511", "lat_lon_source": "Third Party"}, "lon": 24.145, "lat": 41.149, "name": "Public Δράμα", "phone": "2521038622", "postalCode": "66100", "ref": "7238", "state": "Other", "website": null},
﻿{"addr_full": "Ούλωφ Πάλμε 44", "brand": "Public", "city": "Ζωγράφου", "country": "Ελλάδα", "extras": {"brand": "Public", "fascia": "Public", "category": "Retail", "edit_date": "20250511", "lat_lon_source": "Third Party"}, "lon": 23.763, "lat": 37.979, "name": "Public Ζωγράφου", "phone": "2107777611", "postalCode": "15771", "ref": "7222", "state": "Athens", "website": null},
﻿{"addr_full": "Δαιδάλου 15", "brand": "Public", "city": "Ηράκλειο Κρήτης", "country": "Ελλάδα", "extras": {"brand": "Public", "fascia": "Public", "category": "Retail", "edit_date": "20250511", "lat_lon_source": "Third Party"}, "lon": 25.134, "lat": 35.339, "name": "Public Ηράκλειο Κρήτης", "phone": "2810301850", "postalCode": "71202", "ref": "7232", "state": "Other", "website": null},
﻿{"addr_full": "Ευγενίου Βουλγάρεως  82", "brand": "Public", "city": "Κέρκυρα", "country": "Ελλάδα", "extras": {"brand": "Public", "fascia": "Public", "category": "Retail", "edit_date": "20250511", "lat_lon_source": "Third Party"}, "lon": 19.921, "lat": 39.623, "name": "Public Κέρκυρα", "phone": "2661080362", "postalCode": "49100", "ref": "7028", "state": "Other", "website": null},
﻿{"addr_full": "Ομόνοιας  50", "brand": "Public", "city": "Καβάλα", "country": "Ελλάδα", "extras": {"brand": "Public", "fascia": "Public", "category": "Retail", "edit_date": "20250511", "lat_lon_source": "Third Party"}, "lon": 24.413, "lat": 40.937, "name": "Public Καβάλα", "phone": "2510620477", "postalCode": "65302", "ref": "7230", "state": "Other", "website": null},
﻿{"addr_full": "Αριστομένους  16", "brand": "Public", "city": "Καλαμάτα", "country": "Ελλάδα", "extras": {"brand": "Public", "fascia": "Public", "category": "Retail", "edit_date": "20250511", "lat_lon_source": "Third Party"}, "lon": 22.11, "lat": 37.042, "name": "Public Καλαμάτα", "phone": "2721080921", "postalCode": "24100", "ref": "7024", "state": "Other", "website": null},
﻿{"addr_full": "Ανδρούτσου & Ερμού  5", "brand": "Public", "city": "Κατερίνη", "country": "Ελλάδα", "extras": {"brand": "Public", "fascia": "Public", "category": "Retail", "edit_date": "20250511", "lat_lon_source": "Third Party"}, "lon": 22.504, "lat": 40.271, "name": "Public Κατερίνη", "phone": "2351046908", "postalCode": "60100", "ref": "7208", "state": "Other", "website": null},
﻿{"addr_full": "Ειρήνης 5 &  Δρίζη", "brand": "Public", "city": "Κοζάνη", "country": "Ελλάδα", "extras": {"brand": "Public", "fascia": "Public", "category": "Retail", "edit_date": "20250511", "lat_lon_source": "Third Party"}, "lon": 21.787, "lat": 40.301, "name": "Public Κοζάνη", "phone": "2461050091", "postalCode": "50100", "ref": "7220", "state": "Other", "website": null},
﻿{"addr_full": "Αγ.Γεωργίου  3", "brand": "Public", "city": "Κομοτηνή", "country": "Ελλάδα", "extras": {"brand": "Public", "fascia": "Public", "category": "Retail", "edit_date": "20250511", "lat_lon_source": "Third Party"}, "lon": 25.403, "lat": 41.117, "name": "Public Κομοτηνή", "phone": "2531083600", "postalCode": "69100", "ref": "7233", "state": "Other", "website": null},
﻿{"addr_full": "Πλατεία Ελευθερίας  10", "brand": "Public", "city": "Κορυδαλλός", "country": "Ελλάδα", "extras": {"brand": "Public", "fascia": "Public", "category": "Retail", "edit_date": "20250511", "lat_lon_source": "Third Party"}, "lon": 23.651, "lat": 37.98, "name": "Public Κορυδαλλός", "phone": "2104966983", "postalCode": "18120", "ref": "7231", "state": "Athens", "website": null},
﻿{"addr_full": "Δαμασκηνού  45", "brand": "Public", "city": "Κόρινθος", "country": "Ελλάδα", "extras": {"brand": "Public", "fascia": "Public", "category": "Retail", "edit_date": "20250511", "lat_lon_source": "Third Party"}, "lon": 22.932, "lat": 37.94, "name": "Public Κόρινθος", "phone": "2741074340", "postalCode": "20100", "ref": "7226", "state": "Other", "website": null},
﻿{"addr_full": "Κούμα  6", "brand": "Public", "city": "Λάρισα", "country": "Ελλάδα", "extras": {"brand": "Public", "fascia": "Public", "category": "Retail", "edit_date": "20250511", "lat_lon_source": "Third Party"}, "lon": 22.416, "lat": 39.638, "name": "Public Λάρισα", "phone": "2410259699", "postalCode": "41222", "ref": "7242", "state": "Other", "website": null},
﻿{"addr_full": "Πλατεία Πάρκου  11-13", "brand": "Public", "city": "Λαμία", "country": "Ελλάδα", "extras": {"brand": "Public", "fascia": "Public", "category": "Retail", "edit_date": "20250511", "lat_lon_source": "Third Party"}, "lon": 22.433, "lat": 38.899, "name": "Public Λαμία", "phone": "2231030022", "postalCode": "35100", "ref": "7229", "state": "Other", "website": null},
﻿{"addr_full": "Αρχιπελάγους &  Σάμου", "brand": "Public", "city": "Μυτιλήνη", "country": "Ελλάδα", "extras": {"brand": "Public", "fascia": "Public", "category": "Retail", "edit_date": "20250511", "lat_lon_source": "Third Party"}, "lon": 26.558, "lat": 39.107, "name": "Public Μυτιλήνη", "phone": "2251025101", "postalCode": "81100", "ref": "7237", "state": "Other", "website": null},
﻿{"addr_full": "Χαριλάου Τρικούπη  123", "brand": "Public", "city": "Νέα Ερυθραία", "country": "Ελλάδα", "extras": {"brand": "Public", "fascia": "Public", "category": "Retail", "edit_date": "20250511", "lat_lon_source": "Third Party"}, "lon": 23.814, "lat": 38.088, "name": "Public ΝέαΕρυθραία", "phone": "2106257550", "postalCode": "14563", "ref": "7016", "state": "Athens", "website": null},
﻿{"addr_full": "Ελευθερίου Βενιζέλου 45", "brand": "Public", "city": "Αθήνα", "country": "Ελλάδα", "extras": {"brand": "Public", "fascia": "Public", "category": "Retail", "edit_date": "20250511", "lat_lon_source": "Third Party"}, "lon": 23.715, "lat": 37.949, "name": "Public ΝέαΣμύρνη", "phone": "2109355969", "postalCode": "17123", "ref": "7056", "state": "Athens", "website": null},
﻿{"addr_full": "Δαγκλή & Ελπίδος,  Cosmos Center", "brand": "Public", "city": "Ξάνθη", "country": "Ελλάδα", "extras": {"brand": "Public", "fascia": "Public", "category": "Retail", "edit_date": "20250511", "lat_lon_source": "Third Party"}, "lon": 24.888, "lat": 41.138, "name": "Public Ξάνθη", "phone": "2541084602", "postalCode": "67100", "ref": "7018", "state": "Other", "website": null},
﻿{"addr_full": "Κωνσταντινουπόλεως  185", "brand": "Public", "city": "Ορεστιάδα", "country": "Ελλάδα", "extras": {"brand": "Public", "fascia": "Public", "category": "Retail", "edit_date": "20250511", "lat_lon_source": "Third Party"}, "lon": 26.53, "lat": 41.501, "name": "Public Ορεστιάδα", "phone": "2552021403", "postalCode": "68200", "ref": "7204", "state": "Other", "website": null},
﻿{"addr_full": "Ερμού 55", "brand": "Public", "city": "Πάτρα", "country": "Ελλάδα", "extras": {"brand": "Public", "fascia": "Public", "category": "Retail", "edit_date": "20250511", "lat_lon_source": "Third Party"}, "lon": 21.734, "lat": 38.247, "name": "Public Πάτρα", "phone": "2610620112", "postalCode": "26221", "ref": "7008", "state": "Other", "website": null},
﻿{"addr_full": "Εθνικής Αντιστάσεως  27", "brand": "Public", "city": "Αθήνα", "country": "Ελλάδα", "extras": {"brand": "Public", "fascia": "Public", "category": "Retail", "edit_date": "20250511", "lat_lon_source": "Third Party"}, "lon": 23.694, "lat": 38.016, "name": "Public Περιστέρι", "phone": "2105758519", "postalCode": "12134", "ref": "7006", "state": "Athens", "website": null},
﻿{"addr_full": "Mediterranean Cosmos  ΕΟ Θεσ/νίκης", "brand": "Public", "city": "Θεσσαλονίκη", "country": "Ελλάδα", "extras": {"brand": "Public", "fascia": "Public", "category": "Retail", "edit_date": "20250511", "lat_lon_source": "Third Party"}, "lon": 22.993, "lat": 40.558, "name": "Public Πυλαία - Cosmos  ", "phone": "2310472633", "postalCode": "57001", "ref": "7001", "state": "Thessaloniki", "website": null},
﻿{"addr_full": "Μανωλοπούλου  4", "brand": "Public", "city": "Πύργος", "country": "Ελλάδα", "extras": {"brand": "Public", "fascia": "Public", "category": "Retail", "edit_date": "20250511", "lat_lon_source": "Third Party"}, "lon": 21.436, "lat": 37.673, "name": "Public Πύργος", "phone": "2621081818", "postalCode": "27100", "ref": "7240", "state": "Other", "website": null},
﻿{"addr_full": "Πλατεία  Αγνώστου Στρατιώτη", "brand": "Public", "city": "Ρέθυμνο", "country": "Ελλάδα", "extras": {"brand": "Public", "fascia": "Public", "category": "Retail", "edit_date": "20250511", "lat_lon_source": "Third Party"}, "lon": 24.48, "lat": 35.367, "name": "Public Ρέθυμνο", "phone": "2831052020", "postalCode": "74100", "ref": "7243", "state": "Other", "website": null},
﻿{"addr_full": "Τσαλοπούλου  9", "brand": "Public", "city": "Σέρρες", "country": "Ελλάδα", "extras": {"brand": "Public", "fascia": "Public", "category": "Retail", "edit_date": "20250511", "lat_lon_source": "Third Party"}, "lon": 23.55, "lat": 41.089, "name": "Public Σέρρες", "phone": "2321058533", "postalCode": "62122", "ref": "7241", "state": "Other", "website": null},
﻿{"addr_full": "Καραγεώργη Σερβίας 1", "brand": "Public", "city": "Αθήνα", "country": "Ελλάδα", "extras": {"brand": "Public", "fascia": "Public", "category": "Retail", "edit_date": "20250511", "lat_lon_source": "Third Party"}, "lon": 23.733, "lat": 37.979, "name": "Public Σύνταγμα", "phone": "2108181333", "postalCode": "10563", "ref": "7010", "state": "Athens", "website": null},
﻿{"addr_full": "Κανούτα 1 &  Βύρωνος", "brand": "Public", "city": "Τρίκαλα", "country": "Ελλάδα", "extras": {"brand": "Public", "fascia": "Public", "category": "Retail", "edit_date": "20250511", "lat_lon_source": "Third Party"}, "lon": 21.766, "lat": 39.555, "name": "Public Τρίκαλα", "phone": "2431027747", "postalCode": "42100", "ref": "7227", "state": "Other", "website": null},
﻿{"addr_full": "Τσιμισκή 24, Μητροπόλεως  33", "brand": "Public", "city": "Θεσσαλονίκη", "country": "Ελλάδα", "extras": {"brand": "Public", "fascia": "Public", "category": "Retail", "edit_date": "20250511", "lat_lon_source": "Third Party"}, "lon": 22.941, "lat": 40.633, "name": "Public Τσιμισκή", "phone": "2310227288", "postalCode": "54624", "ref": "7070", "state": "Thessaloniki", "website": null},
﻿{"addr_full": "Κριεζώτου 14", "brand": "Public", "city": "Χαλκίδα", "country": "Ελλάδα", "extras": {"brand": "Public", "fascia": "Public", "category": "Retail", "edit_date": "20250511", "lat_lon_source": "Third Party"}, "lon": 23.593, "lat": 38.464, "name": "Public Χαλκίδα", "phone": "2221079090", "postalCode": "34100", "ref": "7235", "state": "Other", "website": null},
﻿{"addr_full": "Χατζημιχάλη Γιάνναρη  40-42", "brand": "Public", "city": "Χανιά", "country": "Ελλάδα", "extras": {"brand": "Public", "fascia": "Public", "category": "Retail", "edit_date": "20250511", "lat_lon_source": "Third Party"}, "lon": 24.018, "lat": 35.514, "name": "Public Χανιά", "phone": "2821076720", "postalCode": "73100", "ref": "7026", "state": "Other", "website": null},
﻿{"addr_full": "Λεωφόρος Ευρωπαϊκής Ένωσης 5", "brand": "Public", "city": "Λάρνακα", "country": null, "extras": {"brand": "Public", "fascia": "Public", "category": "Retail", "edit_date": "20250511", "lat_lon_source": "Third Party"}, "lon": 32.463, "lat": 34.795, "name": "Public PCYΛάρνακα2 (Metropolis Mall)", "phone": null, "postalCode": "6043", "ref": "7150", "state": "Cyprus", "website": null},
﻿{"addr_full": "My Mall, Ζακάκι, Φρανγκλίνου Ρουζβελτ 285", "brand": "Public", "city": "Λεμεσός", "country": null, "extras": {"brand": "Public", "fascia": "Public", "category": "Retail", "edit_date": "20250511", "lat_lon_source": "Third Party"}, "lon": 32.997, "lat": 34.652, "name": "Public PCYΛεμεσός", "phone": null, "postalCode": "3150", "ref": "7120", "state": "Cyprus", "website": null},
﻿{"addr_full": "The Mall of Cyprus Βεργίνας 3 Στρόβολος", "brand": "Public", "city": "Λευκωσία", "country": "Κύπρος", "extras": {"brand": "Public", "fascia": "Public", "category": "Retail", "edit_date": "20250511", "lat_lon_source": "Third Party"}, "lon": 33.371, "lat": 35.13, "name": "Public PCYΛευκωσία1(Mall of Cyprus)", "phone": null, "postalCode": "2025", "ref": "7101", "state": "Cyprus", "website": null},
﻿{"addr_full": "Nicosia Mall Μαδρίτης 2 Λακατάμια", "brand": "Public", "city": "Λευκωσία", "country": "Κύπρος", "extras": {"brand": "Public", "fascia": "Public", "category": "Retail", "edit_date": "20250511", "lat_lon_source": "Third Party"}, "lon": 33.279, "lat": 35.135, "name": "Public PCYΛευκωσία2 (Nicosia Mall)", "phone": null, "postalCode": "2306", "ref": "7110", "state": "Cyprus", "website": null},
﻿{"addr_full": "Λεωφόρος Τάφοι Βασιλέων 2", "brand": "Public", "city": "Πάφο", "country": "Κύπρος", "extras": {"brand": "Public", "fascia": "Public", "category": "Retail", "edit_date": "20250511", "lat_lon_source": "Third Party"}, "lon": 32.412, "lat": 34.761, "name": "Public PCYΠάφος", "phone": null, "postalCode": "8046", "ref": "7104", "state": "Cyprus", "website": null},
﻿{"addr_full": "Λ. Γεωργίου Γουρουνιά (Γρίβα Διγενή) 152", "brand": "Public", "city": "Παραλίμνι", "country": "Κύπρος", "extras": {"brand": "Public", "fascia": "Public", "category": "Retail", "edit_date": "20250511", "lat_lon_source": "Third Party"}, "lon": 33.978, "lat": 35.048, "name": "Public PCYΠαραλίμνι", "phone": null, "postalCode": "5281", "ref": "7140", "state": "Cyprus", "website": null}
]