addr_full,brand,city,country,extras,lat,lon,name,opening_hours,phone,postcode,ref,state,website
東京都千代田区有楽町2-5-1<br>ルミネ有楽町店 ルミネ2 2F,UNITED ARROWS,関東,Japan,"{'brand': 'UNITED ARROWS', 'fascia': 'ユナイテッドアローズ', 'category': 'Fashion', 'edit_date': datetime.datetime(2025, 3, 4, 21, 17, 7, 850882), 'lat_lon_source': 'website'}",139.763680860466,35.6735723065374,ユナイテッドアローズ 有楽町店,"{'opening_hours': {'Mon': '11:00-21:00', 'Tue': '11:00-21:00', 'Wed': '11:00-21:00', 'Thur': '11:00-21:00', 'Fri': '11:00-21:00', 'Sat': '11:00-21:00', 'Sun': '11:00-21:00'}}","050-8892-0763,050-8892-0764",100-0006,0120,東京都,https://www.lumine.ne.jp/yurakucho/
東京都千代田区丸の内1-5-1<br>新丸の内ビルディング 1F,UNITED ARROWS,関東,Japan,"{'brand': 'UNITED ARROWS', 'fascia': 'ユナイテッドアローズ', 'category': 'Fashion', 'edit_date': datetime.datetime(2025, 3, 4, 21, 17, 7, 854623), 'lat_lon_source': 'website'}",139.764078964239,35.6824269969758,ユナイテッドアローズ 丸の内店,{'Weekday/Sat 11:00-21:00<br>Sun/National holiday 11:00-20:00'},050-8885-8756,100-6501,0122,東京都,https://www.marunouchi.com/building/shinmaru/
東京都千代田区丸の内1-9-1<br>大丸東京店　4F,UNITED ARROWS,関東,Japan,"{'brand': 'UNITED ARROWS', 'fascia': 'ユナイテッドアローズ', 'category': 'Fashion', 'edit_date': datetime.datetime(2025, 3, 4, 21, 17, 7, 855288), 'lat_lon_source': 'website'}",139.768787195183,35.6812051336678,ユナイテッドアローズ 大丸東京 ウィメンズストア,{'Mon-Wed/Sat/Sun/National holiday 10:00-20:00<br>Thu/Fri 10:00-21:00'},050-8893-4201,100-6701,0137,東京都,https://www.daimaru.co.jp/tokyo/
東京都中央区日本橋1-4-1<br>COREDO 日本橋 1F,UNITED ARROWS,関東,Japan,"{'brand': 'UNITED ARROWS', 'fascia': 'ユナイテッドアローズ', 'category': 'Fashion', 'edit_date': datetime.datetime(2025, 3, 4, 21, 17, 7, 855844), 'lat_lon_source': 'website'}",139.774220673442,35.6826617717482,ユナイテッドアローズ 日本橋店,{'Weekdayt 11:00-21:00<br>Sat/Sun/National holiday 11:00-20:00'},050-8893-4199,103-0027,0123,東京都,https://mitsui-shopping-park.com/urban/nihonbashi/index.html
東京都港区麻布台1-3-1 麻布台ヒルズ タワープラザ 2F,UNITED ARROWS,関東,Japan,"{'brand': 'UNITED ARROWS', 'fascia': 'ユナイテッドアローズ', 'category': 'Fashion', 'edit_date': datetime.datetime(2025, 3, 4, 21, 17, 7, 856314), 'lat_lon_source': 'website'}",139.740188224379,35.6609951570243,ユナイテッドアローズ 麻布台ヒルズ ウィメンズストア,{'11:00-20:00<br><br>営業時間が変更もしくは臨時休業になる可能性がございます。<br>最新の情報は、店舗・各商業施設までお問い合わせください。'},03-5575-1335,106-0041,0128,東京都,https://www.azabudai-hills.com/
東京都港区六本木6-10-3<br>六本木ヒルズ ウェストウォーク 2F-3F,UNITED ARROWS,関東,Japan,"{'brand': 'UNITED ARROWS', 'fascia': 'ユナイテッドアローズ', 'category': 'Fashion', 'edit_date': datetime.datetime(2025, 3, 4, 21, 17, 7, 857479), 'lat_lon_source': 'website'}",139.729067143381,35.6596828753015,ユナイテッドアローズ 六本木ヒルズ店,"{'opening_hours': {'Mon': '11:00-20:00', 'Tue': '11:00-20:00', 'Wed': '11:00-20:00', 'Thur': '11:00-20:00', 'Fri': '11:00-20:00', 'Sat': '11:00-20:00', 'Sun': '11:00-20:00'}}","050-8893-4218,050-8893-4217,050-8893-4219",106-0032,0129,東京都,https://www.roppongihills.com/
東京都新宿区西新宿1-1-5<br>ルミネ新宿 ルミネ1 B1・1F,UNITED ARROWS,関東,Japan,"{'brand': 'UNITED ARROWS', 'fascia': 'ユナイテッドアローズ', 'category': 'Fashion', 'edit_date': datetime.datetime(2025, 3, 4, 21, 17, 7, 858124), 'lat_lon_source': 'website'}",139.6993,35.6892072,ユナイテッドアローズ 新宿店,{'Weekday 11:00-21:30<br>Sat/Sun/National holiday 10:30-21:30'},"050-8893-4221,050-8893-4220",160-0023,0130,東京都,https://www.lumine.ne.jp/shinjuku/
東京都世田谷区玉川3-17-1<br>玉川高島屋S･C 南館 2F,UNITED ARROWS,関東,Japan,"{'brand': 'UNITED ARROWS', 'fascia': 'ユナイテッドアローズ', 'category': 'Fashion', 'edit_date': datetime.datetime(2025, 3, 4, 21, 17, 7, 859579), 'lat_lon_source': 'website'}",139.62621175191,35.613311727851,ユナイテッドアローズ 二子玉川店,{'10:00-20:00<br>'},050-8893-1894,158-0094,0150,東京都,https://www.takashimaya.co.jp/tamagawa/sc/
東京都渋谷区神宮前3-28-1 B1F-3F,UNITED ARROWS,関東,Japan,"{'brand': 'UNITED ARROWS', 'fascia': 'ユナイテッドアローズ', 'category': 'Fashion', 'edit_date': datetime.datetime(2025, 3, 4, 21, 17, 7, 860310), 'lat_lon_source': 'website'}",139.709445347084,35.6720346461949,ユナイテッドアローズ 原宿本店（1F:ユナイテッドアローズ＆サンズ / 2F:ディストリクト ユナイテッドアローズ）,{''},,150-0001,0100,東京都,https://www.instagram.com/unitedarrows_official/
東京都渋谷区渋谷2-24-12 <br>渋谷スクランブルスクエア 8F,UNITED ARROWS,関東,Japan,"{'brand': 'UNITED ARROWS', 'fascia': 'ユナイテッドアローズ', 'category': 'Fashion', 'edit_date': datetime.datetime(2025, 3, 4, 21, 17, 7, 860968), 'lat_lon_source': 'website'}",139.702124,35.658442,ユナイテッドアローズ 渋谷スクランブルスクエア店,"{'opening_hours': {'Mon': '10:00-21:00', 'Tue': '10:00-21:00', 'Wed': '10:00-21:00', 'Thur': '10:00-21:00', 'Fri': '10:00-21:00', 'Sat': '10:00-21:00', 'Sun': '10:00-21:00'}}",03-5774-1030,150-6101,0103,東京都,https://www.shibuya-scramble-square.com/
東京都渋谷区渋谷2-21-1 <br>渋谷ヒカリエ ShinQs 3F,UNITED ARROWS,関東,Japan,"{'brand': 'UNITED ARROWS', 'fascia': 'ユナイテッドアローズ', 'category': 'Fashion', 'edit_date': datetime.datetime(2025, 3, 4, 21, 17, 7, 863954), 'lat_lon_source': 'website'}",139.703190056875,35.6587755761966,ユナイテッドアローズ 渋谷シンクス ウィメンズストア,"{'opening_hours': {'Mon': '10:00-21:00', 'Tue': '10:00-21:00', 'Wed': '10:00-21:00', 'Thur': '10:00-21:00', 'Fri': '10:00-21:00', 'Sat': '10:00-21:00', 'Sun': '10:00-21:00'}}",050-8893-4195,150-8509,0110,東京都,https://www.tokyu-dept.co.jp/shinqs/
東京都渋谷区恵比寿南1-5-5 <br>アトレ 恵比寿 3F,UNITED ARROWS,関東,Japan,"{'brand': 'UNITED ARROWS', 'fascia': 'ユナイテッドアローズ', 'category': 'Fashion', 'edit_date': datetime.datetime(2025, 3, 4, 21, 17, 7, 864791), 'lat_lon_source': 'website'}",139.709719785098,35.6473277461625,ユナイテッドアローズ アトレ恵比寿 ウィメンズストア,"{'opening_hours': {'Mon': '10:00-21:00', 'Tue': '10:00-21:00', 'Wed': '10:00-21:00', 'Thur': '10:00-21:00', 'Fri': '10:00-21:00', 'Sat': '10:00-21:00', 'Sun': '10:00-21:00'}}",050-8890-9505,150-0022,0115,東京都,https://www.atre.co.jp/ebisu/
東京都豊島区南池袋1-28-2<br>池袋パルコ 3F,UNITED ARROWS,関東,Japan,"{'brand': 'UNITED ARROWS', 'fascia': 'ユナイテッドアローズ', 'category': 'Fashion', 'edit_date': datetime.datetime(2025, 3, 4, 21, 17, 7, 865461), 'lat_lon_source': 'website'}",139.7124374,35.73075861,ユナイテッドアローズ 池袋店,"{'opening_hours': {'Mon': '10:00-21:00', 'Tue': '10:00-21:00', 'Wed': '10:00-21:00', 'Thur': '10:00-21:00', 'Fri': '10:00-21:00', 'Sat': '10:00-21:00', 'Sun': '10:00-21:00'}}","050-8893-4204,050-8893-4205",171-0022,0140,東京都,https://ikebukuro.parco.jp/
東京都豊島区西池袋1-11-1 <br>ルミネ池袋 B1F,UNITED ARROWS,関東,Japan,"{'brand': 'UNITED ARROWS', 'fascia': 'ユナイテッドアローズ', 'category': 'Fashion', 'edit_date': datetime.datetime(2025, 3, 4, 21, 17, 7, 866139), 'lat_lon_source': 'website'}",139.709398821335,35.7294546175663,ユナイテッドアローズ 池袋 ウィメンズストア,{'Weekday 11:00-21:30<br>Sat/Sun/National holiday 11:00-21:00'},03-5928-1226,171-0021,0142,東京都,https://www.lumine.ne.jp/ikebukuro/
東京都足立区千住旭町42-2 <br>ルミネ北千住 3F,UNITED ARROWS,関東,Japan,"{'brand': 'UNITED ARROWS', 'fascia': 'ユナイテッドアローズ', 'category': 'Fashion', 'edit_date': datetime.datetime(2025, 3, 4, 21, 17, 7, 871074), 'lat_lon_source': 'website'}",139.805016313925,35.7501001356068,ユナイテッドアローズ 北千住 ウィメンズストア,"{'opening_hours': {'Mon': '10:00-20:30', 'Tue': '10:00-20:30', 'Wed': '10:00-20:30', 'Thur': '10:00-20:30', 'Fri': '10:00-20:30', 'Sat': '10:00-20:30', 'Sun': '10:00-20:30'}}",03-5244-6030,120-0026,0145,東京都,https://www.lumine.ne.jp/kitasenju/
東京都立川市曙町2-1-1<br>ルミネ立川店 2F,UNITED ARROWS,関東,Japan,"{'brand': 'UNITED ARROWS', 'fascia': 'ユナイテッドアローズ', 'category': 'Fashion', 'edit_date': datetime.datetime(2025, 3, 4, 21, 17, 7, 871882), 'lat_lon_source': 'website'}",139.414035266696,35.6983922330285,ユナイテッドアローズ 立川店,{'Weekday 10:00-21:00<br>Sat/Sun/National holiday 10:00-20:30'},050-8893-4155,190-0012,0180,東京都,https://www.lumine.ne.jp/tachikawa/
埼玉県さいたま市大宮区錦町630<br>ルミネ大宮店 ルミネ2 西口別館 2F,UNITED ARROWS,関東,Japan,"{'brand': 'UNITED ARROWS', 'fascia': 'ユナイテッドアローズ', 'category': 'Fashion', 'edit_date': datetime.datetime(2025, 3, 4, 21, 17, 7, 872639), 'lat_lon_source': 'website'}",139.623677,35.906327,ユナイテッドアローズ 大宮店,{'Weekday/Sat 10:00-21:00<br>Sun/National holiday 10:00-20:30'},048-650-7270,330-0853,0190,埼玉県,https://www.lumine.ne.jp/omiya/
千葉県柏市末広町1-1<br>柏髙島屋ステーションモール 新館 専門店4F,UNITED ARROWS,関東,Japan,"{'brand': 'UNITED ARROWS', 'fascia': 'ユナイテッドアローズ', 'category': 'Fashion', 'edit_date': datetime.datetime(2025, 3, 4, 21, 17, 7, 873301), 'lat_lon_source': 'website'}",139.969600583537,35.8621154401389,ユナイテッドアローズ 柏店,"{'opening_hours': {'Mon': '10:00-21:00', 'Tue': '10:00-21:00', 'Wed': '10:00-21:00', 'Thur': '10:00-21:00', 'Fri': '10:00-21:00', 'Sat': '10:00-21:00', 'Sun': '10:00-21:00'}}",04-7148-2332,277-8550,0160,千葉県,https://www.takashimaya.co.jp/kashiwa/stemo/
神奈川県横浜市西区高島2-16-1 ルミネ横浜 B1F,UNITED ARROWS,関東,Japan,"{'brand': 'UNITED ARROWS', 'fascia': 'ユナイテッドアローズ', 'category': 'Fashion', 'edit_date': datetime.datetime(2025, 3, 4, 21, 17, 7, 874140), 'lat_lon_source': 'website'}",139.622798,35.46516156,ユナイテッドアローズ 横浜店,{'Weekday 10:00-21:00<br>Sat/Sun/National holiday 10:00-20:30'},"050-8890-9495,050-8890-9496",220-0011,0170,神奈川県,https://www.lumine.ne.jp/yokohama/
神奈川県横浜市西区高島2-18-1 <br>そごう横浜店 4F,UNITED ARROWS,関東,Japan,"{'brand': 'UNITED ARROWS', 'fascia': 'ユナイテッドアローズ', 'category': 'Fashion', 'edit_date': datetime.datetime(2025, 3, 4, 21, 17, 7, 874699), 'lat_lon_source': 'website'}",139.625129997371,35.4655008787857,ユナイテッドアローズ そごう横浜 ウィメンズストア,"{'opening_hours': {'Mon': '10:00-20:00', 'Tue': '10:00-20:00', 'Wed': '10:00-20:00', 'Thur': '10:00-20:00', 'Fri': '10:00-20:00', 'Sat': '10:00-20:00', 'Sun': '10:00-20:00'}}",045-450-1172,220-8510,0177,神奈川県,https://www.sogo-seibu.jp/yokohama/
北海道札幌市中央区南1条西3丁目<br>札幌パルコ 1・2F,UNITED ARROWS,北海道・東北,Japan,"{'brand': 'UNITED ARROWS', 'fascia': 'ユナイテッドアローズ', 'category': 'Fashion', 'edit_date': datetime.datetime(2025, 3, 4, 21, 17, 7, 875489), 'lat_lon_source': 'website'}",141.352892225863,43.0588590480682,ユナイテッドアローズ 札幌店,"{'opening_hours': {'Mon': '10:00-20:00', 'Tue': '10:00-20:00', 'Wed': '10:00-20:00', 'Thur': '10:00-20:00', 'Fri': '10:00-20:00', 'Sat': '10:00-20:00', 'Sun': '10:00-20:00'}}","011-218-6001,011-218-5577",060-8502,0303,北海道,https://sapporo.parco.jp/
北海道旭川市1条通8-108 <br>フィール旭川 1F,UNITED ARROWS,北海道・東北,Japan,"{'brand': 'UNITED ARROWS', 'fascia': 'ユナイテッドアローズ', 'category': 'Fashion', 'edit_date': datetime.datetime(2025, 3, 4, 21, 17, 7, 876289), 'lat_lon_source': 'website'}",142.360021773303,43.7656899449832,ユナイテッドアローズ 旭川店,"{'opening_hours': {'Mon': '10:00-19:30', 'Tue': '10:00-19:30', 'Wed': '10:00-19:30', 'Thur': '10:00-19:30', 'Fri': '10:00-19:30', 'Sat': '10:00-19:30', 'Sun': '10:00-19:30'}}",,070-0031,0305,北海道,https://www.feeeal.com/
宮城県仙台市青葉区中央1-1-1 <br>エスパル仙台本館 2F,UNITED ARROWS,北海道・東北,Japan,"{'brand': 'UNITED ARROWS', 'fascia': 'ユナイテッドアローズ', 'category': 'Fashion', 'edit_date': datetime.datetime(2025, 3, 4, 21, 17, 7, 880535), 'lat_lon_source': 'website'}",140.881841373532,38.2595512329477,ユナイテッドアローズ 仙台店,{'10:00～21:00'},"050-8893-4183,050-8893-4184",980-8477,0310,宮城県,https://www.s-pal.jp/sendai/
新潟県新潟市中央区八千代2-1-2<br>万代シテイビルボードプレイス 1F,UNITED ARROWS,北陸・東海,Japan,"{'brand': 'UNITED ARROWS', 'fascia': 'ユナイテッドアローズ', 'category': 'Fashion', 'edit_date': datetime.datetime(2025, 3, 4, 21, 17, 7, 884514), 'lat_lon_source': 'website'}",139.0537727,37.9160428,ユナイテッドアローズ 新潟店,{'Weekday 11:00-20:00<br>Sat/Sun/National holiday 10:00-20:00'},025-240-4606,950-0909,0322,新潟県,https://www.bandai-bp.com/
石川県金沢市香林坊2-1-1 <br>香林坊東急スクエア 1F,UNITED ARROWS,北陸・東海,Japan,"{'brand': 'UNITED ARROWS', 'fascia': 'ユナイテッドアローズ', 'category': 'Fashion', 'edit_date': datetime.datetime(2025, 3, 4, 21, 17, 7, 885055), 'lat_lon_source': 'website'}",136.653405064899,36.5623232338844,ユナイテッドアローズ 金沢店,"{'opening_hours': {'Mon': '10:00-20:00', 'Tue': '10:00-20:00', 'Wed': '10:00-20:00', 'Thur': '10:00-20:00', 'Fri': '10:00-20:00', 'Sat': '10:00-20:00', 'Sun': '10:00-20:00'}}",076-222-5140,920-0961,0324,石川県,https://www.korinbo-tokyu-square.com/
愛知県名古屋市中区栄3-6-1<br>ラシック 2F,UNITED ARROWS,北陸・東海,Japan,"{'brand': 'UNITED ARROWS', 'fascia': 'ユナイテッドアローズ', 'category': 'Fashion', 'edit_date': datetime.datetime(2025, 3, 4, 21, 17, 7, 885679), 'lat_lon_source': 'website'}",136.907442947016,35.167387158771,ユナイテッドアローズ 名古屋店,"{'opening_hours': {'Mon': '11:00-21:00', 'Tue': '11:00-21:00', 'Wed': '11:00-21:00', 'Thur': '11:00-21:00', 'Fri': '11:00-21:00', 'Sat': '11:00-21:00', 'Sun': '11:00-21:00'}}","052-265-1580,052-265-1582",460-0008,0330,愛知県,https://www.lachic.jp/nagoya.html
愛知県名古屋市中村区名駅1-1-3 <br>タカシマヤ ゲートタワーモール 2F,UNITED ARROWS,北陸・東海,Japan,"{'brand': 'UNITED ARROWS', 'fascia': 'ユナイテッドアローズ', 'category': 'Fashion', 'edit_date': datetime.datetime(2025, 3, 4, 21, 17, 7, 886391), 'lat_lon_source': 'website'}",136.883190693089,35.1719298940778,ユナイテッドアローズ 名古屋駅店,"{'opening_hours': {'Mon': '10:00-21:00', 'Tue': '10:00-21:00', 'Wed': '10:00-21:00', 'Thur': '10:00-21:00', 'Fri': '10:00-21:00', 'Sat': '10:00-21:00', 'Sun': '10:00-21:00'}}","052-589-8259,052-589-8261",450-6602,0336,愛知県,https://www.jr-tgm.com/
京都府京都市下京区寺町通四条下ル貞安前之町605番地<br>藤井大丸　1F・2F,UNITED ARROWS,関西,Japan,"{'brand': 'UNITED ARROWS', 'fascia': 'ユナイテッドアローズ', 'category': 'Fashion', 'edit_date': datetime.datetime(2025, 3, 4, 21, 17, 7, 887024), 'lat_lon_source': 'website'}",135.76650182562,35.0034076691514,ユナイテッドアローズ 京都店,{'10:00 - 21:00'},"075-223-0833,075-253-6953",600-8031,0260,京都府,https://www.fujiidaimaru.co.jp/
大阪府大阪市中央区心斎橋筋1-8-3<br>心斎橋パルコ 2F,UNITED ARROWS,関西,Japan,"{'brand': 'UNITED ARROWS', 'fascia': 'ユナイテッドアローズ', 'category': 'Fashion', 'edit_date': datetime.datetime(2025, 3, 4, 21, 17, 7, 887638), 'lat_lon_source': 'website'}",135.50096,34.67386,ユナイテッドアローズ 心斎橋店,"{'10:00-21:00<br><br><font color=""red"">※The store hours are changed as follows.<br>12:00～20:00</font>'}","06-6241-6695,06-6241-6696",542-0085,0215,大阪府,https://shinsaibashi.parco.jp/
大阪府大阪市北区梅田3-1-3<br> ルクア 1F,UNITED ARROWS,関西,Japan,"{'brand': 'UNITED ARROWS', 'fascia': 'ユナイテッドアローズ', 'category': 'Fashion', 'edit_date': datetime.datetime(2025, 3, 4, 21, 17, 7, 888266), 'lat_lon_source': 'website'}",135.495722754376,34.7031294490786,ユナイテッドアローズ ルクア大阪 ウィメンズストア,"{'opening_hours': {'Mon': '10:30-20:30', 'Tue': '10:30-20:30', 'Wed': '10:30-20:30', 'Thur': '10:30-20:30', 'Fri': '10:30-20:30', 'Sat': '10:30-20:30', 'Sun': '10:30-20:30'}}",050-8893-4192,530-8217,0223,大阪府,https://www.lucua.jp/
大阪府大阪市浪速区難波中2-10-70 <br>なんばパークス 2F,UNITED ARROWS,関西,Japan,"{'brand': 'UNITED ARROWS', 'fascia': 'ユナイテッドアローズ', 'category': 'Fashion', 'edit_date': datetime.datetime(2025, 3, 4, 21, 17, 7, 888860), 'lat_lon_source': 'website'}",135.502137068642,34.6618073266911,ユナイテッドアローズ なんば店,"{'opening_hours': {'Mon': '11:00-21:00', 'Tue': '11:00-21:00', 'Wed': '11:00-21:00', 'Thur': '11:00-21:00', 'Fri': '11:00-21:00', 'Sat': '11:00-21:00', 'Sun': '11:00-21:00'}}",050-8893-4198,556-0011,0231,大阪府,https://nambaparks.com/
大阪府大阪市北区大深町4-20 <br>グランフロント大阪 ショップ＆レストラン 南館 1F,UNITED ARROWS,関西,Japan,"{'brand': 'UNITED ARROWS', 'fascia': 'ユナイテッドアローズ', 'category': 'Fashion', 'edit_date': datetime.datetime(2025, 3, 4, 21, 17, 7, 889406), 'lat_lon_source': 'website'}",135.494661774711,34.7041296751883,ユナイテッドアローズ 大阪 メンズストア,"{'opening_hours': {'Mon': '10:00-21:00', 'Tue': '10:00-21:00', 'Wed': '10:00-21:00', 'Thur': '10:00-21:00', 'Fri': '10:00-21:00', 'Sat': '10:00-21:00', 'Sun': '10:00-21:00'}}",06-6372-7293,530-0011,0235,大阪府,https://www.grandfront-osaka.jp/
兵庫県神戸市中央区明石町40<br>大丸神戸店 3F,UNITED ARROWS,関西,Japan,"{'brand': 'UNITED ARROWS', 'fascia': 'ユナイテッドアローズ', 'category': 'Fashion', 'edit_date': datetime.datetime(2025, 3, 4, 21, 17, 7, 900019), 'lat_lon_source': 'website'}",135.190136578931,34.688583419395,ユナイテッドアローズ 大丸神戸 ウィメンズストア,"{'opening_hours': {'Mon': '10:00-20:00', 'Tue': '10:00-20:00', 'Wed': '10:00-20:00', 'Thur': '10:00-20:00', 'Fri': '10:00-20:00', 'Sat': '10:00-20:00', 'Sun': '10:00-20:00'}}",078-335-2081,650-0037,0203,兵庫県,https://www.daimaru.co.jp/kobe/
兵庫県神戸市中央区明石町40 <br>大丸神戸店 6F,UNITED ARROWS,関西,Japan,"{'brand': 'UNITED ARROWS', 'fascia': 'ユナイテッドアローズ', 'category': 'Fashion', 'edit_date': datetime.datetime(2025, 3, 4, 21, 17, 7, 900623), 'lat_lon_source': 'website'}",135.190300096723,34.6889198803512,ユナイテッドアローズ 大丸神戸 メンズストア,{'10:00～20:00'},078-325-3930,650-0037,0205,兵庫県,http://www.daimaru.co.jp/kobe/
兵庫県神戸市中央区雲井通7-1-1 <br>ミント神戸 2F,UNITED ARROWS,関西,Japan,"{'brand': 'UNITED ARROWS', 'fascia': 'ユナイテッドアローズ', 'category': 'Fashion', 'edit_date': datetime.datetime(2025, 3, 4, 21, 17, 7, 901169), 'lat_lon_source': 'website'}",135.196139912065,34.6945872843736,ユナイテッドアローズ 神戸三宮店,"{'opening_hours': {'Mon': '11:00-21:00', 'Tue': '11:00-21:00', 'Wed': '11:00-21:00', 'Thur': '11:00-21:00', 'Fri': '11:00-21:00', 'Sat': '11:00-21:00', 'Sun': '11:00-21:00'}}","078-265-0870,078-265-1447",651-0096,0206,兵庫県,http://www.mint-kobe.jp/
広島県広島市中区新天地2-1<br>広島パルコ 新館 B1・1F,UNITED ARROWS,中国・四国・九州,Japan,"{'brand': 'UNITED ARROWS', 'fascia': 'ユナイテッドアローズ', 'category': 'Fashion', 'edit_date': datetime.datetime(2025, 3, 4, 21, 17, 7, 901765), 'lat_lon_source': 'website'}",132.462672537821,34.3919837597886,ユナイテッドアローズ 広島店,"{'opening_hours': {'Mon': '10:00-20:30', 'Tue': '10:00-20:30', 'Wed': '10:00-20:30', 'Thur': '10:00-20:30', 'Fri': '10:00-20:30', 'Sat': '10:00-20:30', 'Sun': '10:00-20:30'}}","082-542-2401,082-542-2411",730-0034,0360,広島県,https://hiroshima.parco.jp/
広島県広島市南区松原町2-37  ミナモア 2F,UNITED ARROWS,中国・四国・九州,Japan,"{'brand': 'UNITED ARROWS', 'fascia': 'ユナイテッドアローズ', 'category': 'Fashion', 'edit_date': datetime.datetime(2025, 3, 4, 21, 17, 7, 902288), 'lat_lon_source': 'website'}",132.47528633068293,34.39746815976217,ユナイテッドアローズ 広島 ウィメンズストア（2025年3月24日オープン予定）,{''},,732-0822 ,0361,広島県,https://www.minamoa.jp/
福岡県福岡市中央区天神2-10-3<br>VIORO B1・1F,UNITED ARROWS,中国・四国・九州,Japan,"{'brand': 'UNITED ARROWS', 'fascia': 'ユナイテッドアローズ', 'category': 'Fashion', 'edit_date': datetime.datetime(2025, 3, 4, 21, 17, 7, 902766), 'lat_lon_source': 'website'}",130.3983935,33.5896797,ユナイテッドアローズ 福岡店,"{'opening_hours': {'Mon': '11:00-21:00', 'Tue': '11:00-21:00', 'Wed': '11:00-21:00', 'Thur': '11:00-21:00', 'Fri': '11:00-21:00', 'Sat': '11:00-21:00', 'Sun': '11:00-21:00'}}",092-716-3322,810-0001,0370,福岡県,https://vioro.jp/
福岡県福岡市博多区博多駅中央街1-1 アミュプラザ博多 3F,UNITED ARROWS,中国・四国・九州,Japan,"{'brand': 'UNITED ARROWS', 'fascia': 'ユナイテッドアローズ', 'category': 'Fashion', 'edit_date': datetime.datetime(2025, 3, 4, 21, 17, 7, 903427), 'lat_lon_source': 'website'}",130.4204315,33.5902747399633,ユナイテッドアローズ アミュプラザ博多 ウィメンズストア,"{'opening_hours': {'Mon': '10:00-20:00', 'Tue': '10:00-20:00', 'Wed': '10:00-20:00', 'Thur': '10:00-20:00', 'Fri': '10:00-20:00', 'Sat': '10:00-20:00', 'Sun': '10:00-20:00'}}",092-408-8125,812-0012,0371,福岡県,https://www.jrhakatacity.com/
熊本県熊本市中央区手取本町6番1号 <br>鶴屋百貨店東館 1F,UNITED ARROWS,中国・四国・九州,Japan,"{'brand': 'UNITED ARROWS', 'fascia': 'ユナイテッドアローズ', 'category': 'Fashion', 'edit_date': datetime.datetime(2025, 3, 4, 21, 17, 7, 904121), 'lat_lon_source': 'website'}",130.712176,32.801999,ユナイテッドアローズ 熊本店,{'Mon-Thu/Sun/National holiday 10:00-19:00<br>Fri/Sat 10:00-19:30'},050-8893-4178,860-8586,0384,熊本県,https://www.tsuruya-dept.co.jp/
大分県大分市府内町3-7-26<br>Bガレージビル,UNITED ARROWS,中国・四国・九州,Japan,"{'brand': 'UNITED ARROWS', 'fascia': 'ユナイテッドアローズ', 'category': 'Fashion', 'edit_date': datetime.datetime(2025, 3, 4, 21, 17, 7, 904758), 'lat_lon_source': 'website'}",131.6115829,33.237383,ユナイテッドアローズ 大分店,"{'opening_hours': {'Mon': '11:00-20:00', 'Tue': '11:00-20:00', 'Wed': '11:00-20:00', 'Thur': '11:00-20:00', 'Fri': '11:00-20:00', 'Sat': '11:00-20:00', 'Sun': '11:00-20:00'}}",097-537-1526,870-0021,0375,大分県,
台北市大安區仁愛路四段71巷30號及32號1樓,UNITED ARROWS,海外,Japan,"{'brand': 'UNITED ARROWS', 'fascia': 'ユナイテッドアローズ', 'category': 'Fashion', 'edit_date': datetime.datetime(2025, 3, 4, 21, 17, 7, 910426), 'lat_lon_source': 'website'}",121.54721,25.04038,ユナイテッドアローズ 台北大安店,{'Weekday 12:00-21:30<br>Sat/Sun/National holiday 11:00-21:30'},,,0010,台湾,https://store.united-arrows.tw/
台北市信義區忠孝東路五段68號 微風信義 3F,UNITED ARROWS,海外,Japan,"{'brand': 'UNITED ARROWS', 'fascia': 'ユナイテッドアローズ', 'category': 'Fashion', 'edit_date': datetime.datetime(2025, 3, 4, 21, 17, 7, 914016), 'lat_lon_source': 'website'}",121.566896,25.040504,ユナイテッドアローズ 台北微風信義店,{'Sunday-Wednesday 11:00-21:30<br>Thursday-Saturday 11:00-22:00'},,,0000,台湾,https://store.united-arrows.tw/
台北市信義區松智路17號 微風南山 3F,UNITED ARROWS,海外,Japan,"{'brand': 'UNITED ARROWS', 'fascia': 'ユナイテッドアローズ', 'category': 'Fashion', 'edit_date': datetime.datetime(2025, 3, 4, 21, 17, 7, 914726), 'lat_lon_source': 'website'}",121.566522,25.034631,ユナイテッドアローズ 台北微風南山 ウィメンズストア,{'Sun-Wed 11:00-21:30<br>Thu-Sat/the day before national holiday 11:00-22:00'},,,0000,台湾,https://store.united-arrows.tw/
上海市南京西路静安嘉里中心南区1楼S1-02，03商铺，2楼S2-02，03商铺,UNITED ARROWS,海外,Japan,"{'brand': 'UNITED ARROWS', 'fascia': 'ユナイテッドアローズ', 'category': 'Fashion', 'edit_date': datetime.datetime(2025, 3, 4, 21, 17, 7, 915322), 'lat_lon_source': 'website'}",121.44917868105026,31.223162643336398,ユナイテッドアローズ 上海静安嘉里中心店,{'10:00 - 22:00'},"021-6041-0225,021-6041-0029",,0000,中国本土,https://www.jingankerrycentre.com/
"628 Sukhumvit Road, Khlong Tan, Khlong Toei, Bangkok 10110 MF",UNITED ARROWS,海外,Japan,"{'brand': 'UNITED ARROWS', 'fascia': 'ユナイテッドアローズ', 'category': 'Fashion', 'edit_date': datetime.datetime(2025, 3, 4, 21, 17, 7, 915871), 'lat_lon_source': 'website'}",100.565902498109,13.7321729191555,ユナイテッドアローズ エムスフィア（バンコク）,{'10:00 - 22:00'},,,0000,タイ,https://www.emsphere.co.th/
東京都千代田区丸の内2-4-1 <br>丸ビル 2F,BEAUTY&YOUTH UNITED ARROWS,関東,Japan,"{'brand': 'BEAUTY&YOUTH UNITED ARROWS', 'fascia': 'ビューティー&ユース ユナイテッドアローズ', 'category': 'Fashion', 'edit_date': datetime.datetime(2025, 3, 4, 21, 17, 7, 916365), 'lat_lon_source': 'website'}",139.763511671145,35.681123444548,ビューティー＆ユース ユナイテッドアローズ 丸の内店,{'Weekday/Sat 11:00-21:00<br>Sun/National holiday 11:00-20:00'},"03-6212-1500,03-6212-1501",100-6302,0144,東京都,https://www.marunouchi.com/
東京都新宿区新宿3-38-1<br>ルミネエスト新宿 B2F,BEAUTY&YOUTH UNITED ARROWS,関東,Japan,"{'brand': 'BEAUTY&YOUTH UNITED ARROWS', 'fascia': 'ビューティー&ユース ユナイテッドアローズ', 'category': 'Fashion', 'edit_date': datetime.datetime(2025, 3, 4, 21, 17, 7, 916842), 'lat_lon_source': 'website'}",139.7011442,35.6913237,ビューティー＆ユース ユナイテッドアローズ 新宿ウィメンズストア,{'Weekday 11:00-21:30<br>Sat/Sun/National holiday 10:30-21:30'},03-5367-2290,160-0022,0133,東京都,https://www.lumine.ne.jp/est/
東京都墨田区押上1-1-2 <br>東京スカイツリータウン・ソラマチ 2F,BEAUTY&YOUTH UNITED ARROWS,関東,Japan,"{'brand': 'BEAUTY&YOUTH UNITED ARROWS', 'fascia': 'ビューティー&ユース ユナイテッドアローズ', 'category': 'Fashion', 'edit_date': datetime.datetime(2025, 3, 4, 21, 17, 7, 917305), 'lat_lon_source': 'website'}",139.812681678961,35.7105439846474,ビューティー＆ユース ユナイテッドアローズ 東京スカイツリータウン・ソラマチ店,"{'opening_hours': {'Mon': '10:00-21:00', 'Tue': '10:00-21:00', 'Wed': '10:00-21:00', 'Thur': '10:00-21:00', 'Fri': '10:00-21:00', 'Sat': '10:00-21:00', 'Sun': '10:00-21:00'}}","050-8893-4206,050-8893-4207",131-0045,0147,東京都,https://www.tokyo-solamachi.jp/
東京都江東区青海1-1-10 <br>ダイバーシティ東京 プラザ 3F 31200,BEAUTY&YOUTH UNITED ARROWS,関東,Japan,"{'brand': 'BEAUTY&YOUTH UNITED ARROWS', 'fascia': 'ビューティー&ユース ユナイテッドアローズ', 'category': 'Fashion', 'edit_date': datetime.datetime(2025, 3, 4, 21, 17, 7, 917841), 'lat_lon_source': 'website'}",139.775775161816,35.6253459527667,ビューティー＆ユース ユナイテッドアローズ お台場店,"{'opening_hours': {'Mon': '10:00-21:00', 'Tue': '10:00-21:00', 'Wed': '10:00-21:00', 'Thur': '10:00-21:00', 'Fri': '10:00-21:00', 'Sat': '10:00-21:00', 'Sun': '10:00-21:00'}}",03-3527-6615,135-0064,0158,東京都,https://mitsui-shopping-park.com/divercity-tokyo/
"東京都足立区千住旭町42-2<br>ルミネ北千住 2F<br><br><font color=""red"">※ 改装に伴い、2025年1月20日(月)から4F仮店舗区画にて仮店舗営業いたします</font>",BEAUTY&YOUTH UNITED ARROWS,関東,Japan,"{'brand': 'BEAUTY&YOUTH UNITED ARROWS', 'fascia': 'ビューティー&ユース ユナイテッドアローズ', 'category': 'Fashion', 'edit_date': datetime.datetime(2025, 3, 4, 21, 17, 7, 918318), 'lat_lon_source': 'website'}",139.805364205859,35.7511768392857,ビューティー＆ユース ユナイテッドアローズ 北千住店,"{'opening_hours': {'Mon': '10:00-20:30', 'Tue': '10:00-20:30', 'Wed': '10:00-20:30', 'Thur': '10:00-20:30', 'Fri': '10:00-20:30', 'Sat': '10:00-20:30', 'Sun': '10:00-20:30'}}",050-8892-0792,120-0026,0146,東京都,https://www.lumine.ne.jp/kitasenju/
東京都武蔵野市吉祥寺本町1-11-5<br>コピス吉祥寺 A館 1F,BEAUTY&YOUTH UNITED ARROWS,関東,Japan,"{'brand': 'BEAUTY&YOUTH UNITED ARROWS', 'fascia': 'ビューティー&ユース ユナイテッドアローズ', 'category': 'Fashion', 'edit_date': datetime.datetime(2025, 3, 4, 21, 17, 7, 918841), 'lat_lon_source': 'website'}",139.579438055652,35.7046362634565,ビューティー＆ユース ユナイテッドアローズ 吉祥寺店,"{'opening_hours': {'Mon': '10:00-21:00', 'Tue': '10:00-21:00', 'Wed': '10:00-21:00', 'Thur': '10:00-21:00', 'Fri': '10:00-21:00', 'Sat': '10:00-21:00', 'Sun': '10:00-21:00'}}",,180-0004,0183,東京都,https://www.coppice.jp/
東京都町田市原町田6-1-11<br>ルミネ町田店 3F,BEAUTY&YOUTH UNITED ARROWS,関東,Japan,"{'brand': 'BEAUTY&YOUTH UNITED ARROWS', 'fascia': 'ビューティー&ユース ユナイテッドアローズ', 'category': 'Fashion', 'edit_date': datetime.datetime(2025, 3, 4, 21, 17, 7, 919436), 'lat_lon_source': 'website'}",139.4461155,35.54206547,ビューティー＆ユース ユナイテッドアローズ 町田店,{'Weekday 10:00-21:00<br>Sat/Sun/National holiday 10:00-20:30'},042-710-2597,194-0013,0185,東京都,https://www.lumine.ne.jp/machida/
埼玉県さいたま市大宮区錦町630<br>ルミネ大宮店 ルミネ2 西口別館 2F,BEAUTY&YOUTH UNITED ARROWS,関東,Japan,"{'brand': 'BEAUTY&YOUTH UNITED ARROWS', 'fascia': 'ビューティー&ユース ユナイテッドアローズ', 'category': 'Fashion', 'edit_date': datetime.datetime(2025, 3, 4, 21, 17, 7, 920153), 'lat_lon_source': 'website'}",139.623715,35.906041,ビューティー＆ユース ユナイテッドアローズ 大宮店,{'Weekday/Sat 10:00-21:00<br>Sun/National holiday 10:00-20:30'},048-650-3127,330-0853,0195,埼玉県,https://www.lumine.ne.jp/omiya/
埼玉県富士見市山室1-1313<br>ららぽーと富士見 2F,BEAUTY&YOUTH UNITED ARROWS,関東,Japan,"{'brand': 'BEAUTY&YOUTH UNITED ARROWS', 'fascia': 'ビューティー&ユース ユナイテッドアローズ', 'category': 'Fashion', 'edit_date': datetime.datetime(2025, 3, 4, 21, 17, 7, 921158), 'lat_lon_source': 'website'}",139.547809486319,35.8594276287733,ビューティー＆ユース ユナイテッドアローズ 富士見店,"{'opening_hours': {'Mon': '10:00-21:00', 'Tue': '10:00-21:00', 'Wed': '10:00-21:00', 'Thur': '10:00-21:00', 'Fri': '10:00-21:00', 'Sat': '10:00-21:00', 'Sun': '10:00-21:00'}}","049-268-1050,049-268-1051",354-8560,0196,埼玉県,https://mitsui-shopping-park.com/lalaport/fujimi/
埼玉県さいたま市浦和区東高砂町11-1 浦和パルコ 1F,BEAUTY&YOUTH UNITED ARROWS,関東,Japan,"{'brand': 'BEAUTY&YOUTH UNITED ARROWS', 'fascia': 'ビューティー&ユース ユナイテッドアローズ', 'category': 'Fashion', 'edit_date': datetime.datetime(2025, 3, 4, 21, 17, 7, 922065), 'lat_lon_source': 'website'}",139.658958753166,35.8588041393763,ビューティー＆ユース ユナイテッドアローズ 浦和店,"{'opening_hours': {'Mon': '10:00-21:00', 'Tue': '10:00-21:00', 'Wed': '10:00-21:00', 'Thur': '10:00-21:00', 'Fri': '10:00-21:00', 'Sat': '10:00-21:00', 'Sun': '10:00-21:00'}}",048-811-1170,330-0055,0197,埼玉県,https://urawa.parco.jp/
埼玉県越谷市レイクタウン4-2-2<br>イオンレイクタウン kaze 2F,BEAUTY&YOUTH UNITED ARROWS,関東,Japan,"{'brand': 'BEAUTY&YOUTH UNITED ARROWS', 'fascia': 'ビューティー&ユース ユナイテッドアローズ', 'category': 'Fashion', 'edit_date': datetime.datetime(2025, 3, 4, 21, 17, 7, 922669), 'lat_lon_source': 'website'}",139.824279367404,35.8770899616169,ビューティー＆ユース ユナイテッドアローズ 越谷店,{'10:00 - 21:00'},050-8893-3349,343-0828,0198,埼玉県,https://laketownkaze-aeonmall.com/
千葉県柏市末広町1-1<br>柏高島屋ステーションモール S館 専門店3F,BEAUTY&YOUTH UNITED ARROWS,関東,Japan,"{'brand': 'BEAUTY&YOUTH UNITED ARROWS', 'fascia': 'ビューティー&ユース ユナイテッドアローズ', 'category': 'Fashion', 'edit_date': datetime.datetime(2025, 3, 4, 21, 17, 7, 932915), 'lat_lon_source': 'website'}",139.970296165624,35.8624170747092,ビューティー＆ユース ユナイテッドアローズ 柏店,"{'opening_hours': {'Mon': '10:00-21:00', 'Tue': '10:00-21:00', 'Wed': '10:00-21:00', 'Thur': '10:00-21:00', 'Fri': '10:00-21:00', 'Sat': '10:00-21:00', 'Sun': '10:00-21:00'}}",04-7141-7230,277-8550,0162,千葉県,https://www.takashimaya.co.jp/kashiwa/stemo/
千葉県船橋市浜町2-1-1<br>ららぽーとTOKYO-BAY 南館 2F,BEAUTY&YOUTH UNITED ARROWS,関東,Japan,"{'brand': 'BEAUTY&YOUTH UNITED ARROWS', 'fascia': 'ビューティー&ユース ユナイテッドアローズ', 'category': 'Fashion', 'edit_date': datetime.datetime(2025, 3, 4, 21, 17, 7, 933647), 'lat_lon_source': 'website'}",139.991015663323,35.6853391369334,ビューティー＆ユース ユナイテッドアローズ 船橋店,{'Mon-Thu 10:00-20:00<br>Fri/Sat/Sun/National holiday 10:00-21:00'},047-495-1961,273-8530,0165,千葉県,https://mitsui-shopping-park.com/lalaport/tokyo-bay/
千葉県千葉市中央区新千葉1-1-1 <br>ペリエ千葉 4F,BEAUTY&YOUTH UNITED ARROWS,関東,Japan,"{'brand': 'BEAUTY&YOUTH UNITED ARROWS', 'fascia': 'ビューティー&ユース ユナイテッドアローズ', 'category': 'Fashion', 'edit_date': datetime.datetime(2025, 3, 4, 21, 17, 7, 934313), 'lat_lon_source': 'website'}",140.113694453178,35.6126351362249,ビューティー＆ユース ユナイテッドアローズ 千葉店,{'Mon 10:30-21:00 <br>Thu-Sat 10:00-21:00 <br>Sun/National holiday  10:00-20:30'},043-202-5720,260-0031,0166,千葉県,https://www.perie.co.jp/chiba/
神奈川県横浜市青葉区美しが丘1-1-2<br>たまプラーザ テラス ゲートプラザ 1F,BEAUTY&YOUTH UNITED ARROWS,関東,Japan,"{'brand': 'BEAUTY&YOUTH UNITED ARROWS', 'fascia': 'ビューティー&ユース ユナイテッドアローズ', 'category': 'Fashion', 'edit_date': datetime.datetime(2025, 3, 4, 21, 17, 7, 935156), 'lat_lon_source': 'website'}",139.5578829,35.5776377,ビューティー＆ユース ユナイテッドアローズ たまプラーザウィメンズストア,"{'opening_hours': {'Mon': '10:00-20:00', 'Tue': '10:00-20:00', 'Wed': '10:00-20:00', 'Thur': '10:00-20:00', 'Fri': '10:00-20:00', 'Sat': '10:00-20:00', 'Sun': '10:00-20:00'}}",045-905-0787,225-8535,0156,神奈川県,https://www.tamaplaza-terrace.com/
神奈川県川崎市幸区堀川町72-1 <br>ラゾーナ川崎プラザ 2F #25110,BEAUTY&YOUTH UNITED ARROWS,関東,Japan,"{'brand': 'BEAUTY&YOUTH UNITED ARROWS', 'fascia': 'ビューティー&ユース ユナイテッドアローズ', 'category': 'Fashion', 'edit_date': datetime.datetime(2025, 3, 4, 21, 17, 7, 935852), 'lat_lon_source': 'website'}",139.695426827789,35.5325111448111,ビューティー＆ユース ユナイテッドアローズ 川崎店,"{'opening_hours': {'Mon': '10:00-21:00', 'Tue': '10:00-21:00', 'Wed': '10:00-21:00', 'Thur': '10:00-21:00', 'Fri': '10:00-21:00', 'Sat': '10:00-21:00', 'Sun': '10:00-21:00'}}",050-8893-4210,212-8576,0173,神奈川県,https://mitsui-shopping-park.com/lazona-kawasaki/
神奈川県川崎市中原区新丸子東3-1135-1 グランツリー武蔵小杉 1F,BEAUTY&YOUTH UNITED ARROWS,関東,Japan,"{'brand': 'BEAUTY&YOUTH UNITED ARROWS', 'fascia': 'ビューティー&ユース ユナイテッドアローズ', 'category': 'Fashion', 'edit_date': datetime.datetime(2025, 3, 4, 21, 17, 7, 936576), 'lat_lon_source': 'website'}",139.660465327758,35.5740062825611,ビューティー＆ユース ユナイテッドアローズ 武蔵小杉店,"{'opening_hours': {'Mon': '10:00-21:00', 'Tue': '10:00-21:00', 'Wed': '10:00-21:00', 'Thur': '10:00-21:00', 'Fri': '10:00-21:00', 'Sat': '10:00-21:00', 'Sun': '10:00-21:00'}}",044-431-0515,211-0004,0174,神奈川県,https://grand-tree.jp/
神奈川県横浜市西区みなとみらい3-5-1 <br>マークイズみなとみらい 1F,BEAUTY&YOUTH UNITED ARROWS,関東,Japan,"{'brand': 'BEAUTY&YOUTH UNITED ARROWS', 'fascia': 'ビューティー&ユース ユナイテッドアローズ', 'category': 'Fashion', 'edit_date': datetime.datetime(2025, 3, 4, 21, 17, 7, 937268), 'lat_lon_source': 'website'}",139.63254456615,35.4572695551715,ビューティー＆ユース ユナイテッドアローズ みなとみらい店,{'Mon-Thu 10:00-20:00<br>Fri/Sat/Sun/National holiday/the day before national holiday 10:00-21:00'},050-8893-4211,220-0012,0176,神奈川県,https://www.mec-markis.jp/mm/
神奈川県藤沢市辻堂神台1-3-1 <br>テラスモール湘南 2F,BEAUTY&YOUTH UNITED ARROWS,関東,Japan,"{'brand': 'BEAUTY&YOUTH UNITED ARROWS', 'fascia': 'ビューティー&ユース ユナイテッドアローズ', 'category': 'Fashion', 'edit_date': datetime.datetime(2025, 3, 4, 21, 17, 7, 947428), 'lat_lon_source': 'website'}",139.446263632908,35.3379831324113,ビューティー＆ユース ユナイテッドアローズ 湘南店,"{'opening_hours': {'Mon': '10:00-21:00', 'Tue': '10:00-21:00', 'Wed': '10:00-21:00', 'Thur': '10:00-21:00', 'Fri': '10:00-21:00', 'Sat': '10:00-21:00', 'Sun': '10:00-21:00'}}",,251-0041,0179,神奈川県,https://shonan.terracemall.com/
宮城県仙台市青葉区中央1-1-1 <br>エスパル仙台本館 2F,BEAUTY&YOUTH UNITED ARROWS,北海道・東北,Japan,"{'brand': 'BEAUTY&YOUTH UNITED ARROWS', 'fascia': 'ビューティー&ユース ユナイテッドアローズ', 'category': 'Fashion', 'edit_date': datetime.datetime(2025, 3, 4, 21, 17, 7, 948324), 'lat_lon_source': 'website'}",140.881837235355,38.2593826893466,ビューティー＆ユース ユナイテッドアローズ 仙台店,"{'opening_hours': {'Mon': '10:00-21:00', 'Tue': '10:00-21:00', 'Wed': '10:00-21:00', 'Thur': '10:00-21:00', 'Fri': '10:00-21:00', 'Sat': '10:00-21:00', 'Sun': '10:00-21:00'}}",022-722-3457,980-8477,0315,宮城県,https://www.s-pal.jp/sendai/
石川県金沢市堀川新町3-1<br> 金沢フォーラス 1F,BEAUTY&YOUTH UNITED ARROWS,北陸・東海,Japan,"{'brand': 'BEAUTY&YOUTH UNITED ARROWS', 'fascia': 'ビューティー&ユース ユナイテッドアローズ', 'category': 'Fashion', 'edit_date': datetime.datetime(2025, 3, 4, 21, 17, 7, 949114), 'lat_lon_source': 'website'}",136.649535038583,36.5786682857433,ビューティー＆ユース ユナイテッドアローズ 金沢店,"{'opening_hours': {'Mon': '10:00-21:00', 'Tue': '10:00-21:00', 'Wed': '10:00-21:00', 'Thur': '10:00-21:00', 'Fri': '10:00-21:00', 'Sat': '10:00-21:00', 'Sun': '10:00-21:00'}}",076-222-3955,920-0849,0325,石川県,https://www.forus.co.jp/kanazawa
静岡県静岡市葵区鷹匠1-1-1<br>新静岡セノバ 1F,BEAUTY&YOUTH UNITED ARROWS,北陸・東海,Japan,"{'brand': 'BEAUTY&YOUTH UNITED ARROWS', 'fascia': 'ビューティー&ユース ユナイテッドアローズ', 'category': 'Fashion', 'edit_date': datetime.datetime(2025, 3, 4, 21, 17, 7, 949718), 'lat_lon_source': 'website'}",138.3869019,34.97541422,ビューティー＆ユース ユナイテッドアローズ 静岡店,"{'opening_hours': {'Mon': '10:00-20:00', 'Tue': '10:00-20:00', 'Wed': '10:00-20:00', 'Thur': '10:00-20:00', 'Fri': '10:00-20:00', 'Sat': '10:00-20:00', 'Sun': '10:00-20:00'}}","050-8893-4187,050-8893-4186",420-8508,0340,静岡県,https://www.cenova.jp/
愛知県名古屋市中村区名駅1-1-3 <br>タカシマヤ ゲートタワーモール 4F,BEAUTY&YOUTH UNITED ARROWS,北陸・東海,Japan,"{'brand': 'BEAUTY&YOUTH UNITED ARROWS', 'fascia': 'ビューティー&ユース ユナイテッドアローズ', 'category': 'Fashion', 'edit_date': datetime.datetime(2025, 3, 4, 21, 17, 7, 950231), 'lat_lon_source': 'website'}",136.882021364701,35.1723386193891,ビューティー＆ユース ユナイテッドアローズ 名古屋駅店,"{'opening_hours': {'Mon': '10:00-21:00', 'Tue': '10:00-21:00', 'Wed': '10:00-21:00', 'Thur': '10:00-21:00', 'Fri': '10:00-21:00', 'Sat': '10:00-21:00', 'Sun': '10:00-21:00'}}","052-589-8198,052-589-8214",450-6604,0337,愛知県,https://www.jr-tgm.com/
京都府京都市下京区烏丸通塩小路下る東塩小路町902番地 京都ポルタ B1F,BEAUTY&YOUTH UNITED ARROWS,関西,Japan,"{'brand': 'BEAUTY&YOUTH UNITED ARROWS', 'fascia': 'ビューティー&ユース ユナイテッドアローズ', 'category': 'Fashion', 'edit_date': datetime.datetime(2025, 3, 4, 21, 17, 7, 950737), 'lat_lon_source': 'website'}",135.759691757502,34.9866351751817,ビューティー＆ユース ユナイテッドアローズ 京都ウィメンズストア,"{'opening_hours': {'Mon': '10:00-21:00', 'Tue': '10:00-21:00', 'Wed': '10:00-21:00', 'Thur': '10:00-21:00', 'Fri': '10:00-21:00', 'Sat': '10:00-21:00', 'Sun': '10:00-21:00'}}",075-353-5361,600-8216,0256,京都府,https://www.porta.co.jp/
"大阪府大阪市北区大深町4-20 <br>グランフロント大阪 ショップ＆レストラン 南館 3F<br><br><font color=""red"">改装に伴い、下記の期間<u><a href=""https://store-pre.united-arrows.co.jp/brand/glr/storelocator/gsb.html"">ユナイテッドアローズ グリーンレーベルリラクシング 阪急三番街店</a></u> 店内一部にて商品を展開いたします。<br>・2025年1月30日（木）～ 3月2日（日）</font>",BEAUTY&YOUTH UNITED ARROWS,関西,Japan,"{'brand': 'BEAUTY&YOUTH UNITED ARROWS', 'fascia': 'ビューティー&ユース ユナイテッドアローズ', 'category': 'Fashion', 'edit_date': datetime.datetime(2025, 3, 4, 21, 17, 7, 951427), 'lat_lon_source': 'website'}",135.494596007767,34.7039942689921,ビューティー＆ユース ユナイテッドアローズ 大阪店,"{'opening_hours': {'Mon': '10:00-21:00', 'Tue': '10:00-21:00', 'Wed': '10:00-21:00', 'Thur': '10:00-21:00', 'Fri': '10:00-21:00', 'Sat': '10:00-21:00', 'Sun': '10:00-21:00'}}","050-8893-4193,050-8893-4194",530-0011,0227,大阪府,https://www.gfo-sc.jp/
大阪府吹田市千里万博公園 2-1 <br>ららぽーとEXPOCITY 2F 20160,BEAUTY&YOUTH UNITED ARROWS,関西,Japan,"{'brand': 'BEAUTY&YOUTH UNITED ARROWS', 'fascia': 'ビューティー&ユース ユナイテッドアローズ', 'category': 'Fashion', 'edit_date': datetime.datetime(2025, 3, 4, 21, 17, 7, 952167), 'lat_lon_source': 'website'}",135.535699802915,34.8049070823392,ビューティー＆ユース ユナイテッドアローズ EXPOCITY店,"{'opening_hours': {'Mon': '10:00-21:00', 'Tue': '10:00-21:00', 'Wed': '10:00-21:00', 'Thur': '10:00-21:00', 'Fri': '10:00-21:00', 'Sat': '10:00-21:00', 'Sun': '10:00-21:00'}}",06-4864-8285,565-0826,0229,大阪府,https://mitsui-shopping-park.com/lalaport/expocity/
大阪府大阪市中央区難波5-1-60 <br>なんばCITY本館 B1F,BEAUTY&YOUTH UNITED ARROWS,関西,Japan,"{'brand': 'BEAUTY&YOUTH UNITED ARROWS', 'fascia': 'ビューティー&ユース ユナイテッドアローズ', 'category': 'Fashion', 'edit_date': datetime.datetime(2025, 3, 4, 21, 17, 7, 961492), 'lat_lon_source': 'website'}",135.501014405488,34.6642390737047,ビューティー＆ユース ユナイテッドアローズ なんば店,"{'opening_hours': {'Mon': '10:00-21:00', 'Tue': '10:00-21:00', 'Wed': '10:00-21:00', 'Thur': '10:00-21:00', 'Fri': '10:00-21:00', 'Sat': '10:00-21:00', 'Sun': '10:00-21:00'}}",050-8893-4197,542-0076,0230,大阪府,https://nambacity.com/
大阪府枚方市岡東町19-1 枚方モール 2F,BEAUTY&YOUTH UNITED ARROWS,関西,Japan,"{'brand': 'BEAUTY&YOUTH UNITED ARROWS', 'fascia': 'ビューティー&ユース ユナイテッドアローズ', 'category': 'Fashion', 'edit_date': datetime.datetime(2025, 3, 4, 21, 17, 7, 962223), 'lat_lon_source': 'website'}",135.650148745707,34.817361879933,ビューティー＆ユース ユナイテッドアローズ 枚方ウィメンズストア,{'10:00 - 20:00'},050-8893-3340,573-0032,0237,大阪府,https://www.hirakata-mall.jp/
兵庫県西宮市高松町14-2 <br>阪急西宮ガーデンズ 2F,BEAUTY&YOUTH UNITED ARROWS,関西,Japan,"{'brand': 'BEAUTY&YOUTH UNITED ARROWS', 'fascia': 'ビューティー&ユース ユナイテッドアローズ', 'category': 'Fashion', 'edit_date': datetime.datetime(2025, 3, 4, 21, 17, 7, 962763), 'lat_lon_source': 'website'}",135.359273806472,34.7439654167966,ビューティー＆ユース ユナイテッドアローズ 西宮店,"{'opening_hours': {'Mon': '10:00-21:00', 'Tue': '10:00-21:00', 'Wed': '10:00-21:00', 'Thur': '10:00-21:00', 'Fri': '10:00-21:00', 'Sat': '10:00-21:00', 'Sun': '10:00-21:00'}}",,663-8204,0240,兵庫県,http://nishinomiya-gardens.com/
岡山県岡山市北区駅元町一番街地下5号<br>岡山一番街,BEAUTY&YOUTH UNITED ARROWS,中国・四国・九州,Japan,"{'brand': 'BEAUTY&YOUTH UNITED ARROWS', 'fascia': 'ビューティー&ユース ユナイテッドアローズ', 'category': 'Fashion', 'edit_date': datetime.datetime(2025, 3, 4, 21, 17, 7, 963408), 'lat_lon_source': 'website'}",133.91814436114,34.665185506921,ビューティー＆ユース ユナイテッドアローズ 岡山店,"{'opening_hours': {'Mon': '10:00-20:00', 'Tue': '10:00-20:00', 'Wed': '10:00-20:00', 'Thur': '10:00-20:00', 'Fri': '10:00-20:00', 'Sat': '10:00-20:00', 'Sun': '10:00-20:00'}}",086-235-4812,700-0024,0355,岡山県,https://sun-ste.com/okayama-ichibangai/
愛媛県松山市一番町3-2-1　<br>ANAクラウンプラザホテル松山 3F,BEAUTY&YOUTH UNITED ARROWS,中国・四国・九州,Japan,"{'brand': 'BEAUTY&YOUTH UNITED ARROWS', 'fascia': 'ビューティー&ユース ユナイテッドアローズ', 'category': 'Fashion', 'edit_date': datetime.datetime(2025, 3, 4, 21, 17, 7, 963976), 'lat_lon_source': 'website'}",132.768399978904,33.8408669181968,ビューティー＆ユース ユナイテッドアローズ 松山店,"{'opening_hours': {'Mon': '11:00-20:00', 'Tue': '11:00-20:00', 'Wed': '11:00-20:00', 'Thur': '11:00-20:00', 'Fri': '11:00-20:00', 'Sat': '11:00-20:00', 'Sun': '11:00-20:00'}}",050-8893-4215,790-0001,0390,愛媛県,https://anacpmatsuyama.com/
福岡県福岡市中央区天神2-2-43<br> ソラリアプラザ 2F,BEAUTY&YOUTH UNITED ARROWS,中国・四国・九州,Japan,"{'brand': 'BEAUTY&YOUTH UNITED ARROWS', 'fascia': 'ビューティー&ユース ユナイテッドアローズ', 'category': 'Fashion', 'edit_date': datetime.datetime(2025, 3, 4, 21, 17, 7, 964611), 'lat_lon_source': 'website'}",130.398673604648,33.5892740548837,ビューティー＆ユース ユナイテッドアローズ 福岡店,"{'opening_hours': {'Mon': '10:00-20:30', 'Tue': '10:00-20:30', 'Wed': '10:00-20:30', 'Thur': '10:00-20:30', 'Fri': '10:00-20:30', 'Sat': '10:00-20:30', 'Sun': '10:00-20:30'}}",050-8893-1893,810-0001,0373,福岡県,https://www.solariaplaza.com/
福岡県福岡市博多区那珂6-23-1 ららぽーと福岡 2F,BEAUTY&YOUTH UNITED ARROWS,中国・四国・九州,Japan,"{'brand': 'BEAUTY&YOUTH UNITED ARROWS', 'fascia': 'ビューティー&ユース ユナイテッドアローズ', 'category': 'Fashion', 'edit_date': datetime.datetime(2025, 3, 4, 21, 17, 7, 965150), 'lat_lon_source': 'website'}",130.440355108977,33.5652842079603,ビューティー＆ユース ユナイテッドアローズ ららぽーと福岡店,{'10:00 - 21:00'},092-588-7025,812-0893,0380,福岡県,https://mitsui-shopping-park.com/lalaport/special/fukuoka/
福岡県北九州市小倉北区船場町1-1<br>小倉井筒屋　新館3F,BEAUTY&YOUTH UNITED ARROWS,中国・四国・九州,Japan,"{'brand': 'BEAUTY&YOUTH UNITED ARROWS', 'fascia': 'ビューティー&ユース ユナイテッドアローズ', 'category': 'Fashion', 'edit_date': datetime.datetime(2025, 3, 4, 21, 17, 7, 976319), 'lat_lon_source': 'website'}",130.878117261115,33.8839125534361,ビューティー＆ユース ユナイテッドアローズ 小倉店,"{'opening_hours': {'Mon': '10:00-19:00', 'Tue': '10:00-19:00', 'Wed': '10:00-19:00', 'Thur': '10:00-19:00', 'Fri': '10:00-19:00', 'Sat': '10:00-19:00', 'Sun': '10:00-19:00'}}",093-512-0935,802-8511,0381,福岡県,https://www.izutsuya.co.jp/storelist/kokura/
長崎県長崎市尾上町1-1 アミュプラザ長崎 新館 1F,BEAUTY&YOUTH UNITED ARROWS,中国・四国・九州,Japan,"{'brand': 'BEAUTY&YOUTH UNITED ARROWS', 'fascia': 'ビューティー&ユース ユナイテッドアローズ', 'category': 'Fashion', 'edit_date': datetime.datetime(2025, 3, 4, 21, 17, 7, 977142), 'lat_lon_source': 'website'}",129.869734386916,32.7520153953704,ビューティー＆ユース ユナイテッドアローズ 長崎店,"{'opening_hours': {'Mon': '10:00-21:00', 'Tue': '10:00-21:00', 'Wed': '10:00-21:00', 'Thur': '10:00-21:00', 'Fri': '10:00-21:00', 'Sat': '10:00-21:00', 'Sun': '10:00-21:00'}}",095-811-0215,850-0058,0394,長崎県,https://www.amu-n.co.jp/
熊本県熊本市西区春日3-15-26 アミュプラザくまもと 1F,BEAUTY&YOUTH UNITED ARROWS,中国・四国・九州,Japan,"{'brand': 'BEAUTY&YOUTH UNITED ARROWS', 'fascia': 'ビューティー&ユース ユナイテッドアローズ', 'category': 'Fashion', 'edit_date': datetime.datetime(2025, 3, 4, 21, 17, 7, 977683), 'lat_lon_source': 'website'}",130.6884576,32.7889245,ビューティー＆ユース ユナイテッドアローズ 熊本店,{'10:00～20:00'},096-319-1118,860-0047,0385,熊本県,https://www.jrkumamotocity.com/
大分県大分市要町1番14号<br>アミュプラザおおいた1F,BEAUTY&YOUTH UNITED ARROWS,中国・四国・九州,Japan,"{'brand': 'BEAUTY&YOUTH UNITED ARROWS', 'fascia': 'ビューティー&ユース ユナイテッドアローズ', 'category': 'Fashion', 'edit_date': datetime.datetime(2025, 3, 4, 21, 17, 7, 978154), 'lat_lon_source': 'website'}",131.606758548785,33.2328662239707,ビューティー＆ユース ユナイテッドアローズ 大分店,{''},"097-513-1845,097-513-1846",870-0831,0382,大分県,https://www.jroitacity.jp/
鹿児島県鹿児島市呉服町6-5<br>マルヤガーデンズ 1F,BEAUTY&YOUTH UNITED ARROWS,中国・四国・九州,Japan,"{'brand': 'BEAUTY&YOUTH UNITED ARROWS', 'fascia': 'ビューティー&ユース ユナイテッドアローズ', 'category': 'Fashion', 'edit_date': datetime.datetime(2025, 3, 4, 21, 17, 7, 978681), 'lat_lon_source': 'website'}",130.556851755522,31.5911328485527,ビューティー＆ユース ユナイテッドアローズ 鹿児島店,"{'opening_hours': {'Mon': '10:00-20:00', 'Tue': '10:00-20:00', 'Wed': '10:00-20:00', 'Thur': '10:00-20:00', 'Fri': '10:00-20:00', 'Sat': '10:00-20:00', 'Sun': '10:00-20:00'}}",099-216-8887,892-0826,0395,鹿児島県,https://www.maruya-gardens.com/
東京都千代田区丸の内2-4-1 <br>丸ビル 3F,UNITED ARROWS green label relaxing,関東,Japan,"{'brand': 'UNITED ARROWS green label relaxing', 'fascia': 'ユナイテッドアローズ グリーンレーベル リラクシング', 'category': 'Fashion', 'edit_date': datetime.datetime(2025, 3, 4, 21, 17, 7, 979172), 'lat_lon_source': 'website'}",139.763774,35.681186,ユナイテッドアローズ グリーンレーベル リラクシング 丸の内店,{'Weekday/Sat 11:00-21:00<br>Sun/National holiday 11:00-20:00'},050-8893-4161,100-6303,0520,東京都,https://www.marunouchi.com/building/marubiru/
東京都千代田区有楽町2-5-1<br>ルミネ有楽町店 ルミネ1 4F,UNITED ARROWS green label relaxing,関東,Japan,"{'brand': 'UNITED ARROWS green label relaxing', 'fascia': 'ユナイテッドアローズ グリーンレーベル リラクシング', 'category': 'Fashion', 'edit_date': datetime.datetime(2025, 3, 4, 21, 17, 7, 979696), 'lat_lon_source': 'website'}",139.763438,35.673546,ユナイテッドアローズ グリーンレーベル リラクシング  ルミネ有楽町店,"{'opening_hours': {'Mon': '11:00-21:00', 'Tue': '11:00-21:00', 'Wed': '11:00-21:00', 'Thur': '11:00-21:00', 'Fri': '11:00-21:00', 'Sat': '11:00-21:00', 'Sun': '11:00-21:00'}}",03-5220-4680,100-0006,0524,東京都,https://www.lumine.ne.jp/yurakucho/
東京都中央区八重洲2-1 <br>ヤエチカ 外堀地下2番通り,UNITED ARROWS green label relaxing,関東,Japan,"{'brand': 'UNITED ARROWS green label relaxing', 'fascia': 'ユナイテッドアローズ グリーンレーベル リラクシング', 'category': 'Fashion', 'edit_date': datetime.datetime(2025, 3, 4, 21, 17, 7, 980489), 'lat_lon_source': 'website'}",139.76911006792,35.6805255403508,ユナイテッドアローズ グリーンレーベル リラクシング ヤエチカ店,"{'opening_hours': {'Mon': '10:00-20:00', 'Tue': '10:00-20:00', 'Wed': '10:00-20:00', 'Thur': '10:00-20:00', 'Fri': '10:00-20:00', 'Sat': '10:00-20:00', 'Sun': '10:00-20:00'}}",03-3517-3310,104-0028,2200,東京都,https://www.yaechika.com/
東京都港区新橋2丁目 <br>東口地下街1号 ウィング新橋 B1F,UNITED ARROWS green label relaxing,関東,Japan,"{'brand': 'UNITED ARROWS green label relaxing', 'fascia': 'ユナイテッドアローズ グリーンレーベル リラクシング', 'category': 'Fashion', 'edit_date': datetime.datetime(2025, 3, 4, 21, 17, 7, 991273), 'lat_lon_source': 'website'}",139.759019846631,35.6662950909797,ユナイテッドアローズ グリーンレーベル リラクシング ウィング新橋店,{'Weekday 10:00-22:00<br>Sat/Sun/National holiday 10:00-21:00'},03-3575-5585,105-0004　,2201,東京都,https://www.wing-net.ne.jp/shimbashi/
東京都新宿区新宿3-38-2<br> ルミネ新宿店 ルミネ2 5F,UNITED ARROWS green label relaxing,関東,Japan,"{'brand': 'UNITED ARROWS green label relaxing', 'fascia': 'ユナイテッドアローズ グリーンレーベル リラクシング', 'category': 'Fashion', 'edit_date': datetime.datetime(2025, 3, 4, 21, 17, 7, 992152), 'lat_lon_source': 'website'}",139.701153952485,35.6895295916452,ユナイテッドアローズ グリーンレーベル リラクシング ルミネ新宿店,{'Weekday 11:00-21:30<br>Sat/Sun/National holiday 10:30-21:30'},03-3345-9655,160-0022,0500,東京都,https://www.lumine.ne.jp/shinjuku/
東京都台東区上野7-1-1 <br>アトレ上野店 1F,UNITED ARROWS green label relaxing,関東,Japan,"{'brand': 'UNITED ARROWS green label relaxing', 'fascia': 'ユナイテッドアローズ グリーンレーベル リラクシング', 'category': 'Fashion', 'edit_date': datetime.datetime(2025, 3, 4, 21, 17, 7, 992947), 'lat_lon_source': 'website'}",139.775413865028,35.7124222785288,ユナイテッドアローズ グリーンレーベル リラクシング アトレ上野店,"{'opening_hours': {'Mon': '10:00-21:00', 'Tue': '10:00-21:00', 'Wed': '10:00-21:00', 'Thur': '10:00-21:00', 'Fri': '10:00-21:00', 'Sat': '10:00-21:00', 'Sun': '10:00-21:00'}}",03-5806-7361,110-0005,0526,東京都,https://www.atre.co.jp/store/ueno
東京都墨田区押上1-1-2 <br>東京スカイツリータウン・ソラマチ 3F,UNITED ARROWS green label relaxing,関東,Japan,"{'brand': 'UNITED ARROWS green label relaxing', 'fascia': 'ユナイテッドアローズ グリーンレーベル リラクシング', 'category': 'Fashion', 'edit_date': datetime.datetime(2025, 3, 4, 21, 17, 7, 993854), 'lat_lon_source': 'website'}",139.812003067309,35.7101091516015,ユナイテッドアローズ グリーンレーベル リラクシング 東京スカイツリータウン ソラマチ店,"{'opening_hours': {'Mon': '10:00-21:00', 'Tue': '10:00-21:00', 'Wed': '10:00-21:00', 'Thur': '10:00-21:00', 'Fri': '10:00-21:00', 'Sat': '10:00-21:00', 'Sun': '10:00-21:00'}}",03-5619-1676,131-0045,0528,東京都,https://www.tokyo-solamachi.jp/
東京都墨田区錦糸1-2-47 <br>テルミナ2ラ・ガール 1F,UNITED ARROWS green label relaxing,関東,Japan,"{'brand': 'UNITED ARROWS green label relaxing', 'fascia': 'ユナイテッドアローズ グリーンレーベル リラクシング', 'category': 'Fashion', 'edit_date': datetime.datetime(2025, 3, 4, 21, 17, 7, 995194), 'lat_lon_source': 'website'}",139.813973,35.69715,ユナイテッドアローズ グリーンレーベル リラクシング ウィメンズストア 錦糸町テルミナ店,"{'opening_hours': {'Mon': '10:00-21:00', 'Tue': '10:00-21:00', 'Wed': '10:00-21:00', 'Thur': '10:00-21:00', 'Fri': '10:00-21:00', 'Sat': '10:00-21:00', 'Sun': '10:00-21:00'}}",03-5637-910,130-0013,2251,東京都,https://www.termina.info/
東京都江東区豊洲2-4-9<br>アーバンドックららぽーと豊洲1 10910,UNITED ARROWS green label relaxing,関東,Japan,"{'brand': 'UNITED ARROWS green label relaxing', 'fascia': 'ユナイテッドアローズ グリーンレーベル リラクシング', 'category': 'Fashion', 'edit_date': datetime.datetime(2025, 3, 4, 21, 17, 7, 995833), 'lat_lon_source': 'website'}",139.792890886916,35.655077206284,ユナイテッドアローズ グリーンレーベル リラクシング ららぽーと豊洲店,"{'opening_hours': {'Mon': '10:00-21:00', 'Tue': '10:00-21:00', 'Wed': '10:00-21:00', 'Thur': '10:00-21:00', 'Fri': '10:00-21:00', 'Sat': '10:00-21:00', 'Sun': '10:00-21:00'}}",03-5547-3391,135-8614,0527,東京都,https://mitsui-shopping-park.com/lalaport/toyosu/
東京都江東区亀戸6-31-6 カメイドクロック 1F,UNITED ARROWS green label relaxing,関東,Japan,"{'brand': 'UNITED ARROWS green label relaxing', 'fascia': 'ユナイテッドアローズ グリーンレーベル リラクシング', 'category': 'Fashion', 'edit_date': datetime.datetime(2025, 3, 4, 21, 17, 8, 5699), 'lat_lon_source': 'website'}",139.829356237248,35.6962493393361,ユナイテッドアローズ グリーンレーベル リラクシング カメイドクロック店,{'10:00 - 21:00'},03-5609-7488,136-0071,0531,東京都,https://www.kameidoclock.jp/
東京都品川区大井1-2-1 アトレ大井町 2F,UNITED ARROWS green label relaxing,関東,Japan,"{'brand': 'UNITED ARROWS green label relaxing', 'fascia': 'ユナイテッドアローズ グリーンレーベル リラクシング', 'category': 'Fashion', 'edit_date': datetime.datetime(2025, 3, 4, 21, 17, 8, 6538), 'lat_lon_source': 'website'}",139.734816039361,35.606362984775,ユナイテッドアローズ グリーンレーベル リラクシング アトレ大井町店,"{'opening_hours': {'Mon': '10:00-21:00', 'Tue': '10:00-21:00', 'Wed': '10:00-21:00', 'Thur': '10:00-21:00', 'Fri': '10:00-21:00', 'Sat': '10:00-21:00', 'Sun': '10:00-21:00'}}",03-6451-8031,140-0014,0522,東京都,https://www.atre.co.jp/oimachi/
東京都世田谷区奥沢5-25-13,UNITED ARROWS green label relaxing,関東,Japan,"{'brand': 'UNITED ARROWS green label relaxing', 'fascia': 'ユナイテッドアローズ グリーンレーベル リラクシング', 'category': 'Fashion', 'edit_date': datetime.datetime(2025, 3, 4, 21, 17, 8, 7150), 'lat_lon_source': 'website'}",139.67042056362,35.6069958745687,ユナイテッドアローズ グリーンレーベル リラクシング 自由が丘店,"{'opening_hours': {'Mon': '11:00-20:00', 'Tue': '11:00-20:00', 'Wed': '11:00-20:00', 'Thur': '11:00-20:00', 'Fri': '11:00-20:00', 'Sat': '11:00-20:00', 'Sun': '11:00-20:00'}}",03-5731-8531,158-0083,0501,東京都,https://www.instagram.com/ua_greenlabel/
東京都世田谷区玉川2-21-1<br>二子玉川ライズ・ショッピングセンター・タウンフロント 3F,UNITED ARROWS green label relaxing,関東,Japan,"{'brand': 'UNITED ARROWS green label relaxing', 'fascia': 'ユナイテッドアローズ グリーンレーベル リラクシング', 'category': 'Fashion', 'edit_date': datetime.datetime(2025, 3, 4, 21, 17, 8, 7715), 'lat_lon_source': 'website'}",139.628650301847,35.6126568228215,ユナイテッドアローズ グリーンレーベル リラクシング 二子玉川ライズ店,"{'opening_hours': {'Mon': '10:00-21:00', 'Tue': '10:00-21:00', 'Wed': '10:00-21:00', 'Thur': '10:00-21:00', 'Fri': '10:00-21:00', 'Sat': '10:00-21:00', 'Sun': '10:00-21:00'}}",03-5797-5340,158-0094,0513,東京都,https://www.rise.sc/
東京都豊島区西池袋1-11-1 <br>ルミネ池袋 6F,UNITED ARROWS green label relaxing,関東,Japan,"{'brand': 'UNITED ARROWS green label relaxing', 'fascia': 'ユナイテッドアローズ グリーンレーベル リラクシング', 'category': 'Fashion', 'edit_date': datetime.datetime(2025, 3, 4, 21, 17, 8, 8350), 'lat_lon_source': 'website'}",139.709367851894,35.7292042425655,ユナイテッドアローズ グリーンレーベル リラクシング ルミネ池袋店,{'Weekday 11:00-21:30<br>Sat/Sun/National holiday 11:00-21:00'},03-5956-5133,171-0021,0523,東京都,https://www.lumine.ne.jp/ikebukuro/
東京都練馬区光が丘5-1-1 <br>光が丘IMA イマミセ 1F,UNITED ARROWS green label relaxing,関東,Japan,"{'brand': 'UNITED ARROWS green label relaxing', 'fascia': 'ユナイテッドアローズ グリーンレーベル リラクシング', 'category': 'Fashion', 'edit_date': datetime.datetime(2025, 3, 4, 21, 17, 8, 9021), 'lat_lon_source': 'website'}",139.628556778971,35.7591221803803,ユナイテッドアローズ グリーンレーベル リラクシング 光が丘IMA店,"{'opening_hours': {'Mon': '10:00-21:00', 'Tue': '10:00-21:00', 'Wed': '10:00-21:00', 'Thur': '10:00-21:00', 'Fri': '10:00-21:00', 'Sat': '10:00-21:00', 'Sun': '10:00-21:00'}}",03-6909-8602,179-0072,0539,東京都,https://www.ima-hikarigaoka.jp/
東京都足立区千住旭町42-2<br>ルミネ北千住 4F,UNITED ARROWS green label relaxing,関東,Japan,"{'brand': 'UNITED ARROWS green label relaxing', 'fascia': 'ユナイテッドアローズ グリーンレーベル リラクシング', 'category': 'Fashion', 'edit_date': datetime.datetime(2025, 3, 4, 21, 17, 8, 9687), 'lat_lon_source': 'website'}",139.804978052486,35.7501278945179,ユナイテッドアローズ グリーンレーベル リラクシング ルミネ北千住店,"{'opening_hours': {'Mon': '10:00-20:30', 'Tue': '10:00-20:30', 'Wed': '10:00-20:30', 'Thur': '10:00-20:30', 'Fri': '10:00-20:30', 'Sat': '10:00-20:30', 'Sun': '10:00-20:30'}}",03-5813-0447,120-0026,0530,東京都,https://www.lumine.ne.jp/kitasenju/
東京都八王子市旭町1-1 <br>セレオ八王子 北館 2F,UNITED ARROWS green label relaxing,関東,Japan,"{'brand': 'UNITED ARROWS green label relaxing', 'fascia': 'ユナイテッドアローズ グリーンレーベル リラクシング', 'category': 'Fashion', 'edit_date': datetime.datetime(2025, 3, 4, 21, 17, 8, 10207), 'lat_lon_source': 'website'}",139.339159049538,35.656103821522194,ユナイテッドアローズ グリーンレーベル リラクシング セレオ八王子店,"{'opening_hours': {'Mon': '10:00-21:00', 'Tue': '10:00-21:00', 'Wed': '10:00-21:00', 'Thur': '10:00-21:00', 'Fri': '10:00-21:00', 'Sat': '10:00-21:00', 'Sun': '10:00-21:00'}}",042-686-3261,192-0083,0534,東京都,https://www.jrccd.co.jp/celeo/hachioji/
東京都立川市曙町2-1-1<br>ルミネ立川店 3F<br>,UNITED ARROWS green label relaxing,関東,Japan,"{'brand': 'UNITED ARROWS green label relaxing', 'fascia': 'ユナイテッドアローズ グリーンレーベル リラクシング', 'category': 'Fashion', 'edit_date': datetime.datetime(2025, 3, 4, 21, 17, 8, 19671), 'lat_lon_source': 'website'}",139.413163288516,35.6985091063876,ユナイテッドアローズ グリーンレーベル リラクシング ルミネ立川店,{'Weekday 10:00-21:00<br>Sat/Sun/National holiday 10:00-20:30'},050-8893-4163,190-0012,0535,東京都,https://www.lumine.ne.jp/tachikawa/
東京都立川市泉町935-1 <br>ららぽーと立川立飛 2F 23900,UNITED ARROWS green label relaxing,関東,Japan,"{'brand': 'UNITED ARROWS green label relaxing', 'fascia': 'ユナイテッドアローズ グリーンレーベル リラクシング', 'category': 'Fashion', 'edit_date': datetime.datetime(2025, 3, 4, 21, 17, 8, 20655), 'lat_lon_source': 'website'}",139.417472796757,35.7129897290503,ユナイテッドアローズ グリーンレーベル リラクシング ららぽーと立川立飛店,"{'opening_hours': {'Mon': '10:00-21:00', 'Tue': '10:00-21:00', 'Wed': '10:00-21:00', 'Thur': '10:00-21:00', 'Fri': '10:00-21:00', 'Sat': '10:00-21:00', 'Sun': '10:00-21:00'}}",042-540-0021,190-0015,0536,東京都,https://mitsui-shopping-park.com/lalaport/tachikawa/
東京都武蔵野市吉祥寺本町1-11-5<br>コピス吉祥寺 B館 1F,UNITED ARROWS green label relaxing,関東,Japan,"{'brand': 'UNITED ARROWS green label relaxing', 'fascia': 'ユナイテッドアローズ グリーンレーベル リラクシング', 'category': 'Fashion', 'edit_date': datetime.datetime(2025, 3, 4, 21, 17, 8, 21834), 'lat_lon_source': 'website'}",139.579711017559,35.7050065152016,ユナイテッドアローズ グリーンレーベル リラクシング コピス吉祥寺店,"{'opening_hours': {'Mon': '10:00-21:00', 'Tue': '10:00-21:00', 'Wed': '10:00-21:00', 'Thur': '10:00-21:00', 'Fri': '10:00-21:00', 'Sat': '10:00-21:00', 'Sun': '10:00-21:00'}}",050-8893-4223,180-0004,0532,東京都,https://www.coppice.jp/
東京都調布市布田4-4-22 <br>トリエ京王調布 2F,UNITED ARROWS green label relaxing,関東,Japan,"{'brand': 'UNITED ARROWS green label relaxing', 'fascia': 'ユナイテッドアローズ グリーンレーベル リラクシング', 'category': 'Fashion', 'edit_date': datetime.datetime(2025, 3, 4, 21, 17, 8, 22396), 'lat_lon_source': 'website'}",139.545072843399,35.6517209842047,ユナイテッドアローズ グリーンレーベル リラクシング 調布店,"{'opening_hours': {'Mon': '10:00-21:00', 'Tue': '10:00-21:00', 'Wed': '10:00-21:00', 'Thur': '10:00-21:00', 'Fri': '10:00-21:00', 'Sat': '10:00-21:00', 'Sun': '10:00-21:00'}}",042-443-5948,182-0024,0537,東京都,https://trie-keiochofu.jp/
東京都町田市原町田6-1-11<br> ルミネ町田店 6F,UNITED ARROWS green label relaxing,関東,Japan,"{'brand': 'UNITED ARROWS green label relaxing', 'fascia': 'ユナイテッドアローズ グリーンレーベル リラクシング', 'category': 'Fashion', 'edit_date': datetime.datetime(2025, 3, 4, 21, 17, 8, 22867), 'lat_lon_source': 'website'}",139.4460946,35.54204016,ユナイテッドアローズ グリーンレーベル リラクシング  ルミネ町田店,{'Weekday 10:00-21:00<br>Sat/Sun/National holiday 10:00-20:30'},050-8893-4157,194-0013,0510,東京都,https://www.lumine.ne.jp/machida/
茨城県水戸市宮町1-1-1  <br>水戸駅ビル エクセル本館 2Ｆプラムストリート,UNITED ARROWS green label relaxing,関東,Japan,"{'brand': 'UNITED ARROWS green label relaxing', 'fascia': 'ユナイテッドアローズ グリーンレーベル リラクシング', 'category': 'Fashion', 'edit_date': datetime.datetime(2025, 3, 4, 21, 17, 8, 23295), 'lat_lon_source': 'website'}",140.475610667331,36.3710586514692,ユナイテッドアローズ グリーンレーベル リラクシング 水戸エクセル店,"{'opening_hours': {'Mon': '10:00-20:00', 'Tue': '10:00-20:00', 'Wed': '10:00-20:00', 'Thur': '10:00-20:00', 'Fri': '10:00-20:00', 'Sat': '10:00-20:00', 'Sun': '10:00-20:00'}}",029-302-3035,310-0015,0575,茨城県,https://www.excel-mito.com/
群馬県高崎市八島町222  <br>高崎モントレー コンコースF,UNITED ARROWS green label relaxing,関東,Japan,"{'brand': 'UNITED ARROWS green label relaxing', 'fascia': 'ユナイテッドアローズ グリーンレーベル リラクシング', 'category': 'Fashion', 'edit_date': datetime.datetime(2025, 3, 4, 21, 17, 8, 23736), 'lat_lon_source': 'website'}",139.012092590031,36.3224437375109,ユナイテッドアローズ グリーンレーベル リラクシング 高崎モントレー店,"{'opening_hours': {'Mon': '10:00-20:30', 'Tue': '10:00-20:30', 'Wed': '10:00-20:30', 'Thur': '10:00-20:30', 'Fri': '10:00-20:30', 'Sat': '10:00-20:30', 'Sun': '10:00-20:30'}}",027-310-5100,370-0849,0576,群馬県,https://www.takasakitb.co.jp/t-montres/
埼玉県所沢市くすのき台1-14-5<br> グランエミオ所沢 2F,UNITED ARROWS green label relaxing,関東,Japan,"{'brand': 'UNITED ARROWS green label relaxing', 'fascia': 'ユナイテッドアローズ グリーンレーベル リラクシング', 'category': 'Fashion', 'edit_date': datetime.datetime(2025, 3, 4, 21, 17, 8, 24257), 'lat_lon_source': 'website'}",139.474007843386,35.786812628157,ユナイテッドアローズ グリーンレーベル リラクシング グランエミオ所沢店,"{'opening_hours': {'Mon': '10:00-21:00', 'Tue': '10:00-21:00', 'Wed': '10:00-21:00', 'Thur': '10:00-21:00', 'Fri': '10:00-21:00', 'Sat': '10:00-21:00', 'Sun': '10:00-21:00'}}",04-2991-0205,359-0037,0538,埼玉県,https://www.ge-tokorozawa.com/
埼玉県さいたま市大宮区錦町630<br>ルミネ大宮2 3F,UNITED ARROWS green label relaxing,関東,Japan,"{'brand': 'UNITED ARROWS green label relaxing', 'fascia': 'ユナイテッドアローズ グリーンレーベル リラクシング', 'category': 'Fashion', 'edit_date': datetime.datetime(2025, 3, 4, 21, 17, 8, 24783), 'lat_lon_source': 'website'}",139.62368204339,35.9065034172327,ユナイテッドアローズ グリーンレーベル リラクシング ルミネ大宮店,{'Weekday/Sat 10:00-21:00<br>Sun/National holiday 10:00-20:30'},048-640-7171,330-0853,0541,埼玉県,https://www.lumine.ne.jp/omiya/
埼玉県さいたま市大宮区吉敷町 4-263-1 コクーンシティ cocoon2 2F,UNITED ARROWS green label relaxing,関東,Japan,"{'brand': 'UNITED ARROWS green label relaxing', 'fascia': 'ユナイテッドアローズ グリーンレーベル リラクシング', 'category': 'Fashion', 'edit_date': datetime.datetime(2025, 3, 4, 21, 17, 8, 34581), 'lat_lon_source': 'website'}",139.635910175951,35.8958140377398,ユナイテッドアローズ グリーンレーベル リラクシング コクーンシティ さいたま新都心店,{'10:00～21:00'},048-657-6681,330-9559,0547,埼玉県,https://www.cocooncity.jp/
埼玉県さいたま市浦和区東高砂町11-1<br>浦和パルコ1F,UNITED ARROWS green label relaxing,関東,Japan,"{'brand': 'UNITED ARROWS green label relaxing', 'fascia': 'ユナイテッドアローズ グリーンレーベル リラクシング', 'category': 'Fashion', 'edit_date': datetime.datetime(2025, 3, 4, 21, 17, 8, 35501), 'lat_lon_source': 'website'}",139.658588737866,35.8588666108337,ユナイテッドアローズ グリーンレーベル リラクシング 浦和パルコ店,"{'opening_hours': {'Mon': '10:00-21:00', 'Tue': '10:00-21:00', 'Wed': '10:00-21:00', 'Thur': '10:00-21:00', 'Fri': '10:00-21:00', 'Sat': '10:00-21:00', 'Sun': '10:00-21:00'}}",048-871-2742,330-0055,0548,埼玉県,https://urawa.parco.jp/
埼玉県川越市脇田町105<br> アトレマルヒロ 2F,UNITED ARROWS green label relaxing,関東,Japan,"{'brand': 'UNITED ARROWS green label relaxing', 'fascia': 'ユナイテッドアローズ グリーンレーベル リラクシング', 'category': 'Fashion', 'edit_date': datetime.datetime(2025, 3, 4, 21, 17, 8, 36416), 'lat_lon_source': 'website'}",139.483018314554,35.9086806014971,ユナイテッドアローズ グリーンレーベル リラクシング 川越店,"{'opening_hours': {'Mon': '10:00-21:00', 'Tue': '10:00-21:00', 'Wed': '10:00-21:00', 'Thur': '10:00-21:00', 'Fri': '10:00-21:00', 'Sat': '10:00-21:00', 'Sun': '10:00-21:00'}}",050-8893-4168,350-1122,0549,埼玉県,https://www.atre-kawagoe.com/
埼玉県越谷市レイクタウン4-2-2 イオンレイクタウン KAZE 2F,UNITED ARROWS green label relaxing,関東,Japan,"{'brand': 'UNITED ARROWS green label relaxing', 'fascia': 'ユナイテッドアローズ グリーンレーベル リラクシング', 'category': 'Fashion', 'edit_date': datetime.datetime(2025, 3, 4, 21, 17, 8, 37201), 'lat_lon_source': 'website'}",139.825869583219,35.8788418133854,ユナイテッドアローズ グリーンレーベル リラクシング 越谷レイクタウン店,"{'opening_hours': {'Mon': '10:00-21:00', 'Tue': '10:00-21:00', 'Wed': '10:00-21:00', 'Thur': '10:00-21:00', 'Fri': '10:00-21:00', 'Sat': '10:00-21:00', 'Sun': '10:00-21:00'}}",048-990-5040,343-0828,0568,埼玉県,https://laketownkaze-aeonmall.com/
埼玉県富士見市山室1-1313<br>ららぽーと富士見 2F,UNITED ARROWS green label relaxing,関東,Japan,"{'brand': 'UNITED ARROWS green label relaxing', 'fascia': 'ユナイテッドアローズ グリーンレーベル リラクシング', 'category': 'Fashion', 'edit_date': datetime.datetime(2025, 3, 4, 21, 17, 8, 37923), 'lat_lon_source': 'website'}",139.548045414553,35.8592308704001,ユナイテッドアローズ グリーンレーベル リラクシング ららぽーと富士見店,"{'opening_hours': {'Mon': '10:00-21:00', 'Tue': '10:00-21:00', 'Wed': '10:00-21:00', 'Thur': '10:00-21:00', 'Fri': '10:00-21:00', 'Sat': '10:00-21:00', 'Sun': '10:00-21:00'}}",049-268-0105,354-8560,0562,埼玉県,https://mitsui-shopping-park.com/lalaport/fujimi/
千葉県柏市若柴175 <br>ららぽーと柏の葉 2F,UNITED ARROWS green label relaxing,関東,Japan,"{'brand': 'UNITED ARROWS green label relaxing', 'fascia': 'ユナイテッドアローズ グリーンレーベル リラクシング', 'category': 'Fashion', 'edit_date': datetime.datetime(2025, 3, 4, 21, 17, 8, 38831), 'lat_lon_source': 'website'}",139.951023367927,35.8932856302415,ユナイテッドアローズ グリーンレーベル リラクシング ららぽーと柏の葉店,"{'opening_hours': {'Mon': '10:00-21:00', 'Tue': '10:00-21:00', 'Wed': '10:00-21:00', 'Thur': '10:00-21:00', 'Fri': '10:00-21:00', 'Sat': '10:00-21:00', 'Sun': '10:00-21:00'}}",050-8893-4159,277-8518,0514,千葉県,https://mitsui-shopping-park.com/lalaport/kashiwa/
千葉県柏市末広町1-1<br>柏髙島屋ステーションモール S館 専門店6F,UNITED ARROWS green label relaxing,関東,Japan,"{'brand': 'UNITED ARROWS green label relaxing', 'fascia': 'ユナイテッドアローズ グリーンレーベル リラクシング', 'category': 'Fashion', 'edit_date': datetime.datetime(2025, 3, 4, 21, 17, 8, 50090), 'lat_lon_source': 'website'}",139.970731202259,35.8625483098259,ユナイテッドアローズ グリーンレーベル リラクシング 柏髙島屋ステーションモール店,"{'opening_hours': {'Mon': '10:00-21:00', 'Tue': '10:00-21:00', 'Wed': '10:00-21:00', 'Thur': '10:00-21:00', 'Fri': '10:00-21:00', 'Sat': '10:00-21:00', 'Sun': '10:00-21:00'}}",050-8893-4160,277-8550,0515,千葉県,https://www.takashimaya.co.jp/kashiwa/stemo/
千葉県船橋市浜町2-1-1<br>ららぽーとTOKYO-BAY 南館 1F,UNITED ARROWS green label relaxing,関東,Japan,"{'brand': 'UNITED ARROWS green label relaxing', 'fascia': 'ユナイテッドアローズ グリーンレーベル リラクシング', 'category': 'Fashion', 'edit_date': datetime.datetime(2025, 3, 4, 21, 17, 8, 51636), 'lat_lon_source': 'website'}",139.989424406664,35.6860964805484,ユナイテッドアローズ グリーンレーベル リラクシング 船橋店　※こちらは、ららぽーとTOKYO-BAY店です,{'Mon-Thu 10:00-20:00<br>Fri-Sun/National holiday 10:00-21:00'},050-8893-4156,273-8530,0517,千葉県,https://mitsui-shopping-park.com/lalaport/tokyo-bay/
千葉県千葉市中央区新千葉1-1-1 <br>ペリエ千葉 5F,UNITED ARROWS green label relaxing,関東,Japan,"{'brand': 'UNITED ARROWS green label relaxing', 'fascia': 'ユナイテッドアローズ グリーンレーベル リラクシング', 'category': 'Fashion', 'edit_date': datetime.datetime(2025, 3, 4, 21, 17, 8, 52351), 'lat_lon_source': 'website'}",140.114582,35.612435,ユナイテッドアローズ グリーンレーベル リラクシング ペリエ千葉店,{'Mon 10:30-21:00 <br>Thu-Sat 10:00-21:00 <br>Sun/National holiday  10:00-20:30'},043-202-0044,260-0031,0542,千葉県,https://www.perie.co.jp/chiba/
千葉県船橋市本町7-1-1 <br>シャポー船橋 1F,UNITED ARROWS green label relaxing,関東,Japan,"{'brand': 'UNITED ARROWS green label relaxing', 'fascia': 'ユナイテッドアローズ グリーンレーベル リラクシング', 'category': 'Fashion', 'edit_date': datetime.datetime(2025, 3, 4, 21, 17, 8, 52988), 'lat_lon_source': 'website'}",139.986018158356,35.7017641588639,ユナイテッドアローズ グリーンレーベル リラクシング ウィメンズストア シャポー船橋店,"{'opening_hours': {'Mon': '10:00-21:00', 'Tue': '10:00-21:00', 'Wed': '10:00-21:00', 'Thur': '10:00-21:00', 'Fri': '10:00-21:00', 'Sat': '10:00-21:00', 'Sun': '10:00-21:00'}}",047-460-0170,273-0005,2253,千葉県,https://shapo.jrtk.jp/funabashi/
神奈川県横浜市都筑区中川中央1-31-1<br>モザイクモール港北 1F,UNITED ARROWS green label relaxing,関東,Japan,"{'brand': 'UNITED ARROWS green label relaxing', 'fascia': 'ユナイテッドアローズ グリーンレーベル リラクシング', 'category': 'Fashion', 'edit_date': datetime.datetime(2025, 3, 4, 21, 17, 8, 53500), 'lat_lon_source': 'website'}",139.578513342191,35.5549860515209,ユナイテッドアローズ グリーンレーベル リラクシング  モザイクモール港北店,"{'opening_hours': {'Mon': '10:00-20:00', 'Tue': '10:00-20:00', 'Wed': '10:00-20:00', 'Thur': '10:00-20:00', 'Fri': '10:00-20:00', 'Sat': '10:00-20:00', 'Sun': '10:00-20:00'}}",045-914-2929,224-0003,0511,神奈川県,https://www.mosaicmall.jp/
神奈川県横浜市青葉区美しが丘1-1-2<br>たまプラーザ テラス ゲートプラザ 2F,UNITED ARROWS green label relaxing,関東,Japan,"{'brand': 'UNITED ARROWS green label relaxing', 'fascia': 'ユナイテッドアローズ グリーンレーベル リラクシング', 'category': 'Fashion', 'edit_date': datetime.datetime(2025, 3, 4, 21, 17, 8, 54071), 'lat_lon_source': 'website'}",139.558564378913,35.5778286031232,ユナイテッドアローズ グリーンレーベル リラクシング たまプラーザテラス店,"{'opening_hours': {'Mon': '10:00-20:00', 'Tue': '10:00-20:00', 'Wed': '10:00-20:00', 'Thur': '10:00-20:00', 'Fri': '10:00-20:00', 'Sat': '10:00-20:00', 'Sun': '10:00-20:00'}}",050-8893-4158,225-8535,0512,神奈川県,https://www.tamaplaza-terrace.com/
神奈川県横浜市青葉区青葉台2-1-1 <br>青葉台東急スクエア South-2 1F,UNITED ARROWS green label relaxing,関東,Japan,"{'brand': 'UNITED ARROWS green label relaxing', 'fascia': 'ユナイテッドアローズ グリーンレーベル リラクシング', 'category': 'Fashion', 'edit_date': datetime.datetime(2025, 3, 4, 21, 17, 8, 65231), 'lat_lon_source': 'website'}",139.517051689399,35.5427490001133,ユナイテッドアローズ グリーンレーベル リラクシング 青葉台東急スクエア店,"{'opening_hours': {'Mon': '10:00-21:00', 'Tue': '10:00-21:00', 'Wed': '10:00-21:00', 'Thur': '10:00-21:00', 'Fri': '10:00-21:00', 'Sat': '10:00-21:00', 'Sun': '10:00-21:00'}}",045-985-5030,227-8555,0519,神奈川県,https://www.aobadai-square.com/
神奈川県横浜市西区高島2-16-1<br>ルミネ横浜 5F,UNITED ARROWS green label relaxing,関東,Japan,"{'brand': 'UNITED ARROWS green label relaxing', 'fascia': 'ユナイテッドアローズ グリーンレーベル リラクシング', 'category': 'Fashion', 'edit_date': datetime.datetime(2025, 3, 4, 21, 17, 8, 66169), 'lat_lon_source': 'website'}",139.622808,35.465388,ユナイテッドアローズ グリーンレーベル リラクシング ルミネ横浜店,{'Weekday 10:00-21:00<br>Sat/Sun/National holiday 10:00-20:30'},050-8893-4164,220-0011,0540,神奈川県,https://www.lumine.ne.jp/yokohama/
神奈川県横浜市西区みなとみらい3-5-1<br>マークイズみなとみらい2F,UNITED ARROWS green label relaxing,関東,Japan,"{'brand': 'UNITED ARROWS green label relaxing', 'fascia': 'ユナイテッドアローズ グリーンレーベル リラクシング', 'category': 'Fashion', 'edit_date': datetime.datetime(2025, 3, 4, 21, 17, 8, 66996), 'lat_lon_source': 'website'}",139.632386315828,35.4571100654205,ユナイテッドアローズ グリーンレーベル リラクシング マークイズみなとみらい店,{''},045-228-3262,220-0012,0543,神奈川県,https://www.mec-markis.jp/mm/
神奈川県川崎市幸区堀川町72-1 <br>ラゾーナ川崎プラザ 2F,UNITED ARROWS green label relaxing,関東,Japan,"{'brand': 'UNITED ARROWS green label relaxing', 'fascia': 'ユナイテッドアローズ グリーンレーベル リラクシング', 'category': 'Fashion', 'edit_date': datetime.datetime(2025, 3, 4, 21, 17, 8, 67728), 'lat_lon_source': 'website'}",139.694884167903,35.5328513273358,ユナイテッドアローズ グリーンレーベル リラクシング  ラゾーナ川崎プラザ店,"{'opening_hours': {'Mon': '10:00-21:00', 'Tue': '10:00-21:00', 'Wed': '10:00-21:00', 'Thur': '10:00-21:00', 'Fri': '10:00-21:00', 'Sat': '10:00-21:00', 'Sun': '10:00-21:00'}}",044-520-0223,212-8576,0544,神奈川県,https://mitsui-shopping-park.com/lazona-kawasaki/
神奈川県横浜市都筑区池辺町4035-1<br>ららぽ-と横浜 1F #13010,UNITED ARROWS green label relaxing,関東,Japan,"{'brand': 'UNITED ARROWS green label relaxing', 'fascia': 'ユナイテッドアローズ グリーンレーベル リラクシング', 'category': 'Fashion', 'edit_date': datetime.datetime(2025, 3, 4, 21, 17, 8, 79374), 'lat_lon_source': 'website'}",139.565875461168,35.517632168227,ユナイテッドアローズ グリーンレーベル リラクシング ららぽーと横浜店,"{'opening_hours': {'Mon': '10:00-21:00', 'Tue': '10:00-21:00', 'Wed': '10:00-21:00', 'Thur': '10:00-21:00', 'Fri': '10:00-21:00', 'Sat': '10:00-21:00', 'Sun': '10:00-21:00'}}",045-929-2389,224-0053,0545,神奈川県,https://mitsui-shopping-park.com/lalaport/yokohama/
神奈川県藤沢市辻堂神台1-3-1<br>テラスモール湘南 2F,UNITED ARROWS green label relaxing,関東,Japan,"{'brand': 'UNITED ARROWS green label relaxing', 'fascia': 'ユナイテッドアローズ グリーンレーベル リラクシング', 'category': 'Fashion', 'edit_date': datetime.datetime(2025, 3, 4, 21, 17, 8, 80522), 'lat_lon_source': 'website'}",139.446680716404,35.3383693176492,ユナイテッドアローズ グリーンレーベル リラクシング テラスモール湘南店,"{'opening_hours': {'Mon': '10:00-21:00', 'Tue': '10:00-21:00', 'Wed': '10:00-21:00', 'Thur': '10:00-21:00', 'Fri': '10:00-21:00', 'Sat': '10:00-21:00', 'Sun': '10:00-21:00'}}",050-8893-4166,251-0041,0546,神奈川県,https://shonan.terracemall.com/
神奈川県鎌倉市大船1-4-1 <br>大船ルミネウィング 3F,UNITED ARROWS green label relaxing,関東,Japan,"{'brand': 'UNITED ARROWS green label relaxing', 'fascia': 'ユナイテッドアローズ グリーンレーベル リラクシング', 'category': 'Fashion', 'edit_date': datetime.datetime(2025, 3, 4, 21, 17, 8, 81431), 'lat_lon_source': 'website'}",139.531458,35.35275,ユナイテッドアローズ グリーンレーベル リラクシング  大船ルミネウィング店,{'Weekday 10:00-21:00<br>Sat/Sun/National holiday 10:00-20:30'},050-8893-4170,247-0056,0560,神奈川県,https://www.lumine.ne.jp/luminewing/
神奈川県川崎市中原区新丸子東3-1302 <br>ららテラス 武蔵小杉 2F,UNITED ARROWS green label relaxing,関東,Japan,"{'brand': 'UNITED ARROWS green label relaxing', 'fascia': 'ユナイテッドアローズ グリーンレーベル リラクシング', 'category': 'Fashion', 'edit_date': datetime.datetime(2025, 3, 4, 21, 17, 8, 82179), 'lat_lon_source': 'website'}",139.660083614539,35.5751590068787,ユナイテッドアローズ グリーンレーベル リラクシング  武蔵小杉店,"{'opening_hours': {'Mon': '10:00-21:00', 'Tue': '10:00-21:00', 'Wed': '10:00-21:00', 'Thur': '10:00-21:00', 'Fri': '10:00-21:00', 'Sat': '10:00-21:00', 'Sun': '10:00-21:00'}}",044-430-1571,211-0004,0561,神奈川県,
神奈川県海老名市扇町13-1 <br>ららぽーと海老名 2F,UNITED ARROWS green label relaxing,関東,Japan,"{'brand': 'UNITED ARROWS green label relaxing', 'fascia': 'ユナイテッドアローズ グリーンレーベル リラクシング', 'category': 'Fashion', 'edit_date': datetime.datetime(2025, 3, 4, 21, 17, 8, 82970), 'lat_lon_source': 'website'}",139.389077414649,35.4556950340794,ユナイテッドアローズ グリーンレーベル リラクシング ららぽーと海老名店,"{'opening_hours': {'Mon': '10:00-21:00', 'Tue': '10:00-21:00', 'Wed': '10:00-21:00', 'Thur': '10:00-21:00', 'Fri': '10:00-21:00', 'Sat': '10:00-21:00', 'Sun': '10:00-21:00'}}",046-292-3931,243-0482,0563,神奈川県,https://mitsui-shopping-park.com/lalaport/ebina/
神奈川県横浜市港南区上大岡西1-6-1<br>ウィング上大岡 3F,UNITED ARROWS green label relaxing,関東,Japan,"{'brand': 'UNITED ARROWS green label relaxing', 'fascia': 'ユナイテッドアローズ グリーンレーベル リラクシング', 'category': 'Fashion', 'edit_date': datetime.datetime(2025, 3, 4, 21, 17, 8, 83785), 'lat_lon_source': 'website'}",139.596055,35.408101,ユナイテッドアローズ グリーンレーベル リラクシング ウィング上大岡店,"{'opening_hours': {'Mon': '10:00-20:00', 'Tue': '10:00-20:00', 'Wed': '10:00-20:00', 'Thur': '10:00-20:00', 'Fri': '10:00-20:00', 'Sat': '10:00-20:00', 'Sun': '10:00-20:00'}}",045-840-2021,233-8555,0564,神奈川県,https://www.wing-net.ne.jp/kamiooka/
神奈川県横浜市泉区ゆめが丘31 ゆめが丘ソラトス 1 2F,UNITED ARROWS green label relaxing,関東,Japan,"{'brand': 'UNITED ARROWS green label relaxing', 'fascia': 'ユナイテッドアローズ グリーンレーベル リラクシング', 'category': 'Fashion', 'edit_date': datetime.datetime(2025, 3, 4, 21, 17, 8, 84618), 'lat_lon_source': 'website'}",139.48297565326,35.4054909313514,ユナイテッドアローズ グリーンレーベル リラクシング ゆめが丘ソラトス店,"{'opening_hours': {'Mon': '10:00-20:00', 'Tue': '10:00-20:00', 'Wed': '10:00-20:00', 'Thur': '10:00-20:00', 'Fri': '10:00-20:00', 'Sat': '10:00-20:00', 'Sun': '10:00-20:00'}}",045-719-5401,245-0019,2210,神奈川県,https://www.yumegaoka-soratos.com/
神奈川県川崎市川崎区駅前本町26-1 <br>アトレ川崎 1F,UNITED ARROWS green label relaxing,関東,Japan,"{'brand': 'UNITED ARROWS green label relaxing', 'fascia': 'ユナイテッドアローズ グリーンレーベル リラクシング', 'category': 'Fashion', 'edit_date': datetime.datetime(2025, 3, 4, 21, 17, 8, 88936), 'lat_lon_source': 'website'}",139.698005855633,35.5310930574232,ユナイテッドアローズ グリーンレーベル リラクシング ウィメンズストア アトレ川崎店,"{'opening_hours': {'Mon': '10:00-21:00', 'Tue': '10:00-21:00', 'Wed': '10:00-21:00', 'Thur': '10:00-21:00', 'Fri': '10:00-21:00', 'Sat': '10:00-21:00', 'Sun': '10:00-21:00'}}",044-221-8177,210-0007,2250,神奈川県,https://www.atre.co.jp/store/kawasaki
北海道札幌市中央区北5条西2・3丁目<br>札幌ステラプレイス イースト B1F,UNITED ARROWS green label relaxing,北海道・東北,Japan,"{'brand': 'UNITED ARROWS green label relaxing', 'fascia': 'ユナイテッドアローズ グリーンレーベル リラクシング', 'category': 'Fashion', 'edit_date': datetime.datetime(2025, 3, 4, 21, 17, 8, 94724), 'lat_lon_source': 'website'}",141.351882397565,43.0679838757444,ユナイテッドアローズ グリーンレーベル リラクシング 札幌ステラプレイス店,"{'opening_hours': {'Mon': '10:00-21:00', 'Tue': '10:00-21:00', 'Wed': '10:00-21:00', 'Thur': '10:00-21:00', 'Fri': '10:00-21:00', 'Sat': '10:00-21:00', 'Sun': '10:00-21:00'}}",050-8889-0145,060-0005,0570,北海道,https://www.stellarplace.net/
青森県五所川原市大字唐笠柳字藤巻517-1 エルム 1F,UNITED ARROWS green label relaxing,北海道・東北,Japan,"{'brand': 'UNITED ARROWS green label relaxing', 'fascia': 'ユナイテッドアローズ グリーンレーベル リラクシング', 'category': 'Fashion', 'edit_date': datetime.datetime(2025, 3, 4, 21, 17, 8, 95496), 'lat_lon_source': 'website'}",140.453907503067,40.7983652719552,ユナイテッドアローズ グリーンレーベル リラクシング 青森ELM店,"{'opening_hours': {'Mon': '10:00-20:00', 'Tue': '10:00-20:00', 'Wed': '10:00-20:00', 'Thur': '10:00-20:00', 'Fri': '10:00-20:00', 'Sat': '10:00-20:00', 'Sun': '10:00-20:00'}}",,037-0004,0577,青森県,https://elm-no-machi.jp/
岩手県盛岡市盛岡駅前通1-44 <br>フェザン 2F,UNITED ARROWS green label relaxing,北海道・東北,Japan,"{'brand': 'UNITED ARROWS green label relaxing', 'fascia': 'ユナイテッドアローズ グリーンレーベル リラクシング', 'category': 'Fashion', 'edit_date': datetime.datetime(2025, 3, 4, 21, 17, 8, 96212), 'lat_lon_source': 'website'}",141.135560666832,39.702778134857,ユナイテッドアローズ グリーンレーベル リラクシング 盛岡フェザン店,"{'opening_hours': {'Mon': '10:00-20:00', 'Tue': '10:00-20:00', 'Wed': '10:00-20:00', 'Thur': '10:00-20:00', 'Fri': '10:00-20:00', 'Sat': '10:00-20:00', 'Sun': '10:00-20:00'}}",019-624-8909,020-0034,0574,岩手県,https://fesan-jp.com/
宮城県仙台市青葉区中央1-1-1 <br>エスパル仙台東館 3F,UNITED ARROWS green label relaxing,北海道・東北,Japan,"{'brand': 'UNITED ARROWS green label relaxing', 'fascia': 'ユナイテッドアローズ グリーンレーベル リラクシング', 'category': 'Fashion', 'edit_date': datetime.datetime(2025, 3, 4, 21, 17, 8, 96772), 'lat_lon_source': 'website'}",140.882373217545,38.2595878631319,ユナイテッドアローズ グリーンレーベル リラクシング エスパル仙台店,"{'opening_hours': {'Mon': '10:00-21:00', 'Tue': '10:00-21:00', 'Wed': '10:00-21:00', 'Thur': '10:00-21:00', 'Fri': '10:00-21:00', 'Sat': '10:00-21:00', 'Sun': '10:00-21:00'}}",022-791-2131,980-8487,0571,宮城県,https://www.s-pal.jp/sendai/
新潟県新潟市中央区万代1-4-8 ラブラ2 2F,UNITED ARROWS green label relaxing,北陸・東海,Japan,"{'brand': 'UNITED ARROWS green label relaxing', 'fascia': 'ユナイテッドアローズ グリーンレーベル リラクシング', 'category': 'Fashion', 'edit_date': datetime.datetime(2025, 3, 4, 21, 17, 8, 97344), 'lat_lon_source': 'website'}",139.056808,37.916631,ユナイテッドアローズ グリーンレーベル リラクシング ラブラ2新潟店,"{'opening_hours': {'Mon': '10:00-20:00', 'Tue': '10:00-20:00', 'Wed': '10:00-20:00', 'Thur': '10:00-20:00', 'Fri': '10:00-20:00', 'Sat': '10:00-20:00', 'Sun': '10:00-20:00'}}",025-290-5802,950-0088,0572,新潟県,https://mitsui-shopping-park.com/lovela-bandai/
石川県金沢市堀川新町3-1<br>金沢フォーラス 2F,UNITED ARROWS green label relaxing,北陸・東海,Japan,"{'brand': 'UNITED ARROWS green label relaxing', 'fascia': 'ユナイテッドアローズ グリーンレーベル リラクシング', 'category': 'Fashion', 'edit_date': datetime.datetime(2025, 3, 4, 21, 17, 8, 98012), 'lat_lon_source': 'website'}",136.649150673409,36.5788460118647,ユナイテッドアローズ グリーンレーベル リラクシング 金沢フォーラス店,"{'opening_hours': {'Mon': '10:00-21:00', 'Tue': '10:00-21:00', 'Wed': '10:00-21:00', 'Thur': '10:00-21:00', 'Fri': '10:00-21:00', 'Sat': '10:00-21:00', 'Sun': '10:00-21:00'}}",076-231-8621,920-0849,0582,石川県,https://www.forus.co.jp/kanazawa
長野県長野市南千歳1-22-6 <br>MIDORI長野 2F,UNITED ARROWS green label relaxing,北陸・東海,Japan,"{'brand': 'UNITED ARROWS green label relaxing', 'fascia': 'ユナイテッドアローズ グリーンレーベル リラクシング', 'category': 'Fashion', 'edit_date': datetime.datetime(2025, 3, 4, 21, 17, 8, 98654), 'lat_lon_source': 'website'}",138.188428115281,36.6433043533301,ユナイテッドアローズ グリーンレーベル リラクシング 長野店,"{'opening_hours': {'Mon': '10:00-20:00', 'Tue': '10:00-20:00', 'Wed': '10:00-20:00', 'Thur': '10:00-20:00', 'Fri': '10:00-20:00', 'Sat': '10:00-20:00', 'Sun': '10:00-20:00'}}",050-8893-4172,380-8543,0573,長野県,https://www.eki-midori.com/
静岡県静岡市葵区黒金町49<br>パルシェ1F,UNITED ARROWS green label relaxing,北陸・東海,Japan,"{'brand': 'UNITED ARROWS green label relaxing', 'fascia': 'ユナイテッドアローズ グリーンレーベル リラクシング', 'category': 'Fashion', 'edit_date': datetime.datetime(2025, 3, 4, 21, 17, 8, 99395), 'lat_lon_source': 'website'}",138.388740367284,34.972143364369,ユナイテッドアローズ グリーンレーベル リラクシング ウィメンズストア 静岡パルシェ店,"{'opening_hours': {'Mon': '10:00-20:00', 'Tue': '10:00-20:00', 'Wed': '10:00-20:00', 'Thur': '10:00-20:00', 'Fri': '10:00-20:00', 'Sat': '10:00-20:00', 'Sun': '10:00-20:00'}}",054-275-0663,420-0851,0581,静岡県,https://www.parche.co.jp/
静岡県静岡市葵区鷹匠1-1-1<br>新静岡セノバ 2F,UNITED ARROWS green label relaxing,北陸・東海,Japan,"{'brand': 'UNITED ARROWS green label relaxing', 'fascia': 'ユナイテッドアローズ グリーンレーベル リラクシング', 'category': 'Fashion', 'edit_date': datetime.datetime(2025, 3, 4, 21, 17, 8, 100076), 'lat_lon_source': 'website'}",138.386355202244,34.9756036507719,ユナイテッドアローズ グリーンレーベル リラクシング 新静岡セノバ店,"{'opening_hours': {'Mon': '10:00-20:00', 'Tue': '10:00-20:00', 'Wed': '10:00-20:00', 'Thur': '10:00-20:00', 'Fri': '10:00-20:00', 'Sat': '10:00-20:00', 'Sun': '10:00-20:00'}}",050-8893-4189,420-8508,0584,静岡県,https://www.cenova.jp/
静岡県浜松市中央区砂山町6-1 <br>メイワン 1F,UNITED ARROWS green label relaxing,北陸・東海,Japan,"{'brand': 'UNITED ARROWS green label relaxing', 'fascia': 'ユナイテッドアローズ グリーンレーベル リラクシング', 'category': 'Fashion', 'edit_date': datetime.datetime(2025, 3, 4, 21, 17, 8, 100707), 'lat_lon_source': 'website'}",137.734449988024,34.7042194161524,ユナイテッドアローズ グリーンレーベル リラクシング 浜松メイワン店,"{'opening_hours': {'Mon': '10:00-20:00', 'Tue': '10:00-20:00', 'Wed': '10:00-20:00', 'Thur': '10:00-20:00', 'Fri': '10:00-20:00', 'Sat': '10:00-20:00', 'Sun': '10:00-20:00'}}",050-8893-4191,430-0926,0585,静岡県,https://www.may-one.co.jp/
愛知県愛知郡東郷町 東郷中央土地区画整理事業 62街区1・3 <br>ららぽーと愛知東郷 1F,UNITED ARROWS green label relaxing,北陸・東海,Japan,"{'brand': 'UNITED ARROWS green label relaxing', 'fascia': 'ユナイテッドアローズ グリーンレーベル リラクシング', 'category': 'Fashion', 'edit_date': datetime.datetime(2025, 3, 4, 21, 17, 8, 101212), 'lat_lon_source': 'website'}",137.046656,35.099035,ユナイテッドアローズ グリーンレーベル リラクシング ららぽーと愛知東郷店,"{'opening_hours': {'Mon': '10:00-21:00', 'Tue': '10:00-21:00', 'Wed': '10:00-21:00', 'Thur': '10:00-21:00', 'Fri': '10:00-21:00', 'Sat': '10:00-21:00', 'Sun': '10:00-21:00'}}",,470-0186,0567,愛知県,https://mitsui-shopping-park.com/lalaport/togo/
愛知県名古屋市中区栄3-6-1 <br>ラシック 4F,UNITED ARROWS green label relaxing,北陸・東海,Japan,"{'brand': 'UNITED ARROWS green label relaxing', 'fascia': 'ユナイテッドアローズ グリーンレーベル リラクシング', 'category': 'Fashion', 'edit_date': datetime.datetime(2025, 3, 4, 21, 17, 8, 101793), 'lat_lon_source': 'website'}",136.907383661156,35.1675047322279,ユナイテッドアローズ グリーンレーベル リラクシング 名古屋ラシック店,"{'opening_hours': {'Mon': '11:00-21:00', 'Tue': '11:00-21:00', 'Wed': '11:00-21:00', 'Thur': '11:00-21:00', 'Fri': '11:00-21:00', 'Sat': '11:00-21:00', 'Sun': '11:00-21:00'}}",050-8893-4153,460-0008,0580,愛知県,https://www.lachic.jp/nagoya.html
愛知県名古屋市千種区星が丘元町16-50<br>星が丘テラス EAST 1・2F,UNITED ARROWS green label relaxing,北陸・東海,Japan,"{'brand': 'UNITED ARROWS green label relaxing', 'fascia': 'ユナイテッドアローズ グリーンレーベル リラクシング', 'category': 'Fashion', 'edit_date': datetime.datetime(2025, 3, 4, 21, 17, 8, 103383), 'lat_lon_source': 'website'}",136.985472,35.161057,ユナイテッドアローズ グリーンレーベル リラクシング 星が丘テラス店,"{'opening_hours': {'Mon': '10:00-20:00', 'Tue': '10:00-20:00', 'Wed': '10:00-20:00', 'Thur': '10:00-20:00', 'Fri': '10:00-20:00', 'Sat': '10:00-20:00', 'Sun': '10:00-20:00'}}",052-789-0851,464-0802,0583,愛知県,https://www.hoshigaoka-terrace.com/
愛知県名古屋市中村区名駅1-1-3 <br>タカシマヤ ゲートタワーモール 6F,UNITED ARROWS green label relaxing,北陸・東海,Japan,"{'brand': 'UNITED ARROWS green label relaxing', 'fascia': 'ユナイテッドアローズ グリーンレーベル リラクシング', 'category': 'Fashion', 'edit_date': datetime.datetime(2025, 3, 4, 21, 17, 8, 104079), 'lat_lon_source': 'website'}",136.882614015091,35.1719463181382,ユナイテッドアローズ グリーンレーベル リラクシング 名古屋タカシマヤ ゲートタワーモール店,"{'opening_hours': {'Mon': '10:00-21:00', 'Tue': '10:00-21:00', 'Wed': '10:00-21:00', 'Thur': '10:00-21:00', 'Fri': '10:00-21:00', 'Sat': '10:00-21:00', 'Sun': '10:00-21:00'}}",052-589-2156,450-6606,0586,愛知県,https://www.jr-tgm.com/
京都府京都市南区西九条鳥居口町1番地<br>イオンモールKYOTO 2F,UNITED ARROWS green label relaxing,関西,Japan,"{'brand': 'UNITED ARROWS green label relaxing', 'fascia': 'ユナイテッドアローズ グリーンレーベル リラクシング', 'category': 'Fashion', 'edit_date': datetime.datetime(2025, 3, 4, 21, 17, 8, 114432), 'lat_lon_source': 'website'}",135.754993592963,34.9824965545405,ユナイテッドアローズ グリーンレーベル リラクシング 京都店,{'10:00-21:00<br><br>'},050-8893-4202,601-8417,0551,京都府,https://kyoto-aeonmall.com/
京都府京都市下京区烏丸通塩小路下る東塩小路町902番地 <br/>京都駅前地下街ポルタ,UNITED ARROWS green label relaxing,関西,Japan,"{'brand': 'UNITED ARROWS green label relaxing', 'fascia': 'ユナイテッドアローズ グリーンレーベル リラクシング', 'category': 'Fashion', 'edit_date': datetime.datetime(2025, 3, 4, 21, 17, 8, 115257), 'lat_lon_source': 'website'}",135.758625999309,34.9864626366805,ユナイテッドアローズ グリーンレーベル リラクシング ウィメンズストア 京都駅前地下街ポルタ店,{'Weekday/Sun 10:00-20:30<br/>Fri/Sat 10:00-21:00 <br/>※Sunday the next day will be a holiday until 21:00'},075-354-7210,600-8216,2254,京都府,https://www.porta.co.jp/
大阪府大阪市北区大深町4-20 <br>グランフロント大阪 ショップ＆レストラン 南館 3F,UNITED ARROWS green label relaxing,関西,Japan,"{'brand': 'UNITED ARROWS green label relaxing', 'fascia': 'ユナイテッドアローズ グリーンレーベル リラクシング', 'category': 'Fashion', 'edit_date': datetime.datetime(2025, 3, 4, 21, 17, 8, 115941), 'lat_lon_source': 'website'}",135.495229218812,34.7041061689353,ユナイテッドアローズ グリーンレーベル リラクシング  グランフロント大阪店,"{'opening_hours': {'Mon': '10:00-21:00', 'Tue': '10:00-21:00', 'Wed': '10:00-21:00', 'Thur': '10:00-21:00', 'Fri': '10:00-21:00', 'Sat': '10:00-21:00', 'Sun': '10:00-21:00'}}",06-6359-1303,530-0011,0550,大阪府,https://www.gfo-sc.jp/
大阪府大阪市浪速区難波中2-10-70<br>なんばパークス 3F,UNITED ARROWS green label relaxing,関西,Japan,"{'brand': 'UNITED ARROWS green label relaxing', 'fascia': 'ユナイテッドアローズ グリーンレーベル リラクシング', 'category': 'Fashion', 'edit_date': datetime.datetime(2025, 3, 4, 21, 17, 8, 116646), 'lat_lon_source': 'website'}",135.501841019409,34.6616005512905,ユナイテッドアローズ グリーンレーベル リラクシング なんばパークス店,{'11:00～21:00'},06-6634-1265,556-0011,0552,大阪府,https://nambaparks.com/
大阪府大阪市北区芝田1-1-3 <br>阪急三番街 南館 B1F,UNITED ARROWS green label relaxing,関西,Japan,"{'brand': 'UNITED ARROWS green label relaxing', 'fascia': 'ユナイテッドアローズ グリーンレーベル リラクシング', 'category': 'Fashion', 'edit_date': datetime.datetime(2025, 3, 4, 21, 17, 8, 117282), 'lat_lon_source': 'website'}",135.498452296723,34.7048442207399,ユナイテッドアローズ グリーンレーベル リラクシング  阪急三番街店,"{'opening_hours': {'Mon': '10:00-21:00', 'Tue': '10:00-21:00', 'Wed': '10:00-21:00', 'Thur': '10:00-21:00', 'Fri': '10:00-21:00', 'Sat': '10:00-21:00', 'Sun': '10:00-21:00'}}",050-8893-4203,530-0012,0553,大阪府,https://www.h-sanbangai.com/
大阪府枚方市楠葉花園町15-1 <br>くずはモール本館 ハナノモール 1F,UNITED ARROWS green label relaxing,関西,Japan,"{'brand': 'UNITED ARROWS green label relaxing', 'fascia': 'ユナイテッドアローズ グリーンレーベル リラクシング', 'category': 'Fashion', 'edit_date': datetime.datetime(2025, 3, 4, 21, 17, 8, 117804), 'lat_lon_source': 'website'}",135.67649,34.862218,ユナイテッドアローズ グリーンレーベル リラクシング くずはモール店,"{'opening_hours': {'Mon': '10:00-21:00', 'Tue': '10:00-21:00', 'Wed': '10:00-21:00', 'Thur': '10:00-21:00', 'Fri': '10:00-21:00', 'Sat': '10:00-21:00', 'Sun': '10:00-21:00'}}",072-864-5360,573-1121,0554,大阪府,https://kuzuha-mall.com/
大阪府大阪市阿倍野区阿倍野筋1-6-1 <br>あべのキューズモール 2F,UNITED ARROWS green label relaxing,関西,Japan,"{'brand': 'UNITED ARROWS green label relaxing', 'fascia': 'ユナイテッドアローズ グリーンレーベル リラクシング', 'category': 'Fashion', 'edit_date': datetime.datetime(2025, 3, 4, 21, 17, 8, 118295), 'lat_lon_source': 'website'}",135.511292614512,34.6451313716716,ユナイテッドアローズ グリーンレーベル リラクシング あべのキューズモール店,"{'opening_hours': {'Mon': '10:00-21:00', 'Tue': '10:00-21:00', 'Wed': '10:00-21:00', 'Thur': '10:00-21:00', 'Fri': '10:00-21:00', 'Sat': '10:00-21:00', 'Sun': '10:00-21:00'}}",06-4396-6180,545-0052,0555,大阪府,https://qs-mall.jp/abeno/
大阪府和泉市あゆみ野4-4-7 <br>ららぽーと和泉 3F 34100,UNITED ARROWS green label relaxing,関西,Japan,"{'brand': 'UNITED ARROWS green label relaxing', 'fascia': 'ユナイテッドアローズ グリーンレーベル リラクシング', 'category': 'Fashion', 'edit_date': datetime.datetime(2025, 3, 4, 21, 17, 8, 118930), 'lat_lon_source': 'website'}",135.447797132297,34.4370500645518,ユナイテッドアローズ グリーンレーベル リラクシング ららぽーと和泉店,"{'opening_hours': {'Mon': '10:00-21:00', 'Tue': '10:00-21:00', 'Wed': '10:00-21:00', 'Thur': '10:00-21:00', 'Fri': '10:00-21:00', 'Sat': '10:00-21:00', 'Sun': '10:00-21:00'}}",,594-1157,0565,大阪府,https://mitsui-shopping-park.com/lalaport/izumi/
大阪府吹田市千里万博公園2-1 ららぽーとEXPOCITY 1F 10450,UNITED ARROWS green label relaxing,関西,Japan,"{'brand': 'UNITED ARROWS green label relaxing', 'fascia': 'ユナイテッドアローズ グリーンレーベル リラクシング', 'category': 'Fashion', 'edit_date': datetime.datetime(2025, 3, 4, 21, 17, 8, 119638), 'lat_lon_source': 'website'}",135.534980958001,34.8052365901899,ユナイテッドアローズ グリーンレーベル リラクシング ららぽーとEXPOCITY店,"{'opening_hours': {'Mon': '10:00-21:00', 'Tue': '10:00-21:00', 'Wed': '10:00-21:00', 'Thur': '10:00-21:00', 'Fri': '10:00-21:00', 'Sat': '10:00-21:00', 'Sun': '10:00-21:00'}}",06-4864-8306,565-0826,0566,大阪府,https://mitsui-shopping-park.com/lalaport/expocity/
"兵庫県西宮市高松町14-2-210<br>阪急西宮ガーデンズ 2F<br><br><font color=""red"">※ 改装に伴い、2025年1月16日(木)から3Fウェルカムガーデンにて仮店舗営業いたします</font>",UNITED ARROWS green label relaxing,関西,Japan,"{'brand': 'UNITED ARROWS green label relaxing', 'fascia': 'ユナイテッドアローズ グリーンレーベル リラクシング', 'category': 'Fashion', 'edit_date': datetime.datetime(2025, 3, 4, 21, 17, 8, 129276), 'lat_lon_source': 'website'}",135.359551227385,34.7446615868125,ユナイテッドアローズ グリーンレーベル リラクシング 西宮ガーデンズ店,"{'opening_hours': {'Mon': '10:00-21:00', 'Tue': '10:00-21:00', 'Wed': '10:00-21:00', 'Thur': '10:00-21:00', 'Fri': '10:00-21:00', 'Sat': '10:00-21:00', 'Sun': '10:00-21:00'}}",,663-8204,0556,兵庫県,https://nishinomiya-gardens.com/
兵庫県姫路市駅前町188-1 <br>ピオレ姫路 1F,UNITED ARROWS green label relaxing,関西,Japan,"{'brand': 'UNITED ARROWS green label relaxing', 'fascia': 'ユナイテッドアローズ グリーンレーベル リラクシング', 'category': 'Fashion', 'edit_date': datetime.datetime(2025, 3, 4, 21, 17, 8, 130038), 'lat_lon_source': 'website'}",134.690980078936,34.8274348151499,ユナイテッドアローズ グリーンレーベル リラクシング ピオレ姫路店,"{'opening_hours': {'Mon': '10:00-20:00', 'Tue': '10:00-20:00', 'Wed': '10:00-20:00', 'Thur': '10:00-20:00', 'Fri': '10:00-20:00', 'Sat': '10:00-20:00', 'Sun': '10:00-20:00'}}",050-8893-4208,670-0927,0558,兵庫県,https://piole.jp/himeji/
岡山県岡山市北区駅元町一番街地下2号 岡山一番街,UNITED ARROWS green label relaxing,中国・四国・九州,Japan,"{'brand': 'UNITED ARROWS green label relaxing', 'fascia': 'ユナイテッドアローズ グリーンレーベル リラクシング', 'category': 'Fashion', 'edit_date': datetime.datetime(2025, 3, 4, 21, 17, 8, 130578), 'lat_lon_source': 'website'}",133.918946637821,34.665323109883,ユナイテッドアローズ グリーンレーベル リラクシング 岡山一番街店,"{'opening_hours': {'Mon': '10:00-20:00', 'Tue': '10:00-20:00', 'Wed': '10:00-20:00', 'Thur': '10:00-20:00', 'Fri': '10:00-20:00', 'Sat': '10:00-20:00', 'Sun': '10:00-20:00'}}",050-8893-1926,700-0024,0593,岡山県,https://sun-ste.com/okayama-ichibangai/
広島県福山市三之丸町30-1<br>サンステーションテラス福山 1Ｆ,UNITED ARROWS green label relaxing,中国・四国・九州,Japan,"{'brand': 'UNITED ARROWS green label relaxing', 'fascia': 'ユナイテッドアローズ グリーンレーベル リラクシング', 'category': 'Fashion', 'edit_date': datetime.datetime(2025, 3, 4, 21, 17, 8, 131266), 'lat_lon_source': 'website'}",133.362782385699,34.489213709844,ユナイテッドアローズ グリーンレーベル リラクシング サンステーションテラス福山店,"{'opening_hours': {'Mon': '10:00-20:00', 'Tue': '10:00-20:00', 'Wed': '10:00-20:00', 'Thur': '10:00-20:00', 'Fri': '10:00-20:00', 'Sat': '10:00-20:00', 'Sun': '10:00-20:00'}}",084-973-3900,720-0066,0587,広島県,https://sun-ste.com/fukuyama/
広島県広島市中区新天地2-1 <br>広島パルコ 新館 4F,UNITED ARROWS green label relaxing,中国・四国・九州,Japan,"{'brand': 'UNITED ARROWS green label relaxing', 'fascia': 'ユナイテッドアローズ グリーンレーベル リラクシング', 'category': 'Fashion', 'edit_date': datetime.datetime(2025, 3, 4, 21, 17, 8, 132013), 'lat_lon_source': 'website'}",132.462668625548,34.3920039131348,ユナイテッドアローズ グリーンレーベル リラクシング 広島パルコ店,{'10:00～20:30'},082-545-8750,730-0034,0595,広島県,https://hiroshima.parco.jp/
香川県高松市丸亀町8-23<br>丸亀町グリーン 東館1F,UNITED ARROWS green label relaxing,中国・四国・九州,Japan,"{'brand': 'UNITED ARROWS green label relaxing', 'fascia': 'ユナイテッドアローズ グリーンレーベル リラクシング', 'category': 'Fashion', 'edit_date': datetime.datetime(2025, 3, 4, 21, 17, 8, 132565), 'lat_lon_source': 'website'}",134.049792273398,34.3419816709721,ユナイテッドアローズ グリーンレーベル リラクシング 高松店,"{'opening_hours': {'Mon': '11:00-20:00', 'Tue': '11:00-20:00', 'Wed': '11:00-20:00', 'Thur': '11:00-20:00', 'Fri': '11:00-20:00', 'Sat': '11:00-20:00', 'Sun': '11:00-20:00'}}",050-8893-4216,760-0029,0588,香川県,https://mgreen.jp/
愛媛県伊予郡松前町筒井 850 <br>エミフル MASAKI 1F,UNITED ARROWS green label relaxing,中国・四国・九州,Japan,"{'brand': 'UNITED ARROWS green label relaxing', 'fascia': 'ユナイテッドアローズ グリーンレーベル リラクシング', 'category': 'Fashion', 'edit_date': datetime.datetime(2025, 3, 4, 21, 17, 8, 133039), 'lat_lon_source': 'website'}",132.716270221219,33.7901427141511,ユナイテッドアローズ グリーンレーベル リラクシング 松山エミフルMASAKI店,"{'opening_hours': {'Mon': '10:00-21:00', 'Tue': '10:00-21:00', 'Wed': '10:00-21:00', 'Thur': '10:00-21:00', 'Fri': '10:00-21:00', 'Sat': '10:00-21:00', 'Sun': '10:00-21:00'}}",089-961-7080,791-3120,0589,愛媛県,https://emifull.jp/
福岡県福岡市博多区博多駅中央街1-1 <br>アミュプラザ博多 6F,UNITED ARROWS green label relaxing,中国・四国・九州,Japan,"{'brand': 'UNITED ARROWS green label relaxing', 'fascia': 'ユナイテッドアローズ グリーンレーベル リラクシング', 'category': 'Fashion', 'edit_date': datetime.datetime(2025, 3, 4, 21, 17, 8, 133474), 'lat_lon_source': 'website'}",130.419924,33.590545,ユナイテッドアローズ グリーンレーベル リラクシング アミュプラザ博多店,"{'opening_hours': {'Mon': '10:00-20:00', 'Tue': '10:00-20:00', 'Wed': '10:00-20:00', 'Thur': '10:00-20:00', 'Fri': '10:00-20:00', 'Sat': '10:00-20:00', 'Sun': '10:00-20:00'}}",092-413-5362,812-0012,0590,福岡県,https://www.jrhakatacity.com/
福岡県北九州市小倉北区浅野1-1-1<br>アミュプラザ小倉 東館 3F,UNITED ARROWS green label relaxing,中国・四国・九州,Japan,"{'brand': 'UNITED ARROWS green label relaxing', 'fascia': 'ユナイテッドアローズ グリーンレーベル リラクシング', 'category': 'Fashion', 'edit_date': datetime.datetime(2025, 3, 4, 21, 17, 8, 143448), 'lat_lon_source': 'website'}",130.882848471075,33.886783051997,ユナイテッドアローズ グリーンレーベル リラクシング  アミュプラザ小倉店,{'月～木 10:00～20:30<br>金・土・日 10:00～21:00<br>'},050-8893-4181,802-0001,0591,福岡県,http://www.amuplaza.jp/
福岡県福岡市博多区那珂6-23-1 ららぽーと福岡 2F,UNITED ARROWS green label relaxing,中国・四国・九州,Japan,"{'brand': 'UNITED ARROWS green label relaxing', 'fascia': 'ユナイテッドアローズ グリーンレーベル リラクシング', 'category': 'Fashion', 'edit_date': datetime.datetime(2025, 3, 4, 21, 17, 8, 144358), 'lat_lon_source': 'website'}",130.440355108977,33.5652842079603,ユナイテッドアローズ グリーンレーベル リラクシング ららぽーと福岡店,{'10:00 - 21:00'},092-588-2030,812-0893,0598,福岡県,https://mitsui-shopping-park.com/lalaport/fukuoka/
長崎県長崎市尾上町1-1<br>アミュプラザ長崎 本館 2F,UNITED ARROWS green label relaxing,中国・四国・九州,Japan,"{'brand': 'UNITED ARROWS green label relaxing', 'fascia': 'ユナイテッドアローズ グリーンレーベル リラクシング', 'category': 'Fashion', 'edit_date': datetime.datetime(2025, 3, 4, 21, 17, 8, 145058), 'lat_lon_source': 'website'}",129.870889,32.751674,ユナイテッドアローズ グリーンレーベル リラクシング  アミュプラザ長崎店,"{'opening_hours': {'Mon': '10:00-21:00', 'Tue': '10:00-21:00', 'Wed': '10:00-21:00', 'Thur': '10:00-21:00', 'Fri': '10:00-21:00', 'Sat': '10:00-21:00', 'Sun': '10:00-21:00'}}",095-818-7270,850-0058,0597,長崎県,https://amu-n.co.jp/
熊本県熊本市中央区上通町2-2 <br>鶴屋New-S 1F,UNITED ARROWS green label relaxing,中国・四国・九州,Japan,"{'brand': 'UNITED ARROWS green label relaxing', 'fascia': 'ユナイテッドアローズ グリーンレーベル リラクシング', 'category': 'Fashion', 'edit_date': datetime.datetime(2025, 3, 4, 21, 17, 8, 145709), 'lat_lon_source': 'website'}",130.711086,32.803407,ユナイテッドアローズ　グリーンレーベル リラクシング 熊本鶴屋New-S店,"{'opening_hours': {'Mon': '10:30-20:00', 'Tue': '10:30-20:00', 'Wed': '10:30-20:00', 'Thur': '10:30-20:00', 'Fri': '10:30-20:00', 'Sat': '10:30-20:00', 'Sun': '10:30-20:00'}}",096-312-6201,860-0845,0592,熊本県,https://www.tsuruya-new-s.com/
大分県大分市要町1番14号<br>アミュプラザおおいた2F,UNITED ARROWS green label relaxing,中国・四国・九州,Japan,"{'brand': 'UNITED ARROWS green label relaxing', 'fascia': 'ユナイテッドアローズ グリーンレーベル リラクシング', 'category': 'Fashion', 'edit_date': datetime.datetime(2025, 3, 4, 21, 17, 8, 146289), 'lat_lon_source': 'website'}",131.60761010772,33.2330575311337,ユナイテッドアローズ グリーンレーベル リラクシング アミュプラザおおいた店,{'Mon-Thu 10:00-20:30<br>Fri/Sat/Sun/National holiday 10:00-21:00'},097-513-2880,870-0831,0594,大分県,https://www.jroitacity.jp/
鹿児島県鹿児島市中央町1-1<br>アミュプラザ鹿児島 プレミアム館3F,UNITED ARROWS green label relaxing,中国・四国・九州,Japan,"{'brand': 'UNITED ARROWS green label relaxing', 'fascia': 'ユナイテッドアローズ グリーンレーベル リラクシング', 'category': 'Fashion', 'edit_date': datetime.datetime(2025, 3, 4, 21, 17, 8, 146997), 'lat_lon_source': 'website'}",130.54264,31.58464,ユナイテッドアローズ グリーンレーベル リラクシング  アミュプラザ鹿児島店,{'10:00-21:00<br><br>'},050-8893-4177,890-0053,0596,鹿児島県,https://amu.jrkagoshimacity.com/
台北市信義區松智路17號 微風南山 4F,UNITED ARROWS green label relaxing,海外,Japan,"{'brand': 'UNITED ARROWS green label relaxing', 'fascia': 'ユナイテッドアローズ グリーンレーベル リラクシング', 'category': 'Fashion', 'edit_date': datetime.datetime(2025, 3, 4, 21, 17, 8, 147663), 'lat_lon_source': 'website'}",121.566522,25.034631,ユナイテッドアローズ グリーンレーベル リラクシング 台北微風南山店,{'Sun-Wed 11:00-21:30<br>Thu-Sat/the day before national holiday 11:00-22:00'},02-2722-8581,,0000,台湾,https://store.united-arrows.tw/
東京都千代田区有楽町1-9-4<br>蚕糸会館 1F,DRAWER,関東,Japan,"{'brand': 'DRAWER', 'fascia': 'ドゥロワー', 'category': 'Fashion', 'edit_date': datetime.datetime(2025, 3, 4, 21, 17, 8, 148372), 'lat_lon_source': 'website'}",139.760948,35.675121,ドゥロワー 丸の内店,"{'opening_hours': {'Mon': '11:00-20:00', 'Tue': '11:00-20:00', 'Wed': '11:00-20:00', 'Thur': '11:00-20:00', 'Fri': '11:00-20:00', 'Sat': '11:00-20:00', 'Sun': '11:00-20:00'}}",050-8893-4169,100-0006,0660,東京都,https://www.instagram.com/drawerofficial/
東京都中央区日本橋2-5-1<br>日本橋髙島屋S.C. 新館 2F,DRAWER,関東,Japan,"{'brand': 'DRAWER', 'fascia': 'ドゥロワー', 'category': 'Fashion', 'edit_date': datetime.datetime(2025, 3, 4, 21, 17, 8, 158248), 'lat_lon_source': 'website'}",139.774119,35.681218,ドゥロワー 日本橋店,"{'opening_hours': {'Mon': '10:30-20:00', 'Tue': '10:30-20:00', 'Wed': '10:30-20:00', 'Thur': '10:30-20:00', 'Fri': '10:30-20:00', 'Sat': '10:30-20:00', 'Sun': '10:30-20:00'}}",03-6214-1553,103-6102,0124,東京都,https://www.takashimaya.co.jp/nihombashi/
東京都港区南青山5-12-4 1F,DRAWER,関東,Japan,"{'brand': 'DRAWER', 'fascia': 'ドゥロワー', 'category': 'Fashion', 'edit_date': datetime.datetime(2025, 3, 4, 21, 17, 8, 159118), 'lat_lon_source': 'website'}",139.713305,35.661467,ドゥロワー 青山店,"{'opening_hours': {'Mon': '12:00-20:00', 'Tue': '12:00-20:00', 'Wed': '12:00-20:00', 'Thur': '12:00-20:00', 'Fri': '12:00-20:00', 'Sat': '12:00-20:00', 'Sun': '12:00-20:00'}}",050-8893-4196,107-0062,0114,東京都,https://www.instagram.com/drawerofficial/
東京都港区赤坂9-7-4 <br/>東京ミッドタウン ガレリア 1F,DRAWER,関東,Japan,"{'brand': 'DRAWER', 'fascia': 'ドゥロワー', 'category': 'Fashion', 'edit_date': datetime.datetime(2025, 3, 4, 21, 17, 8, 160543), 'lat_lon_source': 'website'}",139.730332837903,35.6662049396727,ドゥロワー 六本木店,"{'opening_hours': {'Mon': '11:00-21:00', 'Tue': '11:00-21:00', 'Wed': '11:00-21:00', 'Thur': '11:00-21:00', 'Fri': '11:00-21:00', 'Sat': '11:00-21:00', 'Sun': '11:00-21:00'}}",03-5786-4844,107-0052,0663,東京都,https://www.tokyo-midtown.com/jp/
東京都世田谷区玉川3-17-1 玉川高島屋S・C 本館 1F,DRAWER,関東,Japan,"{'brand': 'DRAWER', 'fascia': 'ドゥロワー', 'category': 'Fashion', 'edit_date': datetime.datetime(2025, 3, 4, 21, 17, 8, 161291), 'lat_lon_source': 'website'}",139.626310720081,35.6140052194348,ドゥロワー 二子玉川店,"{'opening_hours': {'Mon': '10:00-20:00', 'Tue': '10:00-20:00', 'Wed': '10:00-20:00', 'Thur': '10:00-20:00', 'Fri': '10:00-20:00', 'Sat': '10:00-20:00', 'Sun': '10:00-20:00'}}",03-5797-5780,158-0094,0664,東京都,https://www.takashimaya.co.jp/tamagawa/sc/
愛知県名古屋市中村区名駅4-7-1 <br>ミッドランドスクエア 3F,DRAWER,北陸・東海,Japan,"{'brand': 'DRAWER', 'fascia': 'ドゥロワー', 'category': 'Fashion', 'edit_date': datetime.datetime(2025, 3, 4, 21, 17, 8, 161935), 'lat_lon_source': 'website'}",136.885069385694,35.1696117316611,ドゥロワー 名古屋店,"{'opening_hours': {'Mon': '11:00-20:00', 'Tue': '11:00-20:00', 'Wed': '11:00-20:00', 'Thur': '11:00-20:00', 'Fri': '11:00-20:00', 'Sat': '11:00-20:00', 'Sun': '11:00-20:00'}}",050-8893-4154,450-0002,0661,愛知県,https://www.midland-square.com/
大阪府大阪市中央区南船場4-12-8<br>関西心斎橋ビル 1F,DRAWER,関西,Japan,"{'brand': 'DRAWER', 'fascia': 'ドゥロワー', 'category': 'Fashion', 'edit_date': datetime.datetime(2025, 3, 4, 21, 17, 8, 162516), 'lat_lon_source': 'website'}",135.498721,34.675506,ドゥロワー 心斎橋店,{'Weekday 12:00-20:00<br>Sat/Sun/National holiday 11:00-20:00'},06-6121-8847,542-0081,0224,大阪府,https://www.instagram.com/drawerofficial/
大阪府大阪市北区大深町4-20 <br>グランフロント大阪 ショップ＆レストラン 南館 1F,DRAWER,関西,Japan,"{'brand': 'DRAWER', 'fascia': 'ドゥロワー', 'category': 'Fashion', 'edit_date': datetime.datetime(2025, 3, 4, 21, 17, 8, 172286), 'lat_lon_source': 'website'}",135.494790261141,34.703911269034,ドゥロワー 梅田店,"{'opening_hours': {'Mon': '10:00-21:00', 'Tue': '10:00-21:00', 'Wed': '10:00-21:00', 'Thur': '10:00-21:00', 'Fri': '10:00-21:00', 'Sat': '10:00-21:00', 'Sun': '10:00-21:00'}}",050-8893-4209,530-0011,0662,大阪府,https://www.gfo-sc.jp/
福岡県福岡市中央区天神2-4-15<br>プリオ天神ビル 1F,DRAWER,中国・四国・九州,Japan,"{'brand': 'DRAWER', 'fascia': 'ドゥロワー', 'category': 'Fashion', 'edit_date': datetime.datetime(2025, 3, 4, 21, 17, 8, 173241), 'lat_lon_source': 'website'}",130.397484,33.587171,ドゥロワー 福岡店,{'Weekday 12:00-20:00<br>Sat/Sun/National holiday 11:00-20:00'},092-739-3900,810-0001,0374,福岡県,https://www.instagram.com/drawerofficial/
東京都中央区日本橋室町1-4-1 <br>日本橋三越本店 新館2F,BLAMINK,関東,Japan,"{'brand': 'BLAMINK', 'fascia': 'ブラミンク', 'category': 'Fashion', 'edit_date': datetime.datetime(2025, 3, 4, 21, 17, 8, 174072), 'lat_lon_source': 'website'}",139.774226,35.68504,ブラミンク 日本橋三越,"{'opening_hours': {'Mon': '10:00-19:00', 'Tue': '10:00-19:00', 'Wed': '10:00-19:00', 'Thur': '10:00-19:00', 'Fri': '10:00-19:00', 'Sat': '10:00-19:00', 'Sun': '10:00-19:00'}}",03-3548-8660,103-8001,9501,東京都,https://www.mitsukoshi.mistore.jp/nihombashi.html
東京都港区南青山6-3-16,BLAMINK,関東,Japan,"{'brand': 'BLAMINK', 'fascia': 'ブラミンク', 'category': 'Fashion', 'edit_date': datetime.datetime(2025, 3, 4, 21, 17, 8, 175241), 'lat_lon_source': 'website'}",139.716265,35.660963,ブラミンク トーキョー,{'Mon-Fri 12:00-20:00<br>Sat/Sun/National holiday 11:00-20:00'},03-5774-9899,107-0062,9500,東京都,https://www.instagram.com/blamink.official/
大阪府大阪市北区角田町8番7号<br>阪急うめだ本店 6F,BLAMINK,関西,Japan,"{'brand': 'BLAMINK', 'fascia': 'ブラミンク', 'category': 'Fashion', 'edit_date': datetime.datetime(2025, 3, 4, 21, 17, 8, 176273), 'lat_lon_source': 'website'}",135.498279677122,34.7031270507122,ブラミンク 梅田阪急,{'Mon-Thu/Sun 10:00-20:00<br>Fri/Sat holiday 10:00-21:00'},06-6313-7292,530-8350,9503,大阪府,https://www.hankyu-dept.co.jp/
東京都港区南青山3-14-17,H BEAUTY＆YOUTH,関東,Japan,"{'brand': 'H BEAUTY＆YOUTH', 'fascia': 'エイチ ビューティー＆ユース', 'category': 'Fashion', 'edit_date': datetime.datetime(2025, 3, 4, 21, 17, 8, 176951), 'lat_lon_source': 'website'}",139.714737,35.664787,エイチ ビューティー＆ユース,"{'opening_hours': {'Mon': '11:00-20:00', 'Tue': '11:00-20:00', 'Wed': '11:00-20:00', 'Thur': '11:00-20:00', 'Fri': '11:00-20:00', 'Sat': '11:00-20:00', 'Sun': '11:00-20:00'}}",050-8890-9491,107-0062,2100,東京都,https://www.instagram.com/h_beautyandyouth
東京都渋谷区神宮前3-28-1 ユナイテッドアローズ 原宿本店 メンズ館 1F,UNITED ARROWS & SONS,関東,Japan,"{'brand': 'UNITED ARROWS & SONS', 'fascia': 'ユナイテッドアローズ＆サンズ', 'category': 'Fashion', 'edit_date': datetime.datetime(2025, 3, 4, 21, 17, 8, 187613), 'lat_lon_source': 'website'}",139.709483571555,35.6720428429159,ユナイテッドアローズ＆サンズ,{''},,150-0001,100_sons,東京都,https://www.instagram.com/unitedarrowsandsons/
東京都港区南青山3-14-17 B1,6（ROKU）,関東,Japan,"{'brand': '6（ROKU）', 'fascia': 'ロク', 'category': 'Fashion', 'edit_date': datetime.datetime(2025, 3, 4, 21, 17, 8, 188302), 'lat_lon_source': 'website'}",139.714641496755,35.6648083952784,ロク アオヤマ,{''},03-5413-6615,107-0062,0116,東京都,https://www.instagram.com/6______roku/
東京都新宿区新宿4-1-6 <br>NEWoMan SHINJUKU M2F,6（ROKU）,関東,Japan,"{'brand': '6（ROKU）', 'fascia': 'ロク', 'category': 'Fashion', 'edit_date': datetime.datetime(2025, 3, 4, 21, 17, 8, 189025), 'lat_lon_source': 'website'}",139.701976071787,35.6886218105389,ロク シンジュク,{'Weekday 11:00-21:30<br>Sat/Sun/National holiday 11:00-21:00'},03-5361-6130,160-0022,0143,東京都,https://www.newoman.jp/
愛知県名古屋市中区栄3-6-1 <br>ラシック 2F,6（ROKU）,北陸・東海,Japan,"{'brand': '6（ROKU）', 'fascia': 'ロク', 'category': 'Fashion', 'edit_date': datetime.datetime(2025, 3, 4, 21, 17, 8, 189625), 'lat_lon_source': 'website'}",136.907580853741,35.1674289498756,ロク ナゴヤ,"{'opening_hours': {'Mon': '11:00-21:00', 'Tue': '11:00-21:00', 'Wed': '11:00-21:00', 'Thur': '11:00-21:00', 'Fri': '11:00-21:00', 'Sat': '11:00-21:00', 'Sun': '11:00-21:00'}}",052-249-3766,460-0008,0333,愛知県,https://www.lachic.jp/nagoya.html
大阪府大阪市北区梅田3-1-3 <br>ルクア 2F,6（ROKU）,関西,Japan,"{'brand': '6（ROKU）', 'fascia': 'ロク', 'category': 'Fashion', 'edit_date': datetime.datetime(2025, 3, 4, 21, 17, 8, 190264), 'lat_lon_source': 'website'}",135.495774125502,34.7030354031638,ロク オオサカ,"{'opening_hours': {'Mon': '10:30-20:30', 'Tue': '10:30-20:30', 'Wed': '10:30-20:30', 'Thur': '10:30-20:30', 'Fri': '10:30-20:30', 'Sat': '10:30-20:30', 'Sun': '10:30-20:30'}}",06-6341-7701,530-8217,0236,大阪府,https://www.lucua.jp/
東京都新宿区新宿3-38-2<br>ルミネ新宿 ルミネ2 2F,ATTISESSION,関東,Japan,"{'brand': 'ATTISESSION', 'fascia': 'アティセッション', 'category': 'Fashion', 'edit_date': datetime.datetime(2025, 3, 4, 21, 17, 8, 191152), 'lat_lon_source': 'website'}",139.701085267471,35.6899100349223,ATTISESSION 新宿店,{'11:00 - 21:00'},050-8893-3324,160-0022,0131,東京都,https://www.lumine.ne.jp/shinjuku/
大阪府大阪市北区梅田3-1-3 ルクア 2F,ATTISESSION,関西,Japan,"{'brand': 'ATTISESSION', 'fascia': 'アティセッション', 'category': 'Fashion', 'edit_date': datetime.datetime(2025, 3, 4, 21, 17, 8, 191884), 'lat_lon_source': 'website'}",135.4952297012451,34.70288878139613,ATTISESSION 大阪店,{'10:30 - 20:30'},050-8893-9251,530-8217,0226,大阪府,https://www.lucua.jp/
東京都千代田区有楽町2-5-1 ルミネ有楽町店 ルミネ2 4F,STEVEN ALAN,関東,Japan,"{'brand': 'STEVEN ALAN', 'fascia': 'スティーブン アラン', 'category': 'Fashion', 'edit_date': datetime.datetime(2025, 3, 4, 21, 17, 8, 202793), 'lat_lon_source': 'website'}",139.7634665724513,35.673500149497585,スティーブン アラン ユウラクチョウ（2025年3月10日オープン予定）,{'Weekday 11:00-21:00<br>'},,100-0006,0148,東京都,https://www.lumine.ne.jp/yurakucho/
