[
{"addr_full": "8-7, Kakuda-cho, Kita-ku, Osaka-shi", "brand": "Hermes", "city": "Osaka", "country": "Japan", "extras": {"brand": "Hermes", "fascia": "", "category": "", "edit_date": "2025-03-07 12:27:19", "lat_lon_source": "website"}, "lat": 34.70321, "lon": 135.49849, "name": "Hermès Shoe Store at Hankyu Umeda Department Store", "opening_hours": {"Mon": "10 am to 8 pm", "Tue": "10 am to 8 pm", "Wed": "10 am to 8 pm", "Thu": "10 am to 8 pm", "Fri": "10 am to 8 pm", "Sat": "10 am to 8 pm", "Sun": "10 am to 8 pm"}, "phone": "+ 81 6 6361 1381", "postcode": "530-8350", "ref": "1EDYEHJ6", "state": "", "website": "www.hermes.com/us/en/find-store/japan/osaka/hermes-shoe-store-at-hankyu-umeda-department-store-1EDYEHJ6/"},
{"addr_full": "1-1, Hakataeki-Chuogai", "brand": "Hermes", "city": "Fukuoka", "country": "Japan", "extras": {"brand": "Hermes", "fascia": "", "category": "", "edit_date": "2025-03-07 12:27:19", "lat_lon_source": "website"}, "lat": 33.589343, "lon": 130.420368, "name": "Hermès Hakata Hankyu", "opening_hours": {"Mon": "10 am to 8 pm", "Tue": "10 am to 8 pm", "Wed": "10 am to 8 pm", "Thu": "10 am to 8 pm", "Fri": "10 am to 8 pm", "Sat": "10 am to 8 pm", "Sun": "10 am to 8 pm"}, "phone": "+ 81 92 461 1381", "postcode": "812-0012", "ref": "1HGOLL0F", "state": "", "website": "www.hermes.com/us/en/find-store/japan/fukuoka/hermes-hakata-hankyu-1HGOLL0F/"},
{"addr_full": "3-14-1, Shinjuku, Shinjuku-ku", "brand": "Hermes", "city": "Tokyo", "country": "Japan", "extras": {"brand": "Hermes", "fascia": "", "category": "", "edit_date": "2025-03-07 12:27:19", "lat_lon_source": "website"}, "lat": 35.691802, "lon": 139.70521, "name": "Shinjuku Isetan Hermès in Colors", "opening_hours": {"Mon": "10 am to 8 pm", "Tue": "10 am to 8 pm", "Wed": "10 am to 8 pm", "Thu": "10 am to 8 pm", "Fri": "10 am to 8 pm", "Sat": "10 am to 8 pm", "Sun": "10 am to 8 pm"}, "phone": "+ 81 3 6380 5276", "postcode": "160-0022", "ref": "2GAML3JJ", "state": "", "website": "www.hermes.com/us/en/find-store/japan/tokyo/shinjuku-isetan-hermes-in-colors-2GAML3JJ/"},
{"addr_full": "3-2-17, Ichiban-cho", "brand": "Hermes", "city": "Miyagi", "country": "Japan", "extras": {"brand": "Hermes", "fascia": "", "category": "", "edit_date": "2025-03-07 12:27:19", "lat_lon_source": "website"}, "lat": 38.260398, "lon": 140.872415, "name": "Hermès Fujisaki", "opening_hours": {"Mon": "10 am to 7 pm", "Tue": "10 am to 7 pm", "Wed": "10 am to 7 pm", "Thu": "10 am to 7 pm", "Fri": "10 am to 7:30 pm", "Sat": "10 am to 7:30 pm", "Sun": "10 am to 7 pm"}, "phone": "+ 81 22 261 5111", "postcode": "980-8652", "ref": "4KUOUG8T", "state": "", "website": "www.hermes.com/us/en/find-store/japan/miyagi/hermes-fujisaki-4KUOUG8T/"},
{"addr_full": "3-17-1, Tamagawa, Setagaya-ku", "brand": "Hermes", "city": "Tokyo", "country": "Japan", "extras": {"brand": "Hermes", "fascia": "", "category": "", "edit_date": "2025-03-07 12:27:19", "lat_lon_source": "website"}, "lat": 35.614558, "lon": 139.626466, "name": "Hermès Tamagawa Takashimaya", "opening_hours": {"Mon": "10 am to 8 pm", "Tue": "10 am to 8 pm", "Wed": "10 am to 8 pm", "Thu": "10 am to 8 pm", "Fri": "10 am to 8 pm", "Sat": "10 am to 8 pm", "Sun": "10 am to 8 pm"}, "phone": "+ 81 3 3709 3111", "postcode": "158-8701", "ref": "59H74F8T", "state": "", "website": "www.hermes.com/us/en/find-store/japan/tokyo/hermes-tamagawa-takashimaya-59H74F8T/"},
{"addr_full": "1-28-1, Minami-ikebukuro", "brand": "Hermes", "city": "Tokyo", "country": "Japan", "extras": {"brand": "Hermes", "fascia": "", "category": "", "edit_date": "2025-03-07 12:27:19", "lat_lon_source": "website"}, "lat": 35.728539, "lon": 139.711855, "name": "Hermès Ikebukuro Seibu", "opening_hours": {"Mon": "Closed", "Tue": "11 am to 7 pm", "Wed": "11 am to 7 pm", "Thu": "11 am to 7 pm", "Fri": "11 am to 7 pm", "Sat": "11 am to 7 pm", "Sun": "11 am to 7 pm"}, "phone": "+ 81 3 5949 2624", "postcode": "171-8569", "ref": "59ZSZEBN", "state": "", "website": "www.hermes.com/us/en/find-store/japan/tokyo/hermes-ikebukuro-seibu-59ZSZEBN/"},
{"addr_full": "1-4-1, Nihombashi-Muromachi", "brand": "Hermes", "city": "Tokyo", "country": "Japan", "extras": {"brand": "Hermes", "fascia": "", "category": "", "edit_date": "2025-03-07 12:27:19", "lat_lon_source": "website"}, "lat": 35.685634, "lon": 139.773419, "name": "Hermès Nihombashi Mitsukoshi", "opening_hours": {"Mon": "10 am to 7:30 pm", "Tue": "10 am to 7:30 pm", "Wed": "10 am to 7:30 pm", "Thu": "10 am to 7:30 pm", "Fri": "10 am to 7:30 pm", "Sat": "10 am to 7:30 pm", "Sun": "10 am to 7:30 pm"}, "phone": "+ 81 3 3274 8906", "postcode": "103-8001", "ref": "5OFAUZ0Y", "state": "", "website": "www.hermes.com/us/en/find-store/japan/tokyo/hermes-nihombashi-mitsukoshi-5OFAUZ0Y/"},
{"addr_full": "3-16-1, Sakae, Naka-ku, Nagoya-shi", "brand": "Hermes", "city": "Aichi", "country": "Japan", "extras": {"brand": "Hermes", "fascia": "", "category": "", "edit_date": "2025-03-07 12:27:19", "lat_lon_source": "website"}, "lat": 35.165279, "lon": 136.907906, "name": "Hermès Nagoya Matsuzakaya", "opening_hours": {"Mon": "10 am to 8 pm", "Tue": "10 am to 8 pm", "Wed": "10 am to 8 pm", "Thu": "10 am to 8 pm", "Fri": "10 am to 8 pm", "Sat": "10 am to 8 pm", "Sun": "10 am to 8 pm"}, "phone": "+81 52 264 2030", "postcode": "460-8430", "ref": "966IY23Q", "state": "", "website": "www.hermes.com/us/en/find-store/japan/aichi/hermes-nagoya-matsuzakaya-966IY23Q/"},
{"addr_full": "52, Nishiiru-Shincho", "brand": "Hermes", "city": "Kyoto", "country": "Japan", "extras": {"brand": "Hermes", "fascia": "", "category": "", "edit_date": "2025-03-07 12:27:19", "lat_lon_source": "website"}, "lat": 35.003093, "lon": 135.768457, "name": "Hermès Kyoto Takashimaya", "opening_hours": {"Mon": "10 am to 8 pm", "Tue": "10 am to 8 pm", "Wed": "10 am to 8 pm", "Thu": "10 am to 8 pm", "Fri": "10 am to 8 pm", "Sat": "10 am to 8 pm", "Sun": "10 am to 8 pm"}, "phone": "+ 81 75 221 8811", "postcode": "600-8520", "ref": "A2T3JHTF", "state": "", "website": "www.hermes.com/us/en/find-store/japan/kyoto/hermes-kyoto-takashimaya-A2T3JHTF/"},
{"addr_full": "Shin Tokyo Bldg.1F", "brand": "Hermes", "city": "Tokyo", "country": "Japan", "extras": {"brand": "Hermes", "fascia": "", "category": "", "edit_date": "2025-03-07 12:27:19", "lat_lon_source": "website"}, "lat": 35.67725, "lon": 139.762239, "name": "Hermès Marunouchi", "opening_hours": {"Mon": "11 am to 7 pm", "Tue": "Closed", "Wed": "11 am to 7 pm", "Thu": "11 am to 7 pm", "Fri": "11 am to 7 pm", "Sat": "11 am to 7 pm", "Sun": "11 am to 7 pm"}, "phone": "+ 81 3 3213 8041", "postcode": "100-0005", "ref": "B3ATXBVQ", "state": "", "website": "www.hermes.com/us/en/find-store/japan/tokyo/hermes-marunouchi-B3ATXBVQ/"},
{"addr_full": "4-7, Kita Gojo-Nishi, Chuo-ku", "brand": "Hermes", "city": "Hokkaido", "country": "Japan", "extras": {"brand": "Hermes", "fascia": "", "category": "", "edit_date": "2025-03-07 12:27:19", "lat_lon_source": "website"}, "lat": 43.067391, "lon": 141.349795, "name": "Hermès Sapporo Daimaru", "opening_hours": {"Mon": "10 am to 8 pm", "Tue": "10 am to 8 pm", "Wed": "10 am to 8 pm", "Thu": "10 am to 8 pm", "Fri": "10 am to 8 pm", "Sat": "10 am to 8 pm", "Sun": "10 am to 8 pm"}, "phone": "+ 81 50 1780 6000", "postcode": "060-0005", "ref": "BMCFPEV0", "state": "", "website": "www.hermes.com/us/en/find-store/japan/hokkaido/hermes-sapporo-daimaru-BMCFPEV0/"},
{"addr_full": "3-5-1 Sakae, Naka-ku, Nagoya-shi", "brand": "Hermes", "city": "Aichi", "country": "Japan", "extras": {"brand": "Hermes", "fascia": "", "category": "", "edit_date": "2025-03-07 12:27:19", "lat_lon_source": "website"}, "lat": 35.167993, "lon": 136.907304, "name": "Hermès Nagoya Mitsukoshi Sakae", "opening_hours": {"Mon": "10 am to 8 pm", "Tue": "10 am to 8 pm", "Wed": "10 am to 8 pm", "Thu": "10 am to 8 pm", "Fri": "10 am to 8 pm", "Sat": "10 am to 8 pm", "Sun": "10 am to 8 pm"}, "phone": "+81 52 252 1111", "postcode": "460-8669", "ref": "BNNSA1E1", "state": "", "website": "www.hermes.com/us/en/find-store/japan/aichi/hermes-nagoya-mitsukoshi-sakae-BNNSA1E1/"},
{"addr_full": "10-1, Ginza 6-chome, Chuo-ku", "brand": "Hermes", "city": "Tokyo", "country": "Japan", "extras": {"brand": "Hermes", "fascia": "", "category": "", "edit_date": "2025-03-07 12:27:19", "lat_lon_source": "website"}, "lat": 35.669869, "lon": 139.763945, "name": "Hermès in Colors GINZA SIX", "opening_hours": {"Mon": "10:30 am to 8:30 pm", "Tue": "10:30 am to 8:30 pm", "Wed": "10:30 am to 8:30 pm", "Thu": "10:30 am to 8:30 pm", "Fri": "10:30 am to 8:30 pm", "Sat": "10:30 am to 8:30 pm", "Sun": "10:30 am to 8:30 pm"}, "phone": "", "postcode": "104-0061", "ref": "C67QHDBX", "state": "", "website": "www.hermes.com/us/en/find-store/japan/tokyo/hermes-in-colors-ginza-six-C67QHDBX/"},
{"addr_full": "1-6-31, Minami-saiwai, Nishi-ku, Yokohama-shi", "brand": "Hermes", "city": "Kanagawa", "country": "Japan", "extras": {"brand": "Hermes", "fascia": "", "category": "", "edit_date": "2025-03-07 12:27:19", "lat_lon_source": "website"}, "lat": 35.465948, "lon": 139.620652, "name": "Hermès Yokohama Takashimaya", "opening_hours": {"Mon": "10 am to 8 pm", "Tue": "10 am to 8 pm", "Wed": "10 am to 8 pm", "Thu": "10 am to 8 pm", "Fri": "10 am to 8 pm", "Sat": "10 am to 8 pm", "Sun": "10 am to 8 pm"}, "phone": "+ 81 45 311 5111", "postcode": "220-8601", "ref": "CUK1GVU1", "state": "", "website": "www.hermes.com/us/en/find-store/japan/kanagawa/hermes-yokohama-takashimaya-CUK1GVU1/"},
{"addr_full": "Tokyo Haneda International Airport", "brand": "Hermes", "city": "Tokyo", "country": "Japan", "extras": {"brand": "Hermes", "fascia": "", "category": "", "edit_date": "2025-03-07 12:27:19", "lat_lon_source": "website"}, "lat": 35.545548, "lon": 139.769201, "name": "Hermès Tokyo Haneda International Airport", "opening_hours": {"Mon": "7:30 am to 10 pm", "Tue": "7:30 am to 10 pm", "Wed": "7:30 am to 10 pm", "Thu": "7:30 am to 10 pm", "Fri": "7:30 am to 10 pm", "Sat": "7:30 am to 10 pm", "Sun": "7:30 am to 10 pm"}, "phone": "+ 81 (0)36 428 0777", "postcode": "144-0041", "ref": "DTAJAH3Q", "state": "", "website": "www.hermes.com/us/en/find-store/japan/tokyo/hermes-tokyo-haneda-international-airport-DTAJAH3Q/"},
{"addr_full": "5-24-2, Sendagaya, Shibuya-ku", "brand": "Hermes", "city": "Tokyo", "country": "Japan", "extras": {"brand": "Hermes", "fascia": "", "category": "", "edit_date": "2025-03-07 12:27:19", "lat_lon_source": "website"}, "lat": 35.68787, "lon": 139.70208, "name": "Hermès Shinjuku Takashimaya", "opening_hours": {"Mon": "10:30 am to 7:30 pm", "Tue": "10:30 am to 7:30 pm", "Wed": "10:30 am to 7:30 pm", "Thu": "10:30 am to 7:30 pm", "Fri": "10:30 am to 7:30 pm", "Sat": "10:30 am to 7:30 pm", "Sun": "10:30 am to 7:30 pm"}, "phone": "+ 81 3 5361 1111", "postcode": "151-8580", "ref": "EJS01T1A", "state": "", "website": "www.hermes.com/us/en/find-store/japan/tokyo/hermes-shinjuku-takashimaya-EJS01T1A/"},
{"addr_full": "4-1, Ginza 5-chome, Chuo-ku", "brand": "Hermes", "city": "Tokyo", "country": "Japan", "extras": {"brand": "Hermes", "fascia": "", "category": "", "edit_date": "2025-03-07 12:27:19", "lat_lon_source": "website"}, "lat": 35.672047, "lon": 139.763422, "name": "Hermès Ginza", "opening_hours": {"Mon": "11 am to 7 pm", "Tue": "11 am to 7 pm", "Wed": "11 am to 7 pm", "Thu": "11 am to 7 pm", "Fri": "11 am to 7 pm", "Sat": "11 am to 7 pm", "Sun": "11 am to 7 pm"}, "phone": "+ 81 3 3289 6811", "postcode": "104-0061", "ref": "EX51G1VS", "state": "", "website": "www.hermes.com/us/en/find-store/japan/tokyo/hermes-ginza-EX51G1VS/"},
{"addr_full": "Ground floor", "brand": "Hermes", "city": "Hyogo", "country": "Japan", "extras": {"brand": "Hermes", "fascia": "", "category": "", "edit_date": "2025-03-07 12:27:19", "lat_lon_source": "website"}, "lat": 34.688323, "lon": 135.190857, "name": "Hermès Kobe Daimaru", "opening_hours": {"Mon": "11 am to 7 pm", "Tue": "11 am to 7 pm", "Wed": "11 am to 7 pm", "Thu": "11 am to 7 pm", "Fri": "11 am to 7 pm", "Sat": "11 am to 7 pm", "Sun": "11 am to 7 pm"}, "phone": "+81 78 331 8121", "postcode": "650-0037", "ref": "HM6Q1ZJ2", "state": "", "website": "www.hermes.com/us/en/find-store/japan/hyogo/hermes-kobe-daimaru-HM6Q1ZJ2/"},
{"addr_full": "1000, Sin-Machi, Chuo-ku, Chiba-shi", "brand": "Hermes", "city": "Chiba", "country": "Japan", "extras": {"brand": "Hermes", "fascia": "", "category": "", "edit_date": "2025-03-07 12:27:19", "lat_lon_source": "website"}, "lat": 35.611086, "lon": 140.114022, "name": "Hermès Chiba Sogo", "opening_hours": {"Mon": "10 am to 8 pm", "Tue": "10 am to 8 pm", "Wed": "10 am to 8 pm", "Thu": "10 am to 8 pm", "Fri": "10 am to 8 pm", "Sat": "10 am to 8 pm", "Sun": "10 am to 8 pm"}, "phone": "+ 81 43 245 2111", "postcode": "260-8557", "ref": "J0WB0HCV", "state": "", "website": "www.hermes.com/us/en/find-store/japan/chiba/hermes-chiba-sogo-J0WB0HCV/"},
{"addr_full": "3-14-1, Shinjuku, Shinjuku-ku", "brand": "Hermes", "city": "Tokyo", "country": "Japan", "extras": {"brand": "Hermes", "fascia": "", "category": "", "edit_date": "2025-03-07 12:27:19", "lat_lon_source": "website"}, "lat": 35.691802, "lon": 139.70521, "name": "Hermès Shinjuku Isetan", "opening_hours": {"Mon": "10 am to 8 pm", "Tue": "10 am to 8 pm", "Wed": "10 am to 8 pm", "Thu": "10 am to 8 pm", "Fri": "10 am to 8 pm", "Sat": "10 am to 8 pm", "Sun": "10 am to 8 pm"}, "phone": "+ 81 3 3352 1111", "postcode": "160-0022", "ref": "K0BOULMK", "state": "", "website": "www.hermes.com/us/en/find-store/japan/tokyo/hermes-shinjuku-isetan-K0BOULMK/"},
{"addr_full": "1-1-4, Meieki, Nakamura-ku", "brand": "Hermes", "city": "Aichi", "country": "Japan", "extras": {"brand": "Hermes", "fascia": "", "category": "", "edit_date": "2025-03-07 12:27:19", "lat_lon_source": "website"}, "lat": 35.1713, "lon": 136.88265, "name": "Hermès Nagoya JR Takashimaya", "opening_hours": {"Mon": "10 am to 8 pm", "Tue": "10 am to 8 pm", "Wed": "10 am to 8 pm", "Thu": "10 am to 8 pm", "Fri": "10 am to 8 pm", "Sat": "10 am to 8 pm", "Sun": "10 am to 8 pm"}, "phone": "+ 81 52 566 1101", "postcode": "450-6001", "ref": "KQFQKBNX", "state": "", "website": "www.hermes.com/us/en/find-store/japan/aichi/hermes-nagoya-jr-takashimaya-KQFQKBNX/"},
{"addr_full": "8-7, Kakuda-cho, Kita-ku, Osaka-shi", "brand": "Hermes", "city": "Osaka", "country": "Japan", "extras": {"brand": "Hermes", "fascia": "", "category": "", "edit_date": "2025-03-07 12:27:19", "lat_lon_source": "website"}, "lat": 34.702819, "lon": 135.498532, "name": "Hermès Umeda Hankyu", "opening_hours": {"Mon": "10 am to 8 pm", "Tue": "10 am to 8 pm", "Wed": "10 am to 8 pm", "Thu": "10 am to 8 pm", "Fri": "10 am to 8 pm", "Sat": "10 am to 8 pm", "Sun": "10 am to 8 pm"}, "phone": "+ 81 6 6361 1381", "postcode": "530-8350", "ref": "LALOZND4", "state": "", "website": "www.hermes.com/us/en/find-store/japan/osaka/hermes-umeda-hankyu-LALOZND4/"},
{"addr_full": "2-18-1, Takashima", "brand": "Hermes", "city": "Kanagawa", "country": "Japan", "extras": {"brand": "Hermes", "fascia": "", "category": "", "edit_date": "2025-03-07 12:27:19", "lat_lon_source": "website"}, "lat": 35.465586, "lon": 139.625026, "name": "Hermès Yokohama Sogo", "opening_hours": {"Mon": "10 am to 8 pm", "Tue": "10 am to 8 pm", "Wed": "10 am to 8 pm", "Thu": "10 am to 8 pm", "Fri": "10 am to 8 pm", "Sat": "10 am to 8 pm", "Sun": "10 am to 8 pm"}, "phone": "+ 81 45 465 2111", "postcode": "220-8510", "ref": "MPWOUK9G", "state": "", "website": "www.hermes.com/us/en/find-store/japan/kanagawa/hermes-yokohama-sogo-MPWOUK9G/"},
{"addr_full": "15-1, Udagawa-cho, Shibuya-ku", "brand": "Hermes", "city": "Tokyo", "country": "Japan", "extras": {"brand": "Hermes", "fascia": "", "category": "", "edit_date": "2025-03-07 12:27:19", "lat_lon_source": "website"}, "lat": 35.662014, "lon": 139.698729, "name": "Hermès in Colors SHIBUYA PARCO", "opening_hours": {"Mon": "11 am to 8 pm", "Tue": "11 am to 8 pm", "Wed": "11 am to 8 pm", "Thu": "11 am to 8 pm", "Fri": "11 am to 8 pm", "Sat": "11 am to 8 pm", "Sun": "11 am to 8 pm"}, "phone": "", "postcode": "150-0042", "ref": "NLZC55C6", "state": "", "website": "www.hermes.com/us/en/find-store/japan/tokyo/hermes-in-colors-shibuya-parco-NLZC55C6/"},
{"addr_full": "Narita International Airport", "brand": "Hermes", "city": "Chiba", "country": "Japan", "extras": {"brand": "Hermes", "fascia": "", "category": "", "edit_date": "2025-03-07 12:27:19", "lat_lon_source": "website"}, "lat": 35.774134, "lon": 140.389077, "name": "Hermès Tokyo Narita International Airport, T2", "opening_hours": {"Mon": "7:30 am to 10 pm", "Tue": "7:30 am to 10 pm", "Wed": "7:30 am to 10 pm", "Thu": "7:30 am to 10 pm", "Fri": "7:30 am to 10 pm", "Sat": "7:30 am to 10 pm", "Sun": "7:30 am to 10 pm"}, "phone": "+81 (0)47 634 8051", "postcode": "282-0004", "ref": "NMEMEIEN", "state": "", "website": "www.hermes.com/us/en/find-store/japan/chiba/hermes-tokyo-narita-international-airport-t2-NMEMEIEN/"},
{"addr_full": "8-7, Kakuda-cho, Kita-ku, Osaka-shi", "brand": "Hermes", "city": "Osaka", "country": "Japan", "extras": {"brand": "Hermes", "fascia": "", "category": "", "edit_date": "2025-03-07 12:27:19", "lat_lon_source": "website"}, "lat": 34.702819, "lon": 135.498532, "name": "Hankyu Umeda Hermès in Colors", "opening_hours": {"Mon": "10 am to 8 pm", "Tue": "10 am to 8 pm", "Wed": "10 am to 8 pm", "Thu": "10 am to 8 pm", "Fri": "10 am to 8 pm", "Sat": "10 am to 8 pm", "Sun": "10 am to 8 pm"}, "phone": "+ 81 6 6361 1381", "postcode": "530-8350", "ref": "NMTGRWGW", "state": "", "website": "www.hermes.com/us/en/find-store/japan/osaka/hankyu-umeda-hermes-in-colors-NMTGRWGW/"},
{"addr_full": "1-7-1 Shinsaibashisuji, Chuo-ku, Osaka-shi", "brand": "Hermes", "city": "Osaka", "country": "Japan", "extras": {"brand": "Hermes", "fascia": "", "category": "", "edit_date": "2025-03-07 12:27:19", "lat_lon_source": "website"}, "lat": 34.673273, "lon": 135.500948, "name": "Hermès Shinsaibashi Daimaru", "opening_hours": {"Mon": "11 am to 7 pm", "Tue": "11 am to 7 pm", "Wed": "11 am to 7 pm", "Thu": "11 am to 7 pm", "Fri": "11 am to 7 pm", "Sat": "11 am to 7 pm", "Sun": "11 am to 7 pm"}, "phone": "+81 6 6271 1231", "postcode": "542-8501", "ref": "NN92JRJS", "state": "", "website": "www.hermes.com/us/en/find-store/japan/osaka/hermes-shinsaibashi-daimaru-NN92JRJS/"},
{"addr_full": "2-5-35, Tenjin, Chuo-ku", "brand": "Hermes", "city": "Fukuoka", "country": "Japan", "extras": {"brand": "Hermes", "fascia": "", "category": "", "edit_date": "2025-03-07 12:27:19", "lat_lon_source": "website"}, "lat": 33.589399, "lon": 130.397653, "name": "Iwataya Hermès in Colors", "opening_hours": {"Mon": "10 am to 8 pm", "Tue": "10 am to 8 pm", "Wed": "10 am to 8 pm", "Thu": "10 am to 8 pm", "Fri": "10 am to 8 pm", "Sat": "10 am to 8 pm", "Sun": "10 am to 8 pm"}, "phone": "+ 81 92 721 1111", "postcode": "810-8680", "ref": "O67I3FRP", "state": "", "website": "www.hermes.com/us/en/find-store/japan/fukuoka/iwataya-hermes-in-colors-O67I3FRP/"},
{"addr_full": "F2, 5-1-5, Namba, Chuo-ku, Osaka-shi", "brand": "Hermes", "city": "Osaka", "country": "Japan", "extras": {"brand": "Hermes", "fascia": "", "category": "", "edit_date": "2025-03-07 12:27:19", "lat_lon_source": "website"}, "lat": 34.66402, "lon": 135.501444, "name": "Hermès Osaka Takashimaya", "opening_hours": {"Mon": "10 am to 8 pm", "Tue": "10 am to 8 pm", "Wed": "10 am to 8 pm", "Thu": "10 am to 8 pm", "Fri": "10 am to 8 pm", "Sat": "10 am to 8 pm", "Sun": "10 am to 8 pm"}, "phone": "+ 81 6 6631 1101", "postcode": "542-8510", "ref": "P06I6PDE", "state": "", "website": "www.hermes.com/us/en/find-store/japan/osaka/hermes-osaka-takashimaya-P06I6PDE/"},
{"addr_full": "1-3-1, Azabudai, Minato-ku", "brand": "Hermes", "city": "Tokyo", "country": "Japan", "extras": {"brand": "Hermes", "fascia": "", "category": "", "edit_date": "2025-03-07 12:27:19", "lat_lon_source": "website"}, "lat": 35.661389, "lon": 139.740648, "name": "Hermès Azabudai Hills Boutique", "opening_hours": {"Mon": "Closed", "Tue": "11 am to 7 pm", "Wed": "11 am to 7 pm", "Thu": "11 am to 7 pm", "Fri": "11 am to 7 pm", "Sat": "11 am to 7 pm", "Sun": "11 am to 7 pm"}, "phone": "+81 3 6426 5023", "postcode": "106-0041", "ref": "PG5SZH3H", "state": "", "website": "www.hermes.com/us/en/find-store/japan/tokyo/hermes-azabudai-hills-boutique-PG5SZH3H/"},
{"addr_full": "Terminal 1, 2F / After Security (International Departures)", "brand": "Hermes", "city": "Osaka", "country": "Japan", "extras": {"brand": "Hermes", "fascia": "", "category": "", "edit_date": "2025-03-07 12:27:19", "lat_lon_source": "website"}, "lat": 34.434286, "lon": 135.243714, "name": "Hermès Osaka Kansai International Airport ", "opening_hours": {"Mon": "8 am to 8 pm", "Tue": "8 am to 8 pm", "Wed": "8 am to 8 pm", "Thu": "8 am to 8 pm", "Fri": "8 am to 8 pm", "Sat": "8 am to 8 pm", "Sun": "8 am to 8 pm"}, "phone": "+81 (0)72 456 6593", "postcode": "549-0011", "ref": "RUA7DLG0", "state": "", "website": "www.hermes.com/us/en/find-store/japan/osaka/hermes-osaka-kansai-international-airport-RUA7DLG0/"},
{"addr_full": "The Hilton Plaza East 2F, 1-8-16, Kita-ku, Osaka-shi", "brand": "Hermes", "city": "Osaka", "country": "Japan", "extras": {"brand": "Hermes", "fascia": "", "category": "", "edit_date": "2025-03-07 12:27:19", "lat_lon_source": "website"}, "lat": 34.7005, "lon": 135.4962, "name": "Hermès Hilton After Sales", "opening_hours": {"Mon": "11 am to 7 pm", "Tue": "11 am to 7 pm", "Wed": "Closed", "Thu": "11 am to 7 pm", "Fri": "11 am to 7 pm", "Sat": "11 am to 7 pm", "Sun": "11 am to 7 pm"}, "phone": "+ 81 6 6345 1523", "postcode": "530-0001", "ref": "TWJ2FTB3", "state": "", "website": "www.hermes.com/us/en/find-store/japan/osaka/hermes-hilton-after-sales-TWJ2FTB3/"},
{"addr_full": "2-4-1, Nihombashi, Chuo-ku", "brand": "Hermes", "city": "Tokyo", "country": "Japan", "extras": {"brand": "Hermes", "fascia": "", "category": "", "edit_date": "2025-03-07 12:27:19", "lat_lon_source": "website"}, "lat": 35.680843, "lon": 139.772914, "name": "Hermès Nihombashi Takashimaya", "opening_hours": {"Mon": "10:30 am to 7:30 pm", "Tue": "10:30 am to 7:30 pm", "Wed": "10:30 am to 7:30 pm", "Thu": "10:30 am to 7:30 pm", "Fri": "10:30 am to 7:30 pm", "Sat": "10:30 am to 7:30 pm", "Sun": "10:30 am to 7:30 pm"}, "phone": "+ 81 3 3211 4111", "postcode": "103-8265", "ref": "U01R8EVF", "state": "", "website": "www.hermes.com/us/en/find-store/japan/tokyo/hermes-nihombashi-takashimaya-U01R8EVF/"},
{"addr_full": "Jingumae Ota Building", "brand": "Hermes", "city": "Tokyo", "country": "Japan", "extras": {"brand": "Hermes", "fascia": "", "category": "", "edit_date": "2025-03-07 12:27:19", "lat_lon_source": "website"}, "lat": 35.667134, "lon": 139.708563, "name": "Hermès Omotesando", "opening_hours": {"Mon": "11 am to 7 pm", "Tue": "11 am to 7 pm", "Wed": "11 am to 7 pm", "Thu": "Closed", "Fri": "11 am to 7 pm", "Sat": "11 am to 7 pm", "Sun": "11 am to 7 pm"}, "phone": "+ 81 3 6712 6612", "postcode": "150-0001", "ref": "U5HJAII4", "state": "", "website": "www.hermes.com/us/en/find-store/japan/tokyo/hermes-omotesando-U5HJAII4/"},
{"addr_full": "Narita International Airport, South Wing", "brand": "Hermes", "city": "Chiba", "country": "Japan", "extras": {"brand": "Hermes", "fascia": "", "category": "", "edit_date": "2025-03-07 12:27:19", "lat_lon_source": "website"}, "lat": 35.763061, "lon": 140.385429, "name": "Hermès Tokyo Narita International Airport, T1 South", "opening_hours": {"Mon": "7:30 am to 10 pm", "Tue": "7:30 am to 10 pm", "Wed": "7:30 am to 10 pm", "Thu": "7:30 am to 10 pm", "Fri": "7:30 am to 10 pm", "Sat": "7:30 am to 10 pm", "Sun": "7:30 am to 10 pm"}, "phone": "+81 (0)47 633 2115 ", "postcode": "282-0004", "ref": "WEGZ7GDY", "state": "", "website": "www.hermes.com/us/en/find-store/japan/chiba/hermes-tokyo-narita-international-airport-t1-south-WEGZ7GDY/"},
{"addr_full": "F1, 5-1-5, Namba, Chuo-ku, Osaka-shi", "brand": "Hermes", "city": "Osaka", "country": "Japan", "extras": {"brand": "Hermes", "fascia": "", "category": "", "edit_date": "2025-03-07 12:27:19", "lat_lon_source": "website"}, "lat": 0, "lon": 0, "name": "Takashimaya Osaka Hermès in Colors", "opening_hours": {"Mon": "10 am to 8 pm", "Tue": "10 am to 8 pm", "Wed": "10 am to 8 pm", "Thu": "10 am to 8 pm", "Fri": "10 am to 8 pm", "Sat": "Closed", "Sun": "Closed"}, "phone": "", "postcode": "542-8510", "ref": "WHX5YCCI", "state": "", "website": "www.hermes.com/us/en/find-store/japan/osaka/takashimaya-osaka-hermes-in-colors-WHX5YCCI/"},
{"addr_full": "1-8-16, Umeda, Kita-ku, Osaka-shi", "brand": "Hermes", "city": "Osaka", "country": "Japan", "extras": {"brand": "Hermes", "fascia": "", "category": "", "edit_date": "2025-03-07 12:27:19", "lat_lon_source": "website"}, "lat": 34.700414, "lon": 135.496181, "name": "Hermès Hilton Plaza", "opening_hours": {"Mon": "11 am to 7 pm", "Tue": "11 am to 7 pm", "Wed": "11 am to 7 pm", "Thu": "Closed", "Fri": "11 am to 7 pm", "Sat": "11 am to 7 pm", "Sun": "11 am to 7 pm"}, "phone": "+ 81 6 6347 7471", "postcode": "530-0001", "ref": "WRD8ORW8", "state": "", "website": "www.hermes.com/us/en/find-store/japan/osaka/hermes-hilton-plaza-WRD8ORW8/"},
{"addr_full": "4-6-16, Ginza, Chuo-ku", "brand": "Hermes", "city": "Tokyo", "country": "Japan", "extras": {"brand": "Hermes", "fascia": "", "category": "", "edit_date": "2025-03-07 12:27:19", "lat_lon_source": "website"}, "lat": 35.671914, "lon": 139.765738, "name": "Hermès Ginza Mitsukoshi Boutique", "opening_hours": {"Mon": "10 am to 8 pm", "Tue": "10 am to 8 pm", "Wed": "10 am to 8 pm", "Thu": "10 am to 8 pm", "Fri": "10 am to 8 pm", "Sat": "10 am to 8 pm", "Sun": "10 am to 8 pm"}, "phone": "", "postcode": "104-8212", "ref": "X4QUL43U", "state": "", "website": "www.hermes.com/us/en/find-store/japan/tokyo/hermes-ginza-mitsukoshi-boutique-X4QUL43U/"},
{"addr_full": "2-5-35, Tenjin, Chuo-ku", "brand": "Hermes", "city": "Fukuoka", "country": "Japan", "extras": {"brand": "Hermes", "fascia": "", "category": "", "edit_date": "2025-03-07 12:27:19", "lat_lon_source": "website"}, "lat": 33.589399, "lon": 130.397653, "name": "Hermès Iwataya", "opening_hours": {"Mon": "10 am to 8 pm", "Tue": "10 am to 8 pm", "Wed": "10 am to 8 pm", "Thu": "10 am to 8 pm", "Fri": "10 am to 8 pm", "Sat": "10 am to 8 pm", "Sun": "10 am to 8 pm"}, "phone": "+ 81 92 721 1111", "postcode": "810-8680", "ref": "XYW26T5S", "state": "", "website": "www.hermes.com/us/en/find-store/japan/fukuoka/hermes-iwataya-XYW26T5S/"}
]