[
{"addr_full": "Tetori honcho, Chuo-ku 6-1", "brand": ["boss"], "city": "Kumamoto", "country": "JP", "extras": {"brand": ["boss"], "fascia": "Shop", "category": ["menswear"], "edit_date": "2025-02-26 12:22:25", "lat_lon_source": "Third Party"}, "lat": 32.7989, "lon": 130.70529, "name": "BOSS Menswear Shop", "opening_hours": {"Shop": {"Monday": "10:00-19:00", "Tuesday": "10:00-19:00", "Wednesday": "10:00-19:00", "Thursday": "10:00-19:00", "Friday": "10:00-19:30", "Saturday": "10:00-19:30", "Sunday": "10:00-19:00"}}, "phone": "+81 963225330", "postcode": "860-8586", "ref": "9923724", "state": "43", "website": "https://www.hugoboss.com/store#lat=32.7989&lng=130.70529"},
{"addr_full": "Minato-machi, Matsuyama-shi 5-1-1", "brand": ["boss", "boss-green"], "city": "Ehime", "country": "JP", "extras": {"brand": ["boss", "boss-green"], "fascia": "Shop", "category": ["menswear"], "edit_date": "2025-02-26 12:22:25", "lat_lon_source": "Third Party"}, "lat": 33.83571, "lon": 132.76317, "name": "BOSS Menswear Shop", "opening_hours": {"Shop": {"Monday": "10:00-19:00", "Tuesday": "10:00-19:00", "Wednesday": "10:00-19:00", "Thursday": "10:00-19:00", "Friday": "10:00-19:00", "Saturday": "10:00-19:00", "Sunday": "10:00-19:00"}}, "phone": "+81 899482840", "postcode": "790-8587", "ref": "9923720", "state": "38", "website": "https://www.hugoboss.com/store#lat=33.83571&lng=132.76317"},
{"addr_full": "Toyosaki, Tomigusuku-shi 1-188", "brand": ["boss"], "city": "Okinawa", "country": "JP", "extras": {"brand": ["boss"], "fascia": "Outlet", "category": ["menswear"], "edit_date": "2025-02-26 12:22:25", "lat_lon_source": "Third Party"}, "lat": 26.15809, "lon": 127.65708, "name": "BOSS Outlet", "opening_hours": {"Outlet": {"Monday": "10:00-20:30", "Tuesday": "10:00-20:30", "Wednesday": "10:00-20:30", "Thursday": "10:00-20:30", "Friday": "10:00-20:30", "Saturday": "10:00-20:30", "Sunday": "10:00-20:30"}}, "phone": "+815036129727", "postcode": "901-0225", "ref": "9923618", "state": "47", "website": "https://www.hugoboss.com/store#lat=26.15809&lng=127.65708"},
{"addr_full": "Yayoigaoka, Tosu-shi 8-1", "brand": ["boss"], "city": "Saga", "country": "JP", "extras": {"brand": ["boss"], "fascia": "Outlet", "category": ["menswear", "womenswear"], "edit_date": "2025-02-26 12:22:25", "lat_lon_source": "Third Party"}, "lat": 33.4065, "lon": 130.51165, "name": "BOSS Outlet", "opening_hours": {"Outlet": {"Monday": "10:00-19:00", "Tuesday": "10:00-19:00", "Wednesday": "10:00-19:00", "Thursday": "10:00-19:00", "Friday": "10:00-19:00", "Saturday": "10:00-19:00", "Sunday": "10:00-19:00"}}, "phone": "+81 942857608", "postcode": "841-0005", "ref": "9925493", "state": "41", "website": "https://www.hugoboss.com/store#lat=33.4065&lng=130.51165"},
{"addr_full": "Hakataeki Chu-ogai, Hakata-ku, Fukuoka-shi 1-1", "brand": ["boss", "boss-green"], "city": "Fukuoka", "country": "JP", "extras": {"brand": ["boss", "boss-green"], "fascia": "Shop", "category": ["menswear"], "edit_date": "2025-02-26 12:22:25", "lat_lon_source": "Third Party"}, "lat": 33.58997, "lon": 130.42064, "name": "BOSS Menswear Shop", "opening_hours": {"Shop": {"Monday": "10:00-20:00", "Tuesday": "10:00-20:00", "Wednesday": "10:00-20:00", "Thursday": "10:00-20:00", "Friday": "10:00-20:00", "Saturday": "10:00-20:00", "Sunday": "10:00-20:00"}}, "phone": "+81 5036127382", "postcode": "812-0012", "ref": "9921816", "state": "40", "website": "https://www.hugoboss.com/store#lat=33.58997&lng=130.42064"},
{"addr_full": "Tenjin, Chuo-ku, Fukuoka-shi 2-5-35", "brand": ["boss", "boss-camel"], "city": "Fukuoka", "country": "JP", "extras": {"brand": ["boss", "boss-camel"], "fascia": "Shop", "category": ["menswear"], "edit_date": "2025-02-26 12:22:25", "lat_lon_source": "Third Party"}, "lat": 33.58892, "lon": 130.39745, "name": "BOSS Menswear Shop", "opening_hours": {"Shop": {"Monday": "10:00-20:00", "Tuesday": "10:00-20:00", "Wednesday": "10:00-20:00", "Thursday": "10:00-20:00", "Friday": "10:00-20:00", "Saturday": "10:00-20:00", "Sunday": "10:00-20:00"}}, "phone": "+81 927712877", "postcode": "810-8680", "ref": "9923773", "state": "40", "website": "https://www.hugoboss.com/store#lat=33.58892&lng=130.39745"},
{"addr_full": "Uchimachi, Takamatsu-shi 7-1", "brand": ["boss"], "city": "Kagawa", "country": "JP", "extras": {"brand": ["boss"], "fascia": "Shop", "category": ["menswear"], "edit_date": "2025-02-26 12:22:25", "lat_lon_source": "Third Party"}, "lat": 34.34647, "lon": 134.05105, "name": "BOSS Menswear Shop", "opening_hours": {"Shop": {"Monday": "10:00-19:00", "Tuesday": "10:00-19:00", "Wednesday": "10:00-19:00", "Thursday": "10:00-19:00", "Friday": "10:00-19:00", "Saturday": "10:00-19:00", "Sunday": "10:00-19:00"}}, "phone": "+81 878517751", "postcode": "760-8639", "ref": "9923783", "state": "39", "website": "https://www.hugoboss.com/store#lat=34.34647&lng=134.05105"},
{"addr_full": "Senba-machi, Kokurakita-ku, Kitakyushu-shi 1-1", "brand": ["boss"], "city": "Kitakyushu City, Fukuoka", "country": "JP", "extras": {"brand": ["boss"], "fascia": "Shop", "category": ["menswear"], "edit_date": "2025-02-26 12:22:25", "lat_lon_source": "Third Party"}, "lat": 33.88444, "lon": 130.87826, "name": "BOSS Menswear Shop", "opening_hours": {"Shop": {"Monday": "10:00-19:00", "Tuesday": "10:00-19:00", "Wednesday": "10:00-19:00", "Thursday": "10:00-19:00", "Friday": "10:00-19:00", "Saturday": "10:00-19:00", "Sunday": "10:00-19:00"}}, "phone": "+81 935222518", "postcode": "802-8511", "ref": "9923619", "state": "40", "website": "https://www.hugoboss.com/store#lat=33.88444&lng=130.87826"},
{"addr_full": "Higashida, Yahata Higashi-ku, Kita Kyushu-shi 4-1-101", "brand": ["boss"], "city": "Fukuoka", "country": "JP", "extras": {"brand": ["boss"], "fascia": "Outlet", "category": ["menswear"], "edit_date": "2025-02-26 12:22:25", "lat_lon_source": "Third Party"}, "lat": 33.87389, "lon": 130.81147, "name": "BOSS Outlet", "opening_hours": {"Outlet": {"Monday": "10:00-20:00", "Tuesday": "10:00-20:00", "Wednesday": "10:00-20:00", "Thursday": "10:00-20:00", "Friday": "10:00-20:00", "Saturday": "10:00-20:00", "Sunday": "10:00-20:00"}}, "phone": "+81 5036469131", "postcode": "805-0071", "ref": "9925275", "state": "40", "website": "https://www.hugoboss.com/store#lat=33.87389&lng=130.81147"},
{"addr_full": "Hiroshima-shi 6-26", "brand": ["boss"], "city": "Hiroshima", "country": "JP", "extras": {"brand": ["boss"], "fascia": "Shop", "category": ["menswear"], "edit_date": "2025-02-26 12:22:25", "lat_lon_source": "Third Party"}, "lat": 34.41026, "lon": 132.48139, "name": "BOSS Menswear Shop", "opening_hours": {"Shop": {"Monday": "10:30-19:30", "Tuesday": "10:30-19:30", "Wednesday": "10:30-19:30", "Thursday": "10:30-19:30", "Friday": "10:30-19:30", "Saturday": "10:30-19:30", "Sunday": "10:30-19:30"}}, "phone": "+81 82-246-6512", "postcode": "730-8548", "ref": "9924740", "state": "34", "website": "https://www.hugoboss.com/store#lat=34.41026&lng=132.48139"},
{"addr_full": "Rinku-Orai Minami, Izumi Sano-shi 3-28", "brand": ["boss"], "city": "Osaka", "country": "JP", "extras": {"brand": ["boss"], "fascia": "Outlet", "category": ["menswear", "womenswear"], "edit_date": "2025-02-26 12:22:25", "lat_lon_source": "Third Party"}, "lat": 34.40606, "lon": 135.295, "name": "BOSS Outlet", "opening_hours": {"Outlet": {"Monday": "10:00-19:00", "Tuesday": "10:00-19:00", "Wednesday": "10:00-19:00", "Thursday": "10:00-19:00", "Friday": "10:00-19:00", "Saturday": "10:00-19:00", "Sunday": "10:00-19:00"}}, "phone": "+81 724646731", "postcode": "598-8508", "ref": "9923706", "state": "27", "website": "https://www.hugoboss.com/store#lat=34.40606&lng=135.295"},
{"addr_full": "Kotobuki-cho, Kurashiki-shi 12-3", "brand": ["boss"], "city": "Okayama", "country": "JP", "extras": {"brand": ["boss"], "fascia": "Outlet", "category": ["menswear"], "edit_date": "2025-02-26 12:22:25", "lat_lon_source": "Third Party"}, "lat": 34.60373, "lon": 133.76206, "name": "BOSS Outlet", "opening_hours": {"Outlet": {"Monday": "10:00-19:00", "Tuesday": "10:00-19:00", "Wednesday": "10:00-19:00", "Thursday": "10:00-19:00", "Friday": "10:00-19:00", "Saturday": "10:00-20:00", "Sunday": "10:00-20:00"}}, "phone": "+81 864231600", "postcode": "710-0813", "ref": "9925299", "state": "33", "website": "https://www.hugoboss.com/store#lat=34.60373&lng=133.76206"},
{"addr_full": "Omotecho , Kita-ku  Okayama-shi 2-1-1", "brand": ["boss"], "city": "Okayama", "country": "JP", "extras": {"brand": ["boss"], "fascia": "Shop", "category": ["menswear"], "edit_date": "2025-02-26 12:22:25", "lat_lon_source": "Third Party"}, "lat": 34.66183, "lon": 133.92888, "name": "BOSS Menswear Shop", "opening_hours": {"Shop": {"Monday": "10:00-19:30", "Tuesday": "10:00-19:30", "Wednesday": "10:00-19:30", "Thursday": "10:00-19:30", "Friday": "10:00-19:30", "Saturday": "10:00-19:30", "Sunday": "10:00-19:30"}}, "phone": "+81 862268105", "postcode": "700-8625", "ref": "9923771", "state": "33", "website": "https://www.hugoboss.com/store#lat=34.66183&lng=133.92888"},
{"addr_full": "Kaigan-Dori, Tarumi-ku 12-2", "brand": ["boss"], "city": "Hyogo", "country": "JP", "extras": {"brand": ["boss"], "fascia": "Outlet", "category": ["menswear"], "edit_date": "2025-02-26 12:22:25", "lat_lon_source": "Third Party"}, "lat": 34.62604, "lon": 135.04738, "name": "BOSS Outlet", "opening_hours": {"Outlet": {"Monday": "10:00-20:00", "Tuesday": "10:00-20:00", "Wednesday": "10:00-20:00", "Thursday": "10:00-20:00", "Friday": "10:00-20:00", "Saturday": "10:00-20:00", "Sunday": "10:00-20:00"}}, "phone": "+81 50-3612-4880", "postcode": "655-0036", "ref": "9921700", "state": "28", "website": "https://www.hugoboss.com/store#lat=34.62604&lng=135.04738"},
{"addr_full": "Akashimachi, Chuo-ku, Kobe-shi 40", "brand": ["boss"], "city": "Hyogo", "country": "JP", "extras": {"brand": ["boss"], "fascia": "Shop", "category": ["menswear"], "edit_date": "2025-02-26 12:22:25", "lat_lon_source": "Third Party"}, "lat": 34.68868, "lon": 135.19045, "name": "BOSS Menswear Shop", "opening_hours": {"Shop": {"Monday": "10:00-19:00", "Tuesday": "10:00-19:00", "Wednesday": "10:00-19:00", "Thursday": "10:00-19:00", "Friday": "10:00-19:00", "Saturday": "10:00-19:00", "Sunday": "10:00-19:00"}}, "phone": "+81 783816088", "postcode": "650-0037", "ref": "9929216", "state": "28", "website": "https://www.hugoboss.com/store#lat=34.68868&lng=135.19045"},
{"addr_full": "Abenosuji, Abeno-ku, Osaka-shi 1-1-43", "brand": ["boss"], "city": "Osaka", "country": "JP", "extras": {"brand": ["boss"], "fascia": "Shop", "category": ["menswear"], "edit_date": "2025-02-26 12:22:25", "lat_lon_source": "Third Party"}, "lat": 34.64597, "lon": 135.51338, "name": "BOSS Menswear Shop", "opening_hours": {"Shop": {"Monday": "10:00-20:00", "Tuesday": "10:00-20:00", "Wednesday": "10:00-20:00", "Thursday": "10:00-20:00", "Friday": "10:00-20:00", "Saturday": "10:00-20:00", "Sunday": "10:00-20:00"}}, "phone": "+81 666266404", "postcode": "545-0052", "ref": "9923723", "state": "27", "website": "https://www.hugoboss.com/store#lat=34.64597&lng=135.51338"},
{"addr_full": "Namba, Chuo-ku, Osaka-shi 5-1-5", "brand": ["boss", "boss-green"], "city": "Osaka", "country": "JP", "extras": {"brand": ["boss", "boss-green"], "fascia": "Shop", "category": ["menswear"], "edit_date": "2025-02-26 12:22:25", "lat_lon_source": "Third Party"}, "lat": 34.6644, "lon": 135.50192, "name": "BOSS Menswear Shop", "opening_hours": {"Shop": {"Monday": "10:00-20:00", "Tuesday": "10:00-20:00", "Wednesday": "10:00-20:00", "Thursday": "10:00-20:00", "Friday": "10:00-20:00", "Saturday": "10:00-20:00", "Sunday": "10:00-20:00"}}, "phone": "+81 666443682", "postcode": "542-0076", "ref": "9923719", "state": "27", "website": "https://www.hugoboss.com/store#lat=34.6644&lng=135.50192"},
{"addr_full": "Shinsaibashisuji, Chuo-ku, Osakashi 1-5-23", "brand": ["boss", "boss-green"], "city": "Osaka", "country": "JP", "extras": {"brand": ["boss", "boss-green"], "fascia": "Store", "category": ["menswear"], "edit_date": "2025-02-26 12:22:25", "lat_lon_source": "Third Party"}, "lat": 34.67266, "lon": 135.50155, "name": "BOSS Store", "opening_hours": {"Store": {"Monday": "11:00-21:00", "Tuesday": "11:00-21:00", "Wednesday": "11:00-21:00", "Thursday": "11:00-21:00", "Friday": "11:00-21:00", "Saturday": "11:00-21:00", "Sunday": "11:00-21:00"}}, "phone": "+815035288406", "postcode": "542-0085", "ref": "9929255", "state": "27", "website": "https://www.hugoboss.com/store#lat=34.67266&lng=135.50155"},
{"addr_full": "Kakuda-cho, Kita-ku, Osaka-shi 7-10", "brand": ["boss", "boss-green"], "city": "Osaka", "country": "JP", "extras": {"brand": ["boss", "boss-green"], "fascia": "Shop", "category": ["menswear"], "edit_date": "2025-02-26 12:22:25", "lat_lon_source": "Third Party"}, "lat": 34.70305, "lon": 135.49835, "name": "BOSS Menswear Shop / Athleisure", "opening_hours": {"Shop": {"Monday": "10:00-20:00", "Tuesday": "10:00-20:00", "Wednesday": "10:00-20:00", "Thursday": "10:00-20:00", "Friday": "10:00-20:00", "Saturday": "10:00-20:00", "Sunday": "10:00-20:00"}}, "phone": "+81 669488639", "postcode": "530-0017", "ref": "9925235", "state": "27", "website": "https://www.hugoboss.com/store#lat=34.70305&lng=135.49835"},
{"addr_full": "Kakuda-cho, Kita-ku, Osaka-shi 8-7", "brand": ["boss"], "city": "Osaka", "country": "JP", "extras": {"brand": ["boss"], "fascia": "Shop", "category": ["womenswear"], "edit_date": "2025-02-26 12:22:25", "lat_lon_source": "Third Party"}, "lat": 34.70305, "lon": 135.49835, "name": "BOSS Womenswear Shop", "opening_hours": {"Shop": {"Monday": "10:00-20:00", "Tuesday": "10:00-20:00", "Wednesday": "10:00-20:00", "Thursday": "10:00-20:00", "Friday": "10:00-20:00", "Saturday": "10:00-20:00", "Sunday": "10:00-20:00"}}, "phone": "+81 5036127383", "postcode": "530-8350", "ref": "9925236", "state": "27", "website": "https://www.hugoboss.com/store#lat=34.70305&lng=135.49835"},
{"addr_full": "Kakuda-Cho, Kita-ku, Osaka-shi 7-10", "brand": ["boss", "boss-camel"], "city": "Osaka", "country": "JP", "extras": {"brand": ["boss", "boss-camel"], "fascia": "Shop", "category": ["menswear"], "edit_date": "2025-02-26 12:22:25", "lat_lon_source": "Third Party"}, "lat": 34.70346, "lon": 135.50019, "name": "BOSS Menswear Shop", "opening_hours": {"Shop": {"Monday": "10:00-20:00", "Tuesday": "10:00-20:00", "Wednesday": "10:00-20:00", "Thursday": "10:00-20:00", "Friday": "10:00-20:00", "Saturday": "10:00-20:00", "Sunday": "10:00-20:00"}}, "phone": "+81 663610597", "postcode": "530-0017", "ref": "9923722", "state": "27", "website": "https://www.hugoboss.com/store#lat=34.70346&lng=135.50019"},
{"addr_full": "Kakuda-cho, Kita-ku, Osaka-shi 7-10", "brand": ["boss"], "city": "Osaka", "country": "JP", "extras": {"brand": ["boss"], "fascia": "Shop", "category": ["menswear"], "edit_date": "2025-02-26 12:22:25", "lat_lon_source": "Third Party"}, "lat": 34.70346, "lon": 135.50019, "name": "BOSS Menswear Shop", "opening_hours": {"Shop": {"Monday": "10:00-20:00", "Tuesday": "10:00-20:00", "Wednesday": "10:00-20:00", "Thursday": "10:00-20:00", "Friday": "10:00-20:00", "Saturday": "10:00-20:00", "Sunday": "10:00-20:00"}}, "phone": "+81 669488639", "postcode": "530-0017", "ref": "9923770", "state": "27", "website": "https://www.hugoboss.com/store#lat=34.70346&lng=135.50019"},
{"addr_full": "Minamimachi, Himeji-shi 1", "brand": ["boss"], "city": "Hyogo", "country": "JP", "extras": {"brand": ["boss"], "fascia": "Shop", "category": ["menswear"], "edit_date": "2025-02-26 12:22:25", "lat_lon_source": "Third Party"}, "lat": 34.82866, "lon": 134.68975, "name": "BOSS Menswear Shop", "opening_hours": {"Shop": {"Monday": "10:00-19:30", "Tuesday": "10:00-19:30", "Wednesday": "10:00-19:30", "Thursday": "10:00-19:30", "Friday": "10:00-19:30", "Saturday": "10:00-19:30", "Sunday": "10:00-19:30"}}, "phone": "+81 5036127385", "postcode": "670-0912", "ref": "9925234", "state": "28", "website": "https://www.hugoboss.com/store#lat=34.82866&lng=134.68975"},
{"addr_full": "Matuo-cho, Kadoma 204-3", "brand": ["boss"], "city": "Osaka", "country": "JP", "extras": {"brand": ["boss"], "fascia": "Outlet", "category": ["menswear", "womenswear"], "edit_date": "2025-02-26 12:22:25", "lat_lon_source": "Third Party"}, "lat": 34.73036, "lon": 135.58359, "name": "BOSS Outlet", "opening_hours": {"Outlet": {"Monday": "10:00-21:00", "Tuesday": "10:00-21:00", "Wednesday": "10:00-21:00", "Thursday": "10:00-21:00", "Friday": "10:00-21:00", "Saturday": "10:00-21:00", "Sunday": "10:00-21:00"}}, "phone": "+81 5033549621", "postcode": "571-8620", "ref": "9926156", "state": "27", "website": "https://www.hugoboss.com/store#lat=34.73036&lng=135.58359"},
{"addr_full": "Kouzudai, Kita-ku, Kobe-shi 7-3", "brand": ["boss"], "city": "Hyogo", "country": "JP", "extras": {"brand": ["boss"], "fascia": "Outlet", "category": ["menswear", "womenswear"], "edit_date": "2025-02-26 12:22:25", "lat_lon_source": "Third Party"}, "lat": 34.86109, "lon": 135.19177, "name": "BOSS Outlet", "opening_hours": {"Outlet": {"Monday": "10:00-19:00", "Tuesday": "10:00-19:00", "Wednesday": "10:00-19:00", "Thursday": "10:00-19:00", "Friday": "10:00-19:00", "Saturday": "10:00-19:00", "Sunday": "10:00-19:00"}}, "phone": "+81 789860597", "postcode": "651-1515", "ref": "9923785", "state": "28", "website": "https://www.hugoboss.com/store#lat=34.86109&lng=135.19177"},
{"addr_full": "Karasumadori, Shimogyo-ku, Kyoto-shi", "brand": ["boss"], "city": "Kyoto", "country": "JP", "extras": {"brand": ["boss"], "fascia": "Shop", "category": ["menswear"], "edit_date": "2025-02-26 12:22:25", "lat_lon_source": "Third Party"}, "lat": 34.98588, "lon": 135.75757, "name": "BOSS Menswear Shop", "opening_hours": {"Shop": {"Monday": "10:00-19:00", "Tuesday": "10:00-19:00", "Wednesday": "10:00-19:00", "Thursday": "10:00-19:00", "Friday": "10:00-19:00", "Saturday": "10:00-19:00", "Sunday": "10:00-19:00"}}, "phone": "+81 753433343", "postcode": "600-8555", "ref": "9923796", "state": "26", "website": "https://www.hugoboss.com/store#lat=34.98588&lng=135.75757"},
{"addr_full": "Takakura Nishiiri, Shijo dori, Shimogyo-ku 79", "brand": ["boss"], "city": "Kyoto", "country": "JP", "extras": {"brand": ["boss"], "fascia": "Shop", "category": ["menswear"], "edit_date": "2025-02-26 12:22:25", "lat_lon_source": "Third Party"}, "lat": 35.00337, "lon": 135.76049, "name": "BOSS Menswear Shop", "opening_hours": {"Shop": {"Monday": "10:00-19:00", "Tuesday": "10:00-19:00", "Wednesday": "10:00-19:00", "Thursday": "10:00-19:00", "Friday": "10:00-19:00", "Saturday": "10:00-19:00", "Sunday": "10:00-19:00"}}, "phone": "+81 752236607", "postcode": "600-8511", "ref": "9923448", "state": "26", "website": "https://www.hugoboss.com/store#lat=35.00337&lng=135.76049"},
{"addr_full": "Nishiirumacho, Shijodori Kawaramachi, Shimogyu-ku, Kyoto-shi 52", "brand": ["boss", "boss-camel"], "city": "Kyoto", "country": "JP", "extras": {"brand": ["boss", "boss-camel"], "fascia": "Shop", "category": ["menswear"], "edit_date": "2025-02-26 12:22:25", "lat_lon_source": "Third Party"}, "lat": 35.00316, "lon": 135.7683, "name": "BOSS Menswear Shop", "opening_hours": {"Shop": {"Monday": "10:00-20:00", "Tuesday": "10:00-20:00", "Wednesday": "10:00-20:00", "Thursday": "10:00-20:00", "Friday": "10:00-20:00", "Saturday": "10:00-20:00", "Sunday": "10:00-20:00"}}, "phone": "+81 752527824", "postcode": "600-8520", "ref": "9923782", "state": "26", "website": "https://www.hugoboss.com/store#lat=35.00316&lng=135.7683"},
{"addr_full": "Nishiirumacho, Shijodori Kawaramach", "brand": ["boss"], "city": "Kyoto", "country": "JP", "extras": {"brand": ["boss"], "fascia": "Shop", "category": ["menswear"], "edit_date": "2025-02-26 12:22:25", "lat_lon_source": "Third Party"}, "lat": 35.00348, "lon": 135.76888, "name": "BOSS Kids Shop", "opening_hours": {"Shop": {"Monday": "10:00-20:00", "Tuesday": "10:00-20:00", "Wednesday": "10:00-20:00", "Thursday": "10:00-20:00", "Friday": "10:00-20:00", "Saturday": "10:00-20:00", "Sunday": "10:00-20:00"}}, "phone": null, "postcode": "600-8520", "ref": "9926340", "state": "26", "website": "https://www.hugoboss.com/store#lat=35.00348&lng=135.76888"},
{"addr_full": "Kuzushi Sunayama, Ryuo-cho, Gamou-gun 1178-694", "brand": ["boss"], "city": "Shiga", "country": "JP", "extras": {"brand": ["boss"], "fascia": "Outlet", "category": ["menswear", "womenswear"], "edit_date": "2025-02-26 12:22:25", "lat_lon_source": "Third Party"}, "lat": 35.05869, "lon": 136.09956, "name": "BOSS Outlet", "opening_hours": {"Outlet": {"Monday": "10:00-19:00", "Tuesday": "10:00-19:00", "Wednesday": "10:00-19:00", "Thursday": "10:00-19:00", "Friday": "10:00-19:00", "Saturday": "10:00-20:00", "Sunday": "10:00-20:00"}}, "phone": "+81 748362442", "postcode": "520-2551", "ref": "9923441", "state": "25", "website": "https://www.hugoboss.com/store#lat=35.05869&lng=136.09956"},
{"addr_full": "Urayasu, Nagashimacho, Kuwana-shi 368", "brand": ["boss"], "city": "Mie", "country": "JP", "extras": {"brand": ["boss"], "fascia": "Outlet", "category": ["menswear"], "edit_date": "2025-02-26 12:22:25", "lat_lon_source": "Third Party"}, "lat": 35.03323, "lon": 136.72588, "name": "BOSS Outlet", "opening_hours": {"Outlet": {"Monday": "10:00-20:00", "Tuesday": "10:00-20:00", "Wednesday": "10:00-20:00", "Thursday": "10:00-20:00", "Friday": "10:00-20:00", "Saturday": "10:00-20:00", "Sunday": "10:00-20:00"}}, "phone": "+81 594452755", "postcode": "511-1135", "ref": "9923787", "state": "24", "website": "https://www.hugoboss.com/store#lat=35.03323&lng=136.72588"},
{"addr_full": "Sunayama-cho, Naka-ku, Hamamatsu-shi 320-2", "brand": ["boss"], "city": "Shizuoka", "country": "JP", "extras": {"brand": ["boss"], "fascia": "Shop", "category": ["menswear"], "edit_date": "2025-02-26 12:22:25", "lat_lon_source": "Third Party"}, "lat": 34.70416, "lon": 137.73318, "name": "BOSS Menswear Shop", "opening_hours": {"Shop": {"Monday": "10:00-19:00", "Tuesday": "10:00-19:00", "Wednesday": "10:00-19:00", "Thursday": "10:00-19:00", "Friday": "10:00-19:00", "Saturday": "10:00-19:00", "Sunday": "10:00-19:00"}}, "phone": "+81534575301", "postcode": "430-8588", "ref": "9923777", "state": "22", "website": "https://www.hugoboss.com/store#lat=34.70416&lng=137.73318"},
{"addr_full": "Meieki, Nakamura-ku, Nagoya-shi 1-1-4", "brand": ["boss-green"], "city": "Nagoya", "country": "JP", "extras": {"brand": ["boss-green"], "fascia": "Shop", "category": ["menswear"], "edit_date": "2025-02-26 12:22:25", "lat_lon_source": "Third Party"}, "lat": 35.1705, "lon": 136.88192, "name": "BOSS Menswear Shop / Athleisure", "opening_hours": {"Shop": {"Monday": "10:00-20:00", "Tuesday": "10:00-20:00", "Wednesday": "10:00-20:00", "Thursday": "10:00-20:00", "Friday": "10:00-20:00", "Saturday": "10:00-20:00", "Sunday": "10:00-20:00"}}, "phone": "+81 525668636", "postcode": "450-6001", "ref": "9925212", "state": "23", "website": "https://www.hugoboss.com/store#lat=35.1705&lng=136.88192"},
{"addr_full": "Meieki, Nakamura-ku, Nagoya 1-1-4", "brand": ["boss"], "city": "Aichi", "country": "JP", "extras": {"brand": ["boss"], "fascia": "Shop", "category": ["womenswear"], "edit_date": "2025-02-26 12:22:25", "lat_lon_source": "Third Party"}, "lat": 35.17136, "lon": 136.88267, "name": "BOSS Womenswear Shop", "opening_hours": {"Shop": {"Monday": "10:00-20:00", "Tuesday": "10:00-20:00", "Wednesday": "10:00-20:00", "Thursday": "10:00-20:00", "Friday": "10:00-20:00", "Saturday": "10:00-20:00", "Sunday": "10:00-20:00"}}, "phone": "+81 52-566-3864", "postcode": "450-6001", "ref": "9927062", "state": "23", "website": "https://www.hugoboss.com/store#lat=35.17136&lng=136.88267"},
{"addr_full": "Meieki, Nakamura-ku, Nagoya-shi 1-1-4", "brand": ["boss", "boss-green", "boss-camel"], "city": "Aichi", "country": "JP", "extras": {"brand": ["boss", "boss-green", "boss-camel"], "fascia": "Shop", "category": ["menswear"], "edit_date": "2025-02-26 12:22:25", "lat_lon_source": "Third Party"}, "lat": 35.17136, "lon": 136.88267, "name": "BOSS Menswear Shop", "opening_hours": {"Shop": {"Monday": "10:00-20:00", "Tuesday": "10:00-20:00", "Wednesday": "10:00-20:00", "Thursday": "10:00-20:00", "Friday": "10:00-20:00", "Saturday": "10:00-20:00", "Sunday": "10:00-20:00"}}, "phone": "+81 525668109", "postcode": "450-6001", "ref": "9923718", "state": "23", "website": "https://www.hugoboss.com/store#lat=35.17136&lng=136.88267"},
{"addr_full": "Sakae Naka-ku, Nagoya-shi 3-16-1", "brand": ["boss", "boss-camel"], "city": "Aichi", "country": "JP", "extras": {"brand": ["boss", "boss-camel"], "fascia": "Shop", "category": ["menswear"], "edit_date": "2025-02-26 12:22:25", "lat_lon_source": "Third Party"}, "lat": 35.16515, "lon": 136.90828, "name": "BOSS Menswear Shop", "opening_hours": {"Shop": {"Monday": "10:00-20:00", "Tuesday": "10:00-20:00", "Wednesday": "10:00-20:00", "Thursday": "10:00-20:00", "Friday": "10:00-20:00", "Saturday": "10:00-20:00", "Sunday": "10:00-20:00"}}, "phone": "+81 526845336", "postcode": "460-8430", "ref": "9923725", "state": "23", "website": "https://www.hugoboss.com/store#lat=35.16515&lng=136.90828"},
{"addr_full": "Sakae, Naka-ku, Nagoya-shi 3-5-1", "brand": ["boss"], "city": "Aichi", "country": "JP", "extras": {"brand": ["boss"], "fascia": "Shop", "category": ["menswear"], "edit_date": "2025-02-26 12:22:25", "lat_lon_source": "Third Party"}, "lat": 35.16833, "lon": 136.9077, "name": "BOSS Menswear Shop", "opening_hours": {"Shop": {"Monday": "10:00-19:00", "Tuesday": "10:00-19:00", "Wednesday": "10:00-19:00", "Thursday": "10:00-19:00", "Friday": "10:00-19:00", "Saturday": "10:00-19:00", "Sunday": "10:00-19:00"}}, "phone": "+81 522523169", "postcode": "460-0008", "ref": "9923765", "state": "23", "website": "https://www.hugoboss.com/store#lat=35.16833&lng=136.9077"},
{"addr_full": "Sakae, Naka-ku, Nagoya-shi 3-5-1", "brand": ["boss"], "city": "Nagoya", "country": "JP", "extras": {"brand": ["boss"], "fascia": "Shop", "category": ["womenswear"], "edit_date": "2025-02-26 12:22:25", "lat_lon_source": "Third Party"}, "lat": 35.16833, "lon": 136.9077, "name": "BOSS Womenswear Shop", "opening_hours": {"Shop": {"Monday": "10:00-20:00", "Tuesday": "10:00-20:00", "Wednesday": "10:00-20:00", "Thursday": "10:00-20:00", "Friday": "10:00-20:00", "Saturday": "10:00-20:00", "Sunday": "10:00-20:00"}}, "phone": "+81 522635668", "postcode": "460-0008", "ref": "9924721", "state": "23", "website": "https://www.hugoboss.com/store#lat=35.16833&lng=136.9077"},
{"addr_full": "Tokigaoka, Toki-shi 1-2", "brand": ["boss"], "city": "Gifu", "country": "JP", "extras": {"brand": ["boss"], "fascia": "Outlet", "category": ["menswear"], "edit_date": "2025-02-26 12:22:25", "lat_lon_source": "Third Party"}, "lat": 35.34656, "lon": 137.18253, "name": "BOSS Outlet", "opening_hours": {"Outlet": {"Monday": "10:00-19:00", "Tuesday": "10:00-19:00", "Wednesday": "10:00-19:00", "Thursday": "10:00-19:00", "Friday": "10:00-19:00", "Saturday": "10:00-19:00", "Sunday": "10:00-19:00"}}, "phone": "+81 5036469127", "postcode": "509-5127", "ref": "9926197", "state": "21", "website": "https://www.hugoboss.com/store#lat=35.34656&lng=137.18253"},
{"addr_full": "35 Centum4-ro, Haeundae-gu", "brand": ["boss"], "city": "Busan", "country": "KR", "extras": {"brand": ["boss"], "fascia": "Travel Store", "category": ["menswear"], "edit_date": "2025-02-26 12:22:25", "lat_lon_source": "Third Party"}, "lat": 35.16134, "lon": 129.18211, "name": "BOSS Store", "opening_hours": {"Travel Store": {"Monday": "09:30-20:00", "Tuesday": "09:30-20:00", "Wednesday": "09:30-20:00", "Thursday": "09:30-20:00", "Friday": "09:30-20:00", "Saturday": "09:30-20:00", "Sunday": "09:30-20:00"}}, "phone": "+82 517491462", "postcode": "48058", "ref": "1026680", "state": "12", "website": "https://www.hugoboss.com/store#lat=35.16134&lng=129.18211"},
{"addr_full": "147 Gijanghaean-ro Gijang-eup, Gijang-gun", "brand": ["boss", "boss-green"], "city": "Busan", "country": "KR", "extras": {"brand": ["boss", "boss-green"], "fascia": "Outlet", "category": ["menswear"], "edit_date": "2025-02-26 12:22:25", "lat_lon_source": "Third Party"}, "lat": 35.19245, "lon": 129.21235, "name": "BOSS Outlet", "opening_hours": {"Outlet": {"Monday": "10:30-20:30", "Tuesday": "10:30-20:30", "Wednesday": "10:30-20:30", "Thursday": "10:30-20:30", "Friday": "10:30-21:00", "Saturday": "10:30-21:00", "Sunday": "10:30-20:30"}}, "phone": "+82 519012535", "postcode": "46083", "ref": "9928644", "state": "13", "website": "https://www.hugoboss.com/store#lat=35.19245&lng=129.21235"},
{"addr_full": "1495 Woo-Dong, Haeundae-Gu", "brand": ["boss", "boss-camel"], "city": "Busan", "country": "KR", "extras": {"brand": ["boss", "boss-camel"], "fascia": "Shop", "category": ["menswear"], "edit_date": "2025-02-26 12:22:25", "lat_lon_source": "Third Party"}, "lat": 35.16907, "lon": 129.12974, "name": "BOSS Menswear Shop", "opening_hours": {"Shop": {"Monday": "11:00-20:00", "Tuesday": "11:00-20:00", "Wednesday": "11:00-20:00", "Thursday": "11:00-20:00", "Friday": "11:00-20:30", "Saturday": "11:00-20:30", "Sunday": "11:00-20:00"}}, "phone": "+82 517452480", "postcode": "48058", "ref": "9928611", "state": "12", "website": "https://www.hugoboss.com/store#lat=35.16907&lng=129.12974"},
{"addr_full": "1493 Shinsegae Centum DFS", "brand": ["boss", "boss-green"], "city": "Busan", "country": "KR", "extras": {"brand": ["boss", "boss-green"], "fascia": "Shop", "category": ["menswear"], "edit_date": "2025-02-26 12:22:25", "lat_lon_source": "Third Party"}, "lat": 35.16986, "lon": 129.12827, "name": "BOSS Menswear Shop", "opening_hours": {"Shop": {"Monday": "09:30-20:00", "Tuesday": "09:30-20:00", "Wednesday": "09:30-20:00", "Thursday": "09:30-20:00", "Friday": "09:30-20:00", "Saturday": "09:30-20:00", "Sunday": "09:30-20:00"}}, "phone": "+82 517753259", "postcode": "48058", "ref": "9928651", "state": "13", "website": "https://www.hugoboss.com/store#lat=35.16986&lng=129.12827"},
{"addr_full": "772 Bujeon-Dong, Gaya-Daero, Busanji-Gu", "brand": ["boss", "boss-green"], "city": "Busan", "country": "KR", "extras": {"brand": ["boss", "boss-green"], "fascia": "Shop", "category": ["menswear"], "edit_date": "2025-02-26 12:22:25", "lat_lon_source": "Third Party"}, "lat": 35.15685, "lon": 129.05665, "name": "BOSS Shop", "opening_hours": {"Shop": {"Monday": "09:30-20:00", "Tuesday": "09:30-20:00", "Wednesday": "09:30-20:00", "Thursday": "09:30-20:00", "Friday": "09:30-20:00", "Saturday": "09:30-20:00", "Sunday": "09:30-20:00"}}, "phone": "+82 518102871", "postcode": "47285", "ref": "9928628", "state": "12", "website": "https://www.hugoboss.com/store#lat=35.15685&lng=129.05665"},
{"addr_full": "772 Gayadae-ro, Busanjin-Gu", "brand": ["boss", "boss-camel"], "city": "Busan", "country": "KR", "extras": {"brand": ["boss", "boss-camel"], "fascia": "Shop", "category": ["menswear"], "edit_date": "2025-02-26 12:22:25", "lat_lon_source": "Third Party"}, "lat": 35.15994, "lon": 129.05475, "name": "BOSS Menswear Shop", "opening_hours": {"Shop": {"Monday": "10:30-20:00", "Tuesday": "10:30-20:00", "Wednesday": "10:30-20:00", "Thursday": "10:30-20:00", "Friday": "10:30-20:30", "Saturday": "10:30-20:30", "Sunday": "10:30-20:00"}}, "phone": "+82 518104255", "postcode": "47285", "ref": "9928615", "state": "12", "website": "https://www.hugoboss.com/store#lat=35.15994&lng=129.05475"},
{"addr_full": "1133 Jeonggwan-ro", "brand": ["boss", "boss-green", "boss-camel"], "city": "Gijang-gun, Busan", "country": "KR", "extras": {"brand": ["boss", "boss-green", "boss-camel"], "fascia": "Outlet", "category": ["menswear"], "edit_date": "2025-02-26 12:22:25", "lat_lon_source": "Third Party"}, "lat": 35.32408, "lon": 129.23589, "name": "BOSS Outlet", "opening_hours": {"Outlet": {"Monday": "10:30-21:00", "Tuesday": "10:30-21:00", "Wednesday": "10:30-21:00", "Thursday": "10:30-21:00", "Friday": "10:30-21:00", "Saturday": "10:30-21:00", "Sunday": "10:30-21:00"}}, "phone": "+82 51 940 1150", "postcode": "10000", "ref": "9928695", "state": "01", "website": "https://www.hugoboss.com/store#lat=35.32408&lng=129.23589"},
{"addr_full": "38 Sinhwayeoksa-ro 304beongil, Andeok-myeon,", "brand": ["boss", "boss-green"], "city": "Jeju", "country": "KR", "extras": {"brand": ["boss", "boss-green"], "fascia": "Shop", "category": ["menswear"], "edit_date": "2025-02-26 12:22:25", "lat_lon_source": "Third Party"}, "lat": 33.30761, "lon": 126.31627, "name": "BOSS Menswear Shop", "opening_hours": "Not Available", "phone": null, "postcode": "63522", "ref": "9928683", "state": "01", "website": "https://www.hugoboss.com/store#lat=33.30761&lng=126.31627"},
{"addr_full": "124 Jungang-daero, Seongsan-gu", "brand": ["boss", "boss-camel"], "city": "Changwon-si", "country": "KR", "extras": {"brand": ["boss", "boss-camel"], "fascia": "Shop", "category": ["menswear", "womenswear"], "edit_date": "2025-02-26 12:22:25", "lat_lon_source": "Third Party"}, "lat": 35.22452, "lon": 128.68191, "name": "BOSS Menswear Shop", "opening_hours": {"Shop": {"Monday": "10:30-20:00", "Tuesday": "10:30-20:00", "Wednesday": "10:30-20:00", "Thursday": "10:30-20:00", "Friday": "10:30-20:30", "Saturday": "10:30-20:30", "Sunday": "10:30-20:30"}}, "phone": null, "postcode": "51494", "ref": "9926548", "state": "11", "website": "https://www.hugoboss.com/store#lat=35.22452&lng=128.68191"},
{"addr_full": "Fukasawa, Gotemba-shi 1312", "brand": ["boss"], "city": "Shizuoka", "country": "JP", "extras": {"brand": ["boss"], "fascia": "Outlet", "category": ["menswear"], "edit_date": "2025-02-26 12:22:25", "lat_lon_source": "Third Party"}, "lat": 35.30754, "lon": 138.96462, "name": "BOSS Outlet, Shizuoka, Gotemba", "opening_hours": {"Outlet": {"Monday": "10:00-19:00", "Tuesday": "10:00-19:00", "Wednesday": "10:00-19:00", "Thursday": "10:00-19:00", "Friday": "10:00-19:00", "Saturday": "10:00-19:00", "Sunday": "10:00-19:00"}}, "phone": "+81 550701508", "postcode": "412-0023", "ref": "9923704", "state": "22", "website": "https://www.hugoboss.com/store#lat=35.30754&lng=138.96462"},
{"addr_full": "Tsujido Shindai, Fujisawa-shi 1-3-1", "brand": ["boss-orange"], "city": "Kanagawa", "country": "JP", "extras": {"brand": ["boss-orange"], "fascia": "Store", "category": ["menswear"], "edit_date": "2025-02-26 12:22:25", "lat_lon_source": "Third Party"}, "lat": 35.34082, "lon": 139.44603, "name": "BOSS Store / Casual", "opening_hours": "Not Available", "phone": "+81 466867216", "postcode": "251-0041", "ref": "9929104", "state": "14", "website": "https://www.hugoboss.com/store#lat=35.34082&lng=139.44603"},
{"addr_full": "Korinbo, Kanazawa-shi 1-1-1", "brand": ["boss"], "city": "Ishikawa", "country": "JP", "extras": {"brand": ["boss"], "fascia": "Shop", "category": ["menswear"], "edit_date": "2025-02-26 12:22:25", "lat_lon_source": "Third Party"}, "lat": 36.56317, "lon": 136.65413, "name": "BOSS Menswear Shop", "opening_hours": {"Shop": {"Monday": "10:00-19:00", "Tuesday": "10:00-19:00", "Wednesday": "10:00-19:00", "Thursday": "10:00-19:00", "Friday": "10:00-19:00", "Saturday": "10:00-19:00", "Sunday": "10:00-19:00"}}, "phone": "+81762201524", "postcode": "920-8550", "ref": "9923729", "state": "17", "website": "https://www.hugoboss.com/store#lat=36.56317&lng=136.65413"},
{"addr_full": "Shiraho, Kanazawa-ku, Yokohama-shi 5-2", "brand": ["boss"], "city": "Kanagawa", "country": "JP", "extras": {"brand": ["boss"], "fascia": "Outlet", "category": ["menswear"], "edit_date": "2025-02-26 12:22:25", "lat_lon_source": "Third Party"}, "lat": 35.37977, "lon": 139.64622, "name": "BOSS Outlet", "opening_hours": {"Outlet": {"Monday": "10:00-20:00", "Tuesday": "10:00-20:00", "Wednesday": "10:00-20:00", "Thursday": "10:00-20:00", "Friday": "10:00-20:00", "Saturday": "10:00-20:00", "Sunday": "10:00-20:00"}}, "phone": "+81 5038510302", "postcode": "236-0007", "ref": "9925348", "state": "14", "website": "https://www.hugoboss.com/store#lat=35.37977&lng=139.64622"},
{"addr_full": "149 Dongbu-ro, Dong-gu", "brand": "HugoBoss", "city": "Daegu", "country": "KR", "extras": {"brand": null, "fascia": "Shop", "category": null, "edit_date": "2025-02-26 12:22:25", "lat_lon_source": "Third Party"}, "lat": 35.8778, "lon": 128.62844, "name": "BOSS Menswear Shop", "opening_hours": "Not Available", "phone": null, "postcode": "41229", "ref": "9928690", "state": "10", "website": "https://www.hugoboss.com/store#lat=35.8778&lng=128.62844"},
{"addr_full": "Minamisaiwai, Nishi-ku, Yokohama-shi 1-6-31", "brand": ["boss", "boss-camel"], "city": "Kanagawa", "country": "JP", "extras": {"brand": ["boss", "boss-camel"], "fascia": "Shop", "category": ["menswear"], "edit_date": "2025-02-26 12:22:25", "lat_lon_source": "Third Party"}, "lat": 35.46578, "lon": 139.6206, "name": "BOSS Menswear Shop", "opening_hours": {"Shop": {"Monday": "10:00-20:00", "Tuesday": "10:00-20:00", "Wednesday": "10:00-20:00", "Thursday": "10:00-20:00", "Friday": "10:00-20:00", "Saturday": "10:00-20:00", "Sunday": "10:00-20:00"}}, "phone": "+81 455348230", "postcode": "220-8601", "ref": "9923447", "state": "14", "website": "https://www.hugoboss.com/store#lat=35.46578&lng=139.6206"},
{"addr_full": "Takashima, Nishi-ku, Yokohama-shi 2-18-1", "brand": ["boss", "boss-green"], "city": "Kanagawa", "country": "JP", "extras": {"brand": ["boss", "boss-green"], "fascia": "Shop", "category": ["menswear"], "edit_date": "2025-02-26 12:22:25", "lat_lon_source": "Third Party"}, "lat": 35.46454, "lon": 139.62353, "name": "BOSS Menswear Shop / Athleisure", "opening_hours": {"Shop": {"Monday": "10:00-20:00", "Tuesday": "10:00-20:00", "Wednesday": "10:00-20:00", "Thursday": "10:00-20:00", "Friday": "10:00-20:00", "Saturday": "10:00-20:00", "Sunday": "10:00-20:00"}}, "phone": "+81 454655390", "postcode": "220-8510", "ref": "9925315", "state": "14", "website": "https://www.hugoboss.com/store#lat=35.46454&lng=139.62353"},
{"addr_full": "Takashima, Nishi-ku, Yokohama-shi 2-18-1", "brand": ["boss", "boss-camel"], "city": "Kanagawa", "country": "JP", "extras": {"brand": ["boss", "boss-camel"], "fascia": "Shop", "category": ["menswear"], "edit_date": "2025-02-26 12:22:25", "lat_lon_source": "Third Party"}, "lat": 35.46571, "lon": 139.6251, "name": "BOSS Menswear Shop", "opening_hours": {"Shop": {"Monday": "10:00-20:00", "Tuesday": "10:00-20:00", "Wednesday": "10:00-20:00", "Thursday": "10:00-20:00", "Friday": "10:00-20:00", "Saturday": "10:00-20:00", "Sunday": "10:00-20:00"}}, "phone": "+81 454401128", "postcode": "220-8510", "ref": "9923768", "state": "14", "website": "https://www.hugoboss.com/store#lat=35.46571&lng=139.6251"},
{"addr_full": "200 2Ga Gyesan-Dong, Jung-Gu", "brand": ["boss", "boss-green", "boss-camel"], "city": "Daegu", "country": "KR", "extras": {"brand": ["boss", "boss-green", "boss-camel"], "fascia": "Shop", "category": ["menswear"], "edit_date": "2025-02-26 12:22:25", "lat_lon_source": "Third Party"}, "lat": 35.86632, "lon": 128.59075, "name": "BOSS Menswear Shop", "opening_hours": {"Shop": {"Monday": "10:30-20:00", "Tuesday": "10:30-20:00", "Wednesday": "10:30-20:00", "Thursday": "10:30-20:00", "Friday": "10:30-20:30", "Saturday": "10:30-20:30", "Sunday": "10:30-20:00"}}, "phone": "+82 532452213", "postcode": "41936", "ref": "9928614", "state": "14", "website": "https://www.hugoboss.com/store#lat=35.86632&lng=128.59075"},
{"addr_full": "2F, Izumi-cho, Tachikawa-shi 935-1", "brand": "HugoBoss", "city": "Tokyo", "country": "JP", "extras": {"brand": null, "fascia": "Shop", "category": null, "edit_date": "2025-02-26 12:22:25", "lat_lon_source": "Third Party"}, "lat": 35.71135, "lon": 139.42081, "name": "BOSS Shop", "opening_hours": {"Shop": {"Monday": "10:00-20:00", "Tuesday": "10:00-20:00", "Wednesday": "10:00-20:00", "Thursday": "10:00-20:00", "Friday": "10:00-20:00", "Saturday": "10:00-21:00", "Sunday": "10:00-21:00"}}, "phone": "+81 5037734983", "postcode": "190-0015", "ref": "9925631", "state": "13", "website": "https://www.hugoboss.com/store#lat=35.71135&lng=139.42081"},
{"addr_full": "Tamagawa, Setagaya-ku 3-17-1", "brand": ["boss"], "city": "Tokyo", "country": "JP", "extras": {"brand": ["boss"], "fascia": "Shop", "category": ["menswear"], "edit_date": "2025-02-26 12:22:25", "lat_lon_source": "Third Party"}, "lat": 35.61396, "lon": 139.62687, "name": "BOSS Menswear Shop", "opening_hours": {"Shop": {"Monday": "10:00-20:00", "Tuesday": "10:00-20:00", "Wednesday": "10:00-20:00", "Thursday": "10:00-20:00", "Friday": "10:00-20:00", "Saturday": "10:00-20:00", "Sunday": "10:00-20:00"}}, "phone": "+81 337073329", "postcode": "158-0094", "ref": "9923757", "state": "13", "website": "https://www.hugoboss.com/store#lat=35.61396&lng=139.62687"},
{"addr_full": "Kaneda-higashi, Kisarazu-shi 3-1-1", "brand": ["boss"], "city": "Chiba", "country": "JP", "extras": {"brand": ["boss"], "fascia": "Outlet", "category": ["menswear", "womenswear"], "edit_date": "2025-02-26 12:22:25", "lat_lon_source": "Third Party"}, "lat": 35.43404, "lon": 139.92394, "name": "BOSS Outlet", "opening_hours": {"Outlet": {"Monday": "10:00-20:00", "Tuesday": "10:00-20:00", "Wednesday": "10:00-20:00", "Thursday": "10:00-20:00", "Friday": "10:00-20:00", "Saturday": "10:00-20:00", "Sunday": "10:00-20:00"}}, "phone": "+81 438538232", "postcode": "292-0009", "ref": "9929696", "state": "12", "website": "https://www.hugoboss.com/store#lat=35.43404&lng=139.92394"},
{"addr_full": "Miyadera Iruma City 3169-1", "brand": ["boss"], "city": "Saitama", "country": "JP", "extras": {"brand": ["boss"], "fascia": "Outlet", "category": ["menswear", "womenswear"], "edit_date": "2025-02-26 12:22:25", "lat_lon_source": "Third Party"}, "lat": 35.81033, "lon": 139.37942, "name": "BOSS Outlet", "opening_hours": {"Outlet": {"Monday": "10:00-20:00", "Tuesday": "10:00-20:00", "Wednesday": "10:00-20:00", "Thursday": "10:00-20:00", "Friday": "10:00-20:00", "Saturday": "10:00-20:00", "Sunday": "10:00-20:00"}}, "phone": "+81429026301", "postcode": "358-8515", "ref": "9923440", "state": "11", "website": "https://www.hugoboss.com/store#lat=35.81033&lng=139.37942"},
{"addr_full": "Jingumae, Shibuya-ku 5-1-3", "brand": ["boss"], "city": "Tokyo", "country": "JP", "extras": {"brand": ["boss"], "fascia": "Store", "category": ["menswear"], "edit_date": "2025-02-26 12:22:25", "lat_lon_source": "Third Party"}, "lat": 35.66598, "lon": 139.71034, "name": "BOSS Store", "opening_hours": {"Store": {"Monday": "11:00-20:00", "Tuesday": "11:00-20:00", "Wednesday": "11:00-20:00", "Thursday": "11:00-20:00", "Friday": "11:00-20:00", "Saturday": "11:00-20:00", "Sunday": "11:00-20:00"}}, "phone": "+81 364189365", "postcode": "150-0001", "ref": "9929493", "state": "13", "website": "https://www.hugoboss.com/store#lat=35.66598&lng=139.71034"},
{"addr_full": "Minami-Aoyama, Minato-ku 5-2-1", "brand": "HugoBoss", "city": "Tokyo", "country": "JP", "extras": {"brand": null, "fascia": "Shop", "category": null, "edit_date": "2025-02-26 12:22:25", "lat_lon_source": "Third Party"}, "lat": 35.66437, "lon": 139.71379, "name": "LINE BOSS Official Account - Marketing", "opening_hours": "Not Available", "phone": null, "postcode": "107-0062", "ref": "9921362", "state": "01", "website": "https://www.hugoboss.com/store#lat=35.66437&lng=139.71379"},
{"addr_full": "Roppongi, Minato-ku 6-15-1", "brand": ["boss", "boss-green", "boss-camel"], "city": "Tokyo", "country": "JP", "extras": {"brand": ["boss", "boss-green", "boss-camel"], "fascia": "Store", "category": ["menswear", "womenswear"], "edit_date": "2025-02-26 12:22:25", "lat_lon_source": "Third Party"}, "lat": 35.65928, "lon": 139.72803, "name": "BOSS Store", "opening_hours": {"Store": {"Monday": "11:00-20:00", "Tuesday": "11:00-20:00", "Wednesday": "11:00-20:00", "Thursday": "11:00-20:00", "Friday": "11:00-20:00", "Saturday": "11:00-21:00", "Sunday": "11:00-20:00"}}, "phone": "+81 357869806", "postcode": "106-0032", "ref": "9923703", "state": "13", "website": "https://www.hugoboss.com/store#lat=35.65928&lng=139.72803"},
{"addr_full": "Sendagaya Shibuya-ku 5-24-2", "brand": ["boss"], "city": "Tokyo", "country": "JP", "extras": {"brand": ["boss"], "fascia": "Shop", "category": ["menswear", "womenswear"], "edit_date": "2025-02-26 12:22:25", "lat_lon_source": "Third Party"}, "lat": 35.68772, "lon": 139.70215, "name": "BOSS Kids Shop", "opening_hours": {"Shop": {"Monday": "10:30-19:30", "Tuesday": "10:30-19:30", "Wednesday": "10:30-19:30", "Thursday": "10:30-19:30", "Friday": "10:30-19:30", "Saturday": "10:30-19:30", "Sunday": "10:30-19:30"}}, "phone": "+81 353611981", "postcode": "151-8580", "ref": "9925636", "state": "13", "website": "https://www.hugoboss.com/store#lat=35.68772&lng=139.70215"},
{"addr_full": "Nishi-Shinjuku, Shinjuku-ku 1-1-3", "brand": ["boss"], "city": "Tokyo", "country": "JP", "extras": {"brand": ["boss"], "fascia": "Shop", "category": ["womenswear"], "edit_date": "2025-02-26 12:22:25", "lat_lon_source": "Third Party"}, "lat": 35.69133, "lon": 139.6996, "name": "BOSS Womenswear Shop", "opening_hours": "Not Available", "phone": "+81 359905415", "postcode": "160-0023", "ref": "9923468", "state": "13", "website": "https://www.hugoboss.com/store#lat=35.69133&lng=139.6996"},
{"addr_full": "Shinjuku, Shinjuku-ku 3-14-1", "brand": ["boss", "boss-camel"], "city": "Tokyo", "country": "JP", "extras": {"brand": ["boss", "boss-camel"], "fascia": "Shop", "category": ["menswear"], "edit_date": "2025-02-26 12:22:25", "lat_lon_source": "Third Party"}, "lat": 35.69164, "lon": 139.70462, "name": "BOSS Menswear Shop", "opening_hours": {"Shop": {"Monday": "10:00-20:00", "Tuesday": "10:00-20:00", "Wednesday": "10:00-20:00", "Thursday": "10:00-20:00", "Friday": "10:00-20:00", "Saturday": "10:00-20:00", "Sunday": "10:00-20:00"}}, "phone": "+81363806581", "postcode": "160-0022", "ref": "9923755", "state": "13", "website": "https://www.hugoboss.com/store#lat=35.69164&lng=139.70462"},
{"addr_full": "Sendagaya, Shibuya-ku 5-24-2", "brand": ["boss", "boss-green", "boss-camel"], "city": "Tokyo", "country": "JP", "extras": {"brand": ["boss", "boss-green", "boss-camel"], "fascia": "Shop", "category": ["menswear", "womenswear"], "edit_date": "2025-02-26 12:22:25", "lat_lon_source": "Third Party"}, "lat": 35.69788, "lon": 139.70226, "name": "BOSS Menswear Shop", "opening_hours": {"Shop": {"Monday": "10:30-19:30", "Tuesday": "10:30-19:30", "Wednesday": "10:30-19:30", "Thursday": "10:30-19:30", "Friday": "10:30-19:30", "Saturday": "10:30-19:30", "Sunday": "10:30-19:30"}}, "phone": "+81 333534773", "postcode": "151-8580", "ref": "9923702", "state": "13", "website": "https://www.hugoboss.com/store#lat=35.69788&lng=139.70226"},
{"addr_full": "Ginza, Chuo-ku 5-2-1", "brand": ["boss", "boss-green", "boss-camel"], "city": "Tokyo", "country": "JP", "extras": {"brand": ["boss", "boss-green", "boss-camel"], "fascia": "Store", "category": ["menswear", "womenswear", "kidswear"], "edit_date": "2025-02-26 12:22:25", "lat_lon_source": "Third Party"}, "lat": 35.67224, "lon": 139.76241, "name": "BOSS Store", "opening_hours": {"Store": {"Monday": "11:00-21:00", "Tuesday": "11:00-21:00", "Wednesday": "11:00-21:00", "Thursday": "11:00-21:00", "Friday": "11:00-21:00", "Saturday": "11:00-21:00", "Sunday": "11:00-21:00"}}, "phone": null, "postcode": "104-0061", "ref": "9924735", "state": "13", "website": "https://www.hugoboss.com/store#lat=35.67224&lng=139.76241"},
{"addr_full": "Ginza, Chuo-ku 4-6-16", "brand": ["boss"], "city": "Tokyo", "country": "JP", "extras": {"brand": ["boss"], "fascia": "Shop", "category": ["menswear"], "edit_date": "2025-02-26 12:22:25", "lat_lon_source": "Third Party"}, "lat": 35.67132, "lon": 139.76584, "name": "BOSS Menswear Shop", "opening_hours": {"Shop": {"Monday": "10:00-20:00", "Tuesday": "10:00-20:00", "Wednesday": "10:00-20:00", "Thursday": "10:00-20:00", "Friday": "10:00-20:00", "Saturday": "10:00-20:00", "Sunday": "10:00-20:00"}}, "phone": "+81 362630781", "postcode": "104-8212", "ref": "9924739", "state": "13", "website": "https://www.hugoboss.com/store#lat=35.67132&lng=139.76584"},
{"addr_full": "Yurakucho, Chiyoda-ku 2-5-1", "brand": ["boss"], "city": "Tokyo", "country": "JP", "extras": {"brand": ["boss"], "fascia": "Shop", "category": ["menswear"], "edit_date": "2025-02-26 12:22:25", "lat_lon_source": "Third Party"}, "lat": 35.67382, "lon": 139.76242, "name": "BOSS Menswear Shop", "opening_hours": {"Shop": {"Monday": "12:00-20:00", "Tuesday": "12:00-20:00", "Wednesday": "12:00-20:00", "Thursday": "12:00-20:00", "Friday": "12:00-20:00", "Saturday": "11:00-20:00", "Sunday": "11:00-20:00"}}, "phone": "+81 362525357", "postcode": "100-8488", "ref": "9923730", "state": "13", "website": "https://www.hugoboss.com/store#lat=35.67382&lng=139.76242"},
{"addr_full": "Ginza, Chuo-ku 3-6-1", "brand": ["boss"], "city": "Tokyo", "country": "JP", "extras": {"brand": ["boss"], "fascia": "Shop", "category": ["womenswear"], "edit_date": "2025-02-26 12:22:25", "lat_lon_source": "Third Party"}, "lat": 35.67235, "lon": 139.76666, "name": "BOSS Womenswear Shop", "opening_hours": {"Shop": {"Monday": "11:00-20:00", "Tuesday": "11:00-20:00", "Wednesday": "11:00-20:00", "Thursday": "11:00-20:00", "Friday": "11:00-20:00", "Saturday": "11:00-20:00", "Sunday": "11:00-19:30"}}, "phone": "+81335648097", "postcode": "104-8130", "ref": "9923751", "state": "13", "website": "https://www.hugoboss.com/store#lat=35.67235&lng=139.76666"},
{"addr_full": "Ginza, Chuo-ku 3-6-1", "brand": ["boss"], "city": "Tokyo", "country": "JP", "extras": {"brand": ["boss"], "fascia": "Shop", "category": ["menswear"], "edit_date": "2025-02-26 12:22:25", "lat_lon_source": "Third Party"}, "lat": 35.67235, "lon": 139.76666, "name": "BOSS Menswear Shop", "opening_hours": {"Shop": {"Monday": "11:00-20:00", "Tuesday": "11:00-20:00", "Wednesday": "11:00-20:00", "Thursday": "11:00-20:00", "Friday": "11:00-20:00", "Saturday": "11:00-20:00", "Sunday": "11:00-19:30"}}, "phone": "+81352506516", "postcode": "104-8130", "ref": "9923713", "state": "13", "website": "https://www.hugoboss.com/store#lat=35.67235&lng=139.76666"},
{"addr_full": "268 Dongnip-ro, Dong-gu, Gwangju", "brand": ["boss"], "city": "Gwangju", "country": "KR", "extras": {"brand": ["boss"], "fascia": "Shop", "category": ["menswear"], "edit_date": "2025-02-26 12:22:25", "lat_lon_source": "Third Party"}, "lat": 35.15461, "lon": 126.91222, "name": "BOSS Menswear Shop", "opening_hours": {"Shop": {"Monday": "10:30-20:00", "Tuesday": "10:30-20:00", "Wednesday": "10:30-20:00", "Thursday": "10:30-20:00", "Friday": "10:30-20:30", "Saturday": "10:30-20:30", "Sunday": "10:30-20:00"}}, "phone": "+82 622211781", "postcode": "00000", "ref": "9928656", "state": "13", "website": "https://www.hugoboss.com/store#lat=35.15461&lng=126.91222"},
{"addr_full": "Marunouchi, Chiyoda-ku 1-9-1", "brand": ["boss", "boss-green"], "city": "Tokyo", "country": "JP", "extras": {"brand": ["boss", "boss-green"], "fascia": "Shop", "category": ["menswear"], "edit_date": "2025-02-26 12:22:25", "lat_lon_source": "Third Party"}, "lat": 35.68296, "lon": 139.7684, "name": "BOSS Menswear Shop", "opening_hours": {"Shop": {"Monday": "10:00-20:00", "Tuesday": "10:00-20:00", "Wednesday": "10:00-20:00", "Thursday": "10:00-20:00", "Friday": "10:00-20:00", "Saturday": "10:00-20:00", "Sunday": "10:00-20:00"}}, "phone": "+81 332012620", "postcode": "100-0005", "ref": "9923758", "state": "13", "website": "https://www.hugoboss.com/store#lat=35.68296&lng=139.7684"},
{"addr_full": "Nihonbashi, Chuo-ku 2-4-1", "brand": ["boss"], "city": "Tokyo", "country": "JP", "extras": {"brand": ["boss"], "fascia": "Shop", "category": ["womenswear"], "edit_date": "2025-02-26 12:22:25", "lat_lon_source": "Third Party"}, "lat": 35.68074, "lon": 139.77369, "name": "BOSS Womenswear Shop", "opening_hours": {"Shop": {"Monday": "10:30-19:30", "Tuesday": "10:30-19:30", "Wednesday": "10:30-19:30", "Thursday": "10:30-19:30", "Friday": "10:30-19:30", "Saturday": "10:30-19:30", "Sunday": "10:30-19:30"}}, "phone": "+81 332315218", "postcode": "103-8265", "ref": "9923734", "state": "13", "website": "https://www.hugoboss.com/store#lat=35.68074&lng=139.77369"},
{"addr_full": "Nihonbashi, Chuo-ku 2-4-1", "brand": ["boss"], "city": "Tokyo", "country": "JP", "extras": {"brand": ["boss"], "fascia": "Shop", "category": ["menswear"], "edit_date": "2025-02-26 12:22:25", "lat_lon_source": "Third Party"}, "lat": 35.68147, "lon": 139.77383, "name": "BOSS Menswear Shop", "opening_hours": {"Shop": {"Monday": "10:30-19:30", "Tuesday": "10:30-19:30", "Wednesday": "10:30-19:30", "Thursday": "10:30-19:30", "Friday": "10:30-19:30", "Saturday": "10:30-19:30", "Sunday": "10:30-19:30"}}, "phone": "+81332464289", "postcode": "103-8265", "ref": "9923716", "state": "13", "website": "https://www.hugoboss.com/store#lat=35.68147&lng=139.77383"},
{"addr_full": "Nihonbashi Muromachi, Chuo-ku 1-4-1", "brand": ["boss"], "city": "Tokyo", "country": "JP", "extras": {"brand": ["boss"], "fascia": "Shop", "category": ["womenswear"], "edit_date": "2025-02-26 12:22:25", "lat_lon_source": "Third Party"}, "lat": 35.68528, "lon": 139.77333, "name": "BOSS Womenswear Shop", "opening_hours": {"Shop": {"Monday": "10:00-19:00", "Tuesday": "10:00-19:00", "Wednesday": "10:00-19:00", "Thursday": "10:00-19:00", "Friday": "10:00-19:00", "Saturday": "10:00-19:00", "Sunday": "10:00-19:00"}}, "phone": "+81 332707740", "postcode": "103-8011", "ref": "9925311", "state": "13", "website": "https://www.hugoboss.com/store#lat=35.68528&lng=139.77333"},
{"addr_full": "Nihonbashi Muromachi,  Chuo-ku 1-4-1", "brand": ["boss", "boss-green", "boss-camel"], "city": "Tokyo", "country": "JP", "extras": {"brand": ["boss", "boss-green", "boss-camel"], "fascia": "Shop", "category": ["menswear"], "edit_date": "2025-02-26 12:22:25", "lat_lon_source": "Third Party"}, "lat": 35.68569, "lon": 139.77313, "name": "BOSS Menswear Shop", "opening_hours": {"Shop": {"Monday": "10:00-19:00", "Tuesday": "10:00-19:00", "Wednesday": "10:00-19:00", "Thursday": "10:00-19:00", "Friday": "10:00-19:00", "Saturday": "10:00-19:00", "Sunday": "10:00-19:00"}}, "phone": "+81 332422339", "postcode": "103-8011", "ref": "9923762", "state": "13", "website": "https://www.hugoboss.com/store#lat=35.68569&lng=139.77313"},
{"addr_full": "Nihonbashi Muromachi,  Chuo-ku 1-4-1", "brand": ["boss"], "city": "Tokyo", "country": "JP", "extras": {"brand": ["boss"], "fascia": "Shop", "category": ["menswear", "womenswear"], "edit_date": "2025-02-26 12:22:25", "lat_lon_source": "Third Party"}, "lat": 35.68564, "lon": 139.77358, "name": "BOSS Kids Shop", "opening_hours": {"Shop": {"Monday": "10:00-19:00", "Tuesday": "10:00-19:00", "Wednesday": "10:00-19:00", "Thursday": "10:00-19:00", "Friday": "10:00-19:00", "Saturday": "10:00-19:00", "Sunday": "10:00-19:00"}}, "phone": "+815035292450", "postcode": "103-8001", "ref": "9926342", "state": "13", "website": "https://www.hugoboss.com/store#lat=35.68564&lng=139.77358"},
{"addr_full": "Minami Ikebukuro, Toshima-ku 1-28-1", "brand": "HugoBoss", "city": "Tokyo", "country": "JP", "extras": {"brand": null, "fascia": "Shop", "category": null, "edit_date": "2025-02-26 12:22:25", "lat_lon_source": "Third Party"}, "lat": 35.72415, "lon": 139.71059, "name": "BOSS Kids Shop", "opening_hours": {"Shop": {"Monday": "10:00-21:00", "Tuesday": "10:00-21:00", "Wednesday": "10:00-21:00", "Thursday": "10:00-21:00", "Friday": "10:00-21:00", "Saturday": "10:00-21:00", "Sunday": "10:00-20:00"}}, "phone": "+81 5036467140", "postcode": "171-0022", "ref": "9925635", "state": "13", "website": "https://www.hugoboss.com/store#lat=35.72415&lng=139.71059"},
{"addr_full": "Minami Ikebukuro, Toshima-ku 1-28-1", "brand": ["boss", "boss-green"], "city": "Tokyo", "country": "JP", "extras": {"brand": ["boss", "boss-green"], "fascia": "Shop", "category": ["menswear"], "edit_date": "2025-02-26 12:22:25", "lat_lon_source": "Third Party"}, "lat": 35.72874, "lon": 139.71124, "name": "BOSS Menswear Shop", "opening_hours": {"Shop": {"Monday": "10:00-20:00", "Tuesday": "10:00-20:00", "Wednesday": "10:00-20:00", "Thursday": "10:00-20:00", "Friday": "10:00-20:00", "Saturday": "10:00-20:00", "Sunday": "10:00-20:00"}}, "phone": "+81 339805262", "postcode": "171-0022", "ref": "9923714", "state": "13", "website": "https://www.hugoboss.com/store#lat=35.72874&lng=139.71124"},
{"addr_full": "Yamamuro, Fujimi-shi, 2110-02 1-1313", "brand": ["boss"], "city": "Saitama", "country": "JP", "extras": {"brand": ["boss"], "fascia": "Shop", "category": ["menswear", "womenswear"], "edit_date": "2025-02-26 12:22:25", "lat_lon_source": "Third Party"}, "lat": 35.85978, "lon": 139.54858, "name": "BOSS Shop", "opening_hours": {"Shop": {"Monday": "10:00-20:00", "Tuesday": "10:00-20:00", "Wednesday": "10:00-20:00", "Thursday": "10:00-20:00", "Friday": "10:00-20:00", "Saturday": "10:00-21:00", "Sunday": "10:00-21:00"}}, "phone": null, "postcode": "354-8560", "ref": "9925211", "state": "11", "website": "https://www.hugoboss.com/store#lat=35.85978&lng=139.54858"},
{"addr_full": "Takasago, Urawa-ku, Saitama-shi 1-15-1", "brand": ["boss"], "city": "Saitama City", "country": "JP", "extras": {"brand": ["boss"], "fascia": "Shop", "category": ["menswear"], "edit_date": "2025-02-26 12:22:25", "lat_lon_source": "Third Party"}, "lat": 35.85922, "lon": 139.65719, "name": "BOSS Menswear Shop", "opening_hours": {"Shop": {"Monday": "10:00-19:00", "Tuesday": "10:00-19:00", "Wednesday": "10:00-19:00", "Thursday": "10:00-19:00", "Friday": "10:00-19:00", "Saturday": "10:00-19:00", "Sunday": "10:00-19:00"}}, "phone": "+81 488328106", "postcode": "336-0011", "ref": "9923775", "state": "11", "website": "https://www.hugoboss.com/store#lat=35.85922&lng=139.65719"},
{"addr_full": "Karuizawa, Karuizawa-machi, Kita Saku-Gun #NE-12", "brand": ["boss"], "city": "Nagano", "country": "JP", "extras": {"brand": ["boss"], "fascia": "Outlet", "category": ["menswear", "womenswear"], "edit_date": "2025-02-26 12:22:25", "lat_lon_source": "Third Party"}, "lat": 36.37418, "lon": 138.62886, "name": "BOSS Outlet", "opening_hours": {"Outlet": {"Monday": "10:00-19:00", "Tuesday": "10:00-19:00", "Wednesday": "10:00-19:00", "Thursday": "10:00-19:00", "Friday": "10:00-19:00", "Saturday": "10:00-19:00", "Sunday": "10:00-19:00"}}, "phone": "+815036468173", "postcode": "389-0102", "ref": "9923740", "state": "20", "website": "https://www.hugoboss.com/store#lat=36.37418&lng=138.62886"},
{"addr_full": "Hibino, Mihama-ku, Chiba-shi 2-6-1", "brand": ["boss"], "city": "Chiba", "country": "JP", "extras": {"brand": ["boss"], "fascia": "Outlet", "category": ["menswear"], "edit_date": "2025-02-26 12:22:25", "lat_lon_source": "Third Party"}, "lat": 35.64688, "lon": 140.04153, "name": "BOSS Outlet", "opening_hours": {"Outlet": {"Monday": "10:00-20:00", "Tuesday": "10:00-20:00", "Wednesday": "10:00-20:00", "Thursday": "10:00-20:00", "Friday": "10:00-20:00", "Saturday": "10:00-20:00", "Sunday": "10:00-20:00"}}, "phone": "+81 434457688", "postcode": "261-0021", "ref": "9925359", "state": "12", "website": "https://www.hugoboss.com/store#lat=35.64688&lng=140.04153"},
{"addr_full": "Kuroda Fukaya-shi 169", "brand": ["boss"], "city": "Saitama", "country": "JP", "extras": {"brand": ["boss"], "fascia": "Outlet", "category": ["menswear", "womenswear"], "edit_date": "2025-02-26 12:22:25", "lat_lon_source": "Third Party"}, "lat": 36.13446, "lon": 139.25018, "name": "BOSS Outlet", "opening_hours": {"Outlet": {"Monday": "10:00-19:00", "Tuesday": "10:00-19:00", "Wednesday": "10:00-19:00", "Thursday": "10:00-19:00", "Friday": "10:00-19:00", "Saturday": "10:00-19:00", "Sunday": "10:00-19:00"}}, "phone": "+81 5036137575", "postcode": "369-1244", "ref": "9925210", "state": "11", "website": "https://www.hugoboss.com/store#lat=36.13446&lng=139.25018"},
{"addr_full": "3-4-1 Tsuruma, Machida-shi 3-4-1", "brand": ["boss", "boss-camel"], "city": "Tokyo", "country": "JP", "extras": {"brand": ["boss", "boss-camel"], "fascia": "Outlet", "category": ["menswear"], "edit_date": "2025-02-26 12:22:25", "lat_lon_source": "Third Party"}, "lat": 35.88036, "lon": 139.82512, "name": "BOSS Outlet", "opening_hours": {"Outlet": {"Monday": "10:00-20:00", "Tuesday": "10:00-20:00", "Wednesday": "10:00-20:00", "Thursday": "10:00-20:00", "Friday": "10:00-20:00", "Saturday": "10:00-20:00", "Sunday": "10:00-20:00"}}, "phone": "+81 5033549620", "postcode": "194-8589", "ref": "9925360", "state": "11", "website": "https://www.hugoboss.com/store#lat=35.88036&lng=139.82512"},
{"addr_full": "Laketown, Koshigaya-shi 4-1-1", "brand": ["boss"], "city": "Saitama", "country": "JP", "extras": {"brand": ["boss"], "fascia": "Outlet", "category": ["menswear"], "edit_date": "2025-02-26 12:22:25", "lat_lon_source": "Third Party"}, "lat": 35.88243, "lon": 139.82856, "name": "BOSS Outlet", "opening_hours": {"Outlet": {"Monday": "10:00-20:00", "Tuesday": "10:00-20:00", "Wednesday": "10:00-20:00", "Thursday": "10:00-20:00", "Friday": "10:00-20:00", "Saturday": "10:00-20:00", "Sunday": "10:00-20:00"}}, "phone": "+815035285780", "postcode": "343-0828", "ref": "9926593", "state": "11", "website": "https://www.hugoboss.com/store#lat=35.88243&lng=139.82856"},
{"addr_full": "Iizumi, Shisui-machi, Inba-gun 2-4-1", "brand": ["boss"], "city": "Chiba", "country": "JP", "extras": {"brand": ["boss"], "fascia": "Outlet", "category": ["menswear"], "edit_date": "2025-02-26 12:22:25", "lat_lon_source": "Third Party"}, "lat": 35.71399, "lon": 140.29474, "name": "BOSS Outlet", "opening_hours": {"Outlet": {"Monday": "10:00-19:00", "Tuesday": "10:00-19:00", "Wednesday": "10:00-19:00", "Thursday": "10:00-19:00", "Friday": "10:00-19:00", "Saturday": "10:00-19:00", "Sunday": "10:00-19:00"}}, "phone": "+81 432358659", "postcode": "285-0912", "ref": "9925361", "state": "12", "website": "https://www.hugoboss.com/store#lat=35.71399&lng=140.29474"},
{"addr_full": "Koenacho, Sano-shi 2058", "brand": ["boss"], "city": "Tochigi", "country": "JP", "extras": {"brand": ["boss"], "fascia": "Outlet", "category": ["menswear", "womenswear"], "edit_date": "2025-02-26 12:22:25", "lat_lon_source": "Third Party"}, "lat": 36.2924, "lon": 139.60443, "name": "BOSS Outlet", "opening_hours": {"Outlet": {"Monday": "10:00-19:00", "Tuesday": "10:00-19:00", "Wednesday": "10:00-19:00", "Thursday": "10:00-19:00", "Friday": "10:00-19:00", "Saturday": "10:00-19:00", "Sunday": "10:00-19:00"}}, "phone": "+81 283258551", "postcode": "327-0822", "ref": "9923318", "state": "09", "website": "https://www.hugoboss.com/store#lat=36.2924&lng=139.60443"},
{"addr_full": "1 Expo-ro", "brand": ["boss", "boss-camel"], "city": "Yuseong-gu, Daejeon", "country": "KR", "extras": {"brand": ["boss", "boss-camel"], "fascia": "Shop", "category": ["menswear"], "edit_date": "2025-02-26 12:22:25", "lat_lon_source": "Third Party"}, "lat": 36.35028, "lon": 127.43662, "name": "BOSS Menswear Shop", "opening_hours": {"Shop": {"Monday": "10:30-20:00", "Tuesday": "10:30-20:00", "Wednesday": "10:30-20:00", "Thursday": "10:30-20:00", "Friday": "10:30-20:30", "Saturday": "10:30-20:30", "Sunday": "10:30-20:30"}}, "phone": "+82 426078208", "postcode": "34126", "ref": "9928684", "state": "01", "website": "https://www.hugoboss.com/store#lat=36.35028&lng=127.43662"},
{"addr_full": "123 Techno jungang-ro, Yuseong-gu", "brand": ["boss", "boss-green"], "city": "Daejeon", "country": "KR", "extras": {"brand": ["boss", "boss-green"], "fascia": "Outlet", "category": ["menswear"], "edit_date": "2025-02-26 12:22:25", "lat_lon_source": "Third Party"}, "lat": 36.4238, "lon": 127.39396, "name": "BOSS Outlet", "opening_hours": {"Outlet": {"Monday": "['10:30', '12:00']-['12:00', '21:30']", "Tuesday": "['10:30', '12:00']-['12:00', '21:30']", "Wednesday": "['10:30', '12:00']-['12:00', '21:30']", "Thursday": "['10:30', '12:00']-['12:00', '21:30']", "Friday": "['10:30', '12:00']-['12:00', '21:30']", "Saturday": "['10:30', '12:00']-['12:00', '21:30']", "Sunday": "['10:30', '12:00']-['12:00', '21:30']"}}, "phone": "+82 423322449", "postcode": "34030", "ref": "9928685", "state": "15", "website": "https://www.hugoboss.com/store#lat=36.4238&lng=127.39396"},
{"addr_full": "308 Jikji-daero, Heungdeok-gu", "brand": ["boss"], "city": "Cheongju-si", "country": "KR", "extras": {"brand": ["boss"], "fascia": "Shop", "category": ["menswear"], "edit_date": "2025-02-26 12:22:25", "lat_lon_source": "Third Party"}, "lat": 36.64607, "lon": 127.42085, "name": "BOSS Menswear Shop", "opening_hours": {"Shop": {"Monday": "['10:30', '12:00']-['12:00', '21:00']", "Tuesday": "['10:30', '12:00']-['12:00', '21:00']", "Wednesday": "['10:30', '12:00']-['12:00', '21:00']", "Thursday": "['10:30', '12:00']-['12:00', '21:00']", "Friday": "['10:30', '12:00']-['12:00', '21:00']", "Saturday": "['10:30', '12:00']-['12:00', '21:00']", "Sunday": "['10:30', '12:00']-['12:00', '21:00']"}}, "phone": "+82 439094443", "postcode": "28424", "ref": "9928686", "state": "04", "website": "https://www.hugoboss.com/store#lat=36.64607&lng=127.42085"},
{"addr_full": "Shionosaki, Nasu Shiobara-shi 184-7", "brand": ["boss"], "city": "Tochigi", "country": "JP", "extras": {"brand": ["boss"], "fascia": "Outlet", "category": ["menswear"], "edit_date": "2025-02-26 12:22:25", "lat_lon_source": "Third Party"}, "lat": 36.96583, "lon": 139.99112, "name": "BOSS Outlet", "opening_hours": {"Outlet": {"Monday": "10:00-19:00", "Tuesday": "10:00-19:00", "Wednesday": "10:00-19:00", "Thursday": "10:00-19:00", "Friday": "10:00-19:00", "Saturday": "10:00-19:00", "Sunday": "10:00-19:00"}}, "phone": "+81 5035290928", "postcode": "329-3122", "ref": "9925651", "state": "09", "website": "https://www.hugoboss.com/store#lat=36.96583&lng=139.99112"},
{"addr_full": "360 Myeongpum-ro, Yeoju-si, Gyeonggi-do", "brand": ["boss", "boss-green"], "city": "Yeoju", "country": "KR", "extras": {"brand": ["boss", "boss-green"], "fascia": "Outlet", "category": ["menswear"], "edit_date": "2025-02-26 12:22:25", "lat_lon_source": "Third Party"}, "lat": 37.24161, "lon": 127.61299, "name": "BOSS Outlet", "opening_hours": {"Outlet": {"Monday": "10:30-20:30", "Tuesday": "10:30-20:30", "Wednesday": "10:30-20:30", "Thursday": "10:30-20:30", "Friday": "10:30-21:00", "Saturday": "10:30-21:00", "Sunday": "10:30-20:30"}}, "phone": "+82 318801327", "postcode": "12646", "ref": "9928639", "state": "13", "website": "https://www.hugoboss.com/store#lat=37.24161&lng=127.61299"},
{"addr_full": "967-2419 Osan-dong, Hwasung-si, Gyeonggi-do", "brand": ["boss"], "city": "Hwaseong", "country": "KR", "extras": {"brand": ["boss"], "fascia": "Shop", "category": ["menswear"], "edit_date": "2025-02-26 12:22:25", "lat_lon_source": "Third Party"}, "lat": 37.15122, "lon": 127.07523, "name": "BOSS Menswear Shop", "opening_hours": {"Shop": {"Monday": "10:30-20:00", "Tuesday": "10:30-20:00", "Wednesday": "10:30-20:00", "Thursday": "10:30-20:00", "Friday": "10:30-20:30", "Saturday": "10:30-20:30", "Sunday": "10:30-20:30"}}, "phone": "+82 3180363623", "postcode": "18478", "ref": "9928678", "state": "09", "website": "https://www.hugoboss.com/store#lat=37.15122&lng=127.07523"},
{"addr_full": "Yachiyo, Chuo-ku 1-6-1", "brand": ["boss"], "city": "Niigata City", "country": "JP", "extras": {"brand": ["boss"], "fascia": "Shop", "category": ["menswear"], "edit_date": "2025-02-26 12:22:25", "lat_lon_source": "Third Party"}, "lat": 37.91574, "lon": 139.05529, "name": "BOSS Menswear Shop", "opening_hours": {"Shop": {"Monday": "10:00-19:00", "Tuesday": "10:00-19:00", "Wednesday": "10:00-19:00", "Thursday": "10:00-19:00", "Friday": "10:00-19:00", "Saturday": "10:00-19:00", "Sunday": "10:00-19:00"}}, "phone": null, "postcode": "950-0909", "ref": "9929485", "state": "15", "website": "https://www.hugoboss.com/store#lat=37.91574&lng=139.05529"},
{"addr_full": "536 Poeun-daero, Suji-gu, Yongin-si", "brand": ["boss", "boss-camel"], "city": "Yong-in", "country": "KR", "extras": {"brand": ["boss", "boss-camel"], "fascia": "Shop", "category": ["menswear"], "edit_date": "2025-02-26 12:22:25", "lat_lon_source": "Third Party"}, "lat": 37.32492, "lon": 127.10813, "name": "BOSS Menswear Shop", "opening_hours": {"Shop": {"Monday": "11:00-20:00", "Tuesday": "11:00-20:00", "Wednesday": "11:00-20:00", "Thursday": "11:00-20:00", "Friday": "11:00-20:30", "Saturday": "11:00-20:30", "Sunday": "11:00-20:00"}}, "phone": "+82 8892136", "postcode": "16896", "ref": "9928660", "state": "09", "website": "https://www.hugoboss.com/store#lat=37.32492&lng=127.10813"},
{"addr_full": "180 Pangyoyeok-Ro, Bundang-Gu, Seongnam-Si", "brand": ["boss", "boss-camel"], "city": "Seongnam", "country": "KR", "extras": {"brand": ["boss", "boss-camel"], "fascia": "Shop", "category": ["menswear"], "edit_date": "2025-02-26 12:22:25", "lat_lon_source": "Third Party"}, "lat": 37.39257, "lon": 127.112, "name": "BOSS Menswear Shop", "opening_hours": {"Shop": {"Monday": "10:30-20:00", "Tuesday": "10:30-20:00", "Wednesday": "10:30-20:00", "Thursday": "10:30-20:00", "Friday": "10:30-20:30", "Saturday": "10:30-20:30", "Sunday": "10:30-20:00"}}, "phone": "+82 3151701636", "postcode": "13529", "ref": "9928604", "state": "09", "website": "https://www.hugoboss.com/store#lat=37.39257&lng=127.112"}
]