addr_full,brand,city,country,extras,lat,lon,name,opening_hours,phone,postcode,ref,state,website
"Κηφισίας 228 Ν.Ψυχικό, 11525 ΨΥΧΙΚΟ, Ελλάδα",AB Vassilopoulos,ΨΥΧΙΚΟ,Greece,"{'brand': 'AB Vassilopoulos', 'fascia': 'AB', 'category': 'Retail', 'edit_date': '20250518', 'lat_lon_source': 'Third Party'}",38.004041,23.775502,ΨΥΧΙΚΟ Λ. ΚΗΦΙΣΙΑΣ-ΦΑΡΟΣ,"{'opening_hours': {'Mon': '05:00-18:00', 'Tue': '05:00-18:00', 'Wed': '05:00-18:00', 'Thu': '05:00-18:00', 'Fri': '05:00-18:00', 'Sat': '05:00-18:00', 'Sun': '05:00-18:00'}}","2106718000,2106700000",11525,2,,psychiko-l-kifisias-faros
"Κηφισίας & Καποδιστρίου, 15123 ΦΙΛΟΘΕΗ, Ελλάδα",AB Vassilopoulos,ΦΙΛΟΘΕΗ,Greece,"{'brand': 'AB Vassilopoulos', 'fascia': 'AB', 'category': 'Retail', 'edit_date': '20250518', 'lat_lon_source': 'Third Party'}",38.024848,23.788972,ΦΙΛΟΘΕΗ ΚΑΠΟΔΙΣΤΡΙΟΥ,"{'opening_hours': {'Mon': '05:00-18:00', 'Tue': '05:00-18:00', 'Wed': '05:00-18:00', 'Thu': '05:00-18:00', 'Fri': '05:00-18:00', 'Sat': '05:00-18:00', 'Sun': '05:00-18:00'}}","2106820741,2106820743",15123,5,,filothei-kapodistrioy
"Κασσαβέτη & Λεβίδου 2, 14561 ΚΗΦΙΣΙΑ, Ελλάδα",AB Vassilopoulos,ΚΗΦΙΣΙΑ,Greece,"{'brand': 'AB Vassilopoulos', 'fascia': 'AB', 'category': 'Retail', 'edit_date': '20250518', 'lat_lon_source': 'Third Party'}",38.072152,23.81352,ΚΗΦΙΣΙΑ ΚΑΣΣΑΒΕΤΗ,"{'opening_hours': {'Mon': '05:00-18:00', 'Tue': '05:00-18:00', 'Wed': '05:00-18:00', 'Thu': '05:00-18:00', 'Fri': '05:00-18:00', 'Sat': '05:00-18:00', 'Sun': '05:00-18:00'}}","2108082812,2108082813",14561,6,,kifisia-kassaveti
"25ης Μαρτίου 5, 17121 ΝΕΑ ΣΜΥΡΝΗ, Ελλάδα",AB Vassilopoulos,ΝΕΑ ΣΜΥΡΝΗ,Greece,"{'brand': 'AB Vassilopoulos', 'fascia': 'AB', 'category': 'Retail', 'edit_date': '20250518', 'lat_lon_source': 'Third Party'}",37.94747,23.711435,ΝΕΑ ΣΜΥΡΝΗ 25ης ΜΑΡΤΙΟΥ,"{'opening_hours': {'Mon': '05:00-18:00', 'Tue': '05:00-18:00', 'Wed': '05:00-18:00', 'Thu': '05:00-18:00', 'Fri': '05:00-18:00', 'Sat': '05:00-18:00', 'Sun': '05:00-18:00'}}","2109353173,2109353166",17121,7,,nea-smyrni-25is-martioy
"Κηφισίας 326, 14671 ΕΡΥΘΡΑΙΑ, Ελλάδα",AB Vassilopoulos,ΕΡΥΘΡΑΙΑ,Greece,"{'brand': 'AB Vassilopoulos', 'fascia': 'AB', 'category': 'Retail', 'edit_date': '20250518', 'lat_lon_source': 'Third Party'}",38.086126,23.816484,ΕΡΥΘΡΑΙΑ ΚΗΦΙΣΙΑΣ,"{'opening_hours': {'Mon': '05:00-18:00', 'Tue': '05:00-18:00', 'Wed': '05:00-18:00', 'Thu': '05:00-18:00', 'Fri': '05:00-18:00', 'Sat': '05:00-18:00', 'Sun': '05:00-18:00'}}","2108082201,2108083535",14671,8,,erythraia-kifisias
"Γρυπάρη 141, 17672 ΚΑΛΛΙΘΕΑ, Ελλάδα",AB Vassilopoulos,ΚΑΛΛΙΘΕΑ,Greece,"{'brand': 'AB Vassilopoulos', 'fascia': 'AB', 'category': 'Retail', 'edit_date': '20250518', 'lat_lon_source': 'Third Party'}",37.955328,23.703949,ΚΑΛΛΙΘΕΑ 1 ΓΡΥΠΑΡΗ,"{'opening_hours': {'Mon': '05:00-18:00', 'Tue': '05:00-18:00', 'Wed': '05:00-18:00', 'Thu': '05:00-18:00', 'Fri': '05:00-18:00', 'Sat': '05:00-18:00', 'Sun': '05:00-18:00'}}","2109564013,2109564014",17672,9,,kallithea-1-grypari
"Πίνδου 116 - 118, 15669 ΠΑΠΑΓΟΣ, Ελλάδα",AB Vassilopoulos,ΠΑΠΑΓΟΣ,Greece,"{'brand': 'AB Vassilopoulos', 'fascia': 'AB', 'category': 'Retail', 'edit_date': '20250518', 'lat_lon_source': 'Third Party'}",37.983889,23.786506,ΠΑΠΑΓΟΣ ΠΙΝΔΟΥ,"{'opening_hours': {'Mon': '05:00-18:00', 'Tue': '05:00-18:00', 'Wed': '05:00-18:00', 'Thu': '05:00-18:00', 'Fri': '05:00-18:00', 'Sat': '05:00-18:00', 'Sun': '05:00-18:00'}}",2106510603,15669,12,,papagos-pindoy
"Λ. Ηρακλείου 350, 14231 Ν. ΙΩΝΙΑ, Ελλάδα",AB Vassilopoulos,Ν. ΙΩΝΙΑ,Greece,"{'brand': 'AB Vassilopoulos', 'fascia': 'AB', 'category': 'Retail', 'edit_date': '20250518', 'lat_lon_source': 'Third Party'}",38.046854,23.759517,Ν. ΙΩΝΙΑ Λ. ΗΡΑΚΛΕΙΟΥ,"{'opening_hours': {'Mon': '05:00-18:00', 'Tue': '05:00-18:00', 'Wed': '05:00-18:00', 'Thu': '05:00-18:00', 'Fri': '05:00-18:00', 'Sat': '05:00-18:00', 'Sun': '05:00-18:00'}}","2102772181,2102755894",14231,13,,n-ionia-l-irakleioy
"Λ.Βουλιαγμένης 43-45, 16777 ΕΛΛΗΝΙΚΟ, Ελλάδα",AB Vassilopoulos,ΕΛΛΗΝΙΚΟ,Greece,"{'brand': 'AB Vassilopoulos', 'fascia': 'AB', 'category': 'Retail', 'edit_date': '20250518', 'lat_lon_source': 'Third Party'}",37.890651,23.74751,ΕΛΛΗΝΙΚΟ Λ. ΒΟΥΛΙΑΓΜΕΝΗΣ,"{'opening_hours': {'Mon': '05:00-18:00', 'Tue': '05:00-18:00', 'Wed': '05:00-18:00', 'Thu': '05:00-18:00', 'Fri': '05:00-18:00', 'Sat': '05:00-18:00', 'Sun': '05:00-18:00'}}","2109634402,2109634424",16777,14,,elliniko-l-voyliagmenis
"Περικλέους 56, 15561 ΧΟΛΑΡΓΟΣ, Ελλάδα",AB Vassilopoulos,ΧΟΛΑΡΓΟΣ,Greece,"{'brand': 'AB Vassilopoulos', 'fascia': 'AB', 'category': 'Retail', 'edit_date': '20250518', 'lat_lon_source': 'Third Party'}",37.998431,23.799322,ΧΟΛΑΡΓΟΣ ΠΕΡΙΚΛΕΟΥΣ,"{'opening_hours': {'Mon': '05:00-18:00', 'Tue': '05:00-18:00', 'Wed': '05:00-18:00', 'Thu': '05:00-18:00', 'Fri': '05:00-18:00', 'Sat': '05:00-18:00', 'Sun': '05:00-18:00'}}","2106532902,2106538177",15561,15,,cholargos-perikleoys
"20ο Χλμ. Εθν. Οδού Αθηνών - Λαμίας, 14565 ΕΘΝΙΚΗ, Ελλάδα",AB Vassilopoulos,ΕΘΝΙΚΗ,Greece,"{'brand': 'AB Vassilopoulos', 'fascia': 'AB', 'category': 'Retail', 'edit_date': '20250518', 'lat_lon_source': 'Third Party'}",38.114822,23.828491,ΕΘΝΙΚΗ,"{'opening_hours': {'Mon': '05:00-18:00', 'Tue': '05:00-18:00', 'Wed': '05:00-18:00', 'Thu': '05:00-18:00', 'Fri': '05:00-18:00', 'Sat': '05:00-18:00', 'Sun': '05:00-18:00'}}","2106229070,2106229071",14565,16,,ethniki
"95ο χλμ. Εθν. Οδού Πατρών - Πύργου, 27100 ΠΥΡΓΟΣ, Ελλάδα",AB Vassilopoulos,ΠΥΡΓΟΣ,Greece,"{'brand': 'AB Vassilopoulos', 'fascia': 'AB', 'category': 'Retail', 'edit_date': '20250518', 'lat_lon_source': 'Third Party'}",37.681515,21.419509,ΠΥΡΓΟΣ,"{'opening_hours': {'Mon': '05:00-18:00', 'Tue': '05:00-18:00', 'Wed': '05:00-18:00', 'Thu': '05:00-18:00', 'Fri': '05:00-18:00', 'Sat': '05:00-18:00', 'Sun': '05:00-18:00'}}","2621023001,2621023003",27100,17,,pyrgos
"Ακτή Δυμαίων & Ελ. Βενιζέλου, 26500 ΠΑΤΡΑ, Ελλάδα",AB Vassilopoulos,ΠΑΤΡΑ,Greece,"{'brand': 'AB Vassilopoulos', 'fascia': 'AB', 'category': 'Retail', 'edit_date': '20250518', 'lat_lon_source': 'Third Party'}",38.232227,21.725355,ΠΑΤΡΑ 1 ΑΚΤΗ ΔΗΜΑΙΩΝ,"{'opening_hours': {'Mon': '05:00-18:00', 'Tue': '05:00-18:00', 'Wed': '05:00-18:00', 'Thu': '05:00-18:00', 'Fri': '05:00-18:00', 'Sat': '05:00-18:00', 'Sun': '05:00-18:00'}}","2610317090,2610317093",26500,20,,patra-1-akti-dimaion
"Λ.Αθηνών 242, 12461 ΧΑΙΔΑΡΙ, Ελλάδα",AB Vassilopoulos,ΧΑΙΔΑΡΙ,Greece,"{'brand': 'AB Vassilopoulos', 'fascia': 'AB', 'category': 'Retail', 'edit_date': '20250518', 'lat_lon_source': 'Third Party'}",38.012756,23.663129,ΧΑΙΔΑΡΙ Λ. ΑΘΗΝΩΝ,"{'opening_hours': {'Mon': '05:00-18:00', 'Tue': '05:00-18:00', 'Wed': '05:00-18:00', 'Thu': '05:00-18:00', 'Fri': '05:00-18:00', 'Sat': '05:00-18:00', 'Sun': '05:00-18:00'}}","2105322781,2105322783",12461,21,,chaidari-l-athinon
"Λ. Πεντέλης 39, 15235 ΒΡΙΛΗΣΣΙΑ, Ελλάδα",AB Vassilopoulos,ΒΡΙΛΗΣΣΙΑ,Greece,"{'brand': 'AB Vassilopoulos', 'fascia': 'AB', 'category': 'Retail', 'edit_date': '20250518', 'lat_lon_source': 'Third Party'}",38.039781,23.828644,ΒΡΙΛΗΣΣΙΑ Λ. ΠΕΝΤΕΛΗΣ,"{'opening_hours': {'Mon': '05:00-18:00', 'Tue': '05:00-18:00', 'Wed': '05:00-18:00', 'Thu': '05:00-18:00', 'Fri': '05:00-18:00', 'Sat': '05:00-18:00', 'Sun': '05:00-18:00'}}","2106139445,2106139446",15235,22,,vrilissia-l-pentelis
"Εθν. Οδός Πατρών - Αθηνών & Αμερικής, 26500 ΠΑΤΡΑ, Ελλάδα",AB Vassilopoulos,ΠΑΤΡΑ,Greece,"{'brand': 'AB Vassilopoulos', 'fascia': 'AB', 'category': 'Retail', 'edit_date': '20250518', 'lat_lon_source': 'Third Party'}",38.26167,21.749779,ΠΑΤΡΑ 2 ΕΘΝΙΚΗ ΟΔΟΣ,"{'opening_hours': {'Mon': '05:00-18:00', 'Tue': '05:00-18:00', 'Wed': '05:00-18:00', 'Thu': '05:00-18:00', 'Fri': '05:00-18:00', 'Sat': '05:00-18:00', 'Sun': '05:00-18:00'}}","2610451532,2610453111",26500,23,,patra-2-ethniki-odos
"Καραολή Δημητρίου 34, 16233 ΒΥΡΩΝΑΣ, Ελλάδα",AB Vassilopoulos,ΒΥΡΩΝΑΣ,Greece,"{'brand': 'AB Vassilopoulos', 'fascia': 'AB', 'category': 'Retail', 'edit_date': '20250518', 'lat_lon_source': 'Third Party'}",37.956714,23.762429,ΒΥΡΩΝΑΣ 1 ΔΗΜΑΡΧΕΙΟ,"{'opening_hours': {'Mon': '05:00-18:00', 'Tue': '05:00-18:00', 'Wed': '05:00-18:00', 'Thu': '05:00-18:00', 'Fri': '05:00-18:00', 'Sat': '05:00-18:00', 'Sun': '05:00-18:00'}}","2107600042,2107600044",16233,24,,vyronas-1-dimarcheio
"Πατησίων 342 & Γαβριηλίδου, 11141 ΠΑΤΗΣΙΑ, Ελλάδα",AB Vassilopoulos,ΠΑΤΗΣΙΑ,Greece,"{'brand': 'AB Vassilopoulos', 'fascia': 'AB', 'category': 'Retail', 'edit_date': '20250518', 'lat_lon_source': 'Third Party'}",38.01889,23.735627,ΠΑΤΗΣΙΑ 1 ΠΑΤΗΣΙΩΝ,"{'opening_hours': {'Mon': '05:00-18:00', 'Tue': '05:00-18:00', 'Wed': '05:00-18:00', 'Thu': '05:00-18:00', 'Fri': '05:00-18:00', 'Sat': '05:00-18:00', 'Sun': '05:00-18:00'}}","2102111615,2102111616",11141,25,,patisia-1-patision
"Πλ.Εθν. Αντιστάσεως 7, 16341 ΗΛΙΟΥΠΟΛΗ, Ελλάδα",AB Vassilopoulos,ΗΛΙΟΥΠΟΛΗ,Greece,"{'brand': 'AB Vassilopoulos', 'fascia': 'AB', 'category': 'Retail', 'edit_date': '20250518', 'lat_lon_source': 'Third Party'}",37.931763,23.756775,ΗΛΙΟΥΠΟΛΗ ΠΛ. ΕΘΝ. ΑΝΤΙΣΤΑΣΕΩΣ,"{'opening_hours': {'Mon': '05:00-18:00', 'Tue': '05:00-18:00', 'Wed': '05:00-18:00', 'Thu': '05:00-18:00', 'Fri': '05:00-18:00', 'Sat': '05:00-18:00', 'Sun': '05:00-18:00'}}","2109956201,2109956202",16341,26,,ilioypoli-pl-ethn-antistaseos
"Λ.Δροσιάς - Σταμάτας 31Α, 14575 ΣΤΑΜΑΤΑ, Ελλάδα",AB Vassilopoulos,ΣΤΑΜΑΤΑ,Greece,"{'brand': 'AB Vassilopoulos', 'fascia': 'AB', 'category': 'Retail', 'edit_date': '20250518', 'lat_lon_source': 'Third Party'}",38.12218,23.864063,ΣΤΑΜΑΤΑ Λ. ΔΡΟΣΙΑΣ - ΣΤΑΜΑΤΑΣ,"{'opening_hours': {'Mon': '05:00-18:00', 'Tue': '05:00-18:00', 'Wed': '05:00-18:00', 'Thu': '05:00-18:00', 'Fri': '05:00-18:00', 'Sat': '05:00-18:00', 'Sun': '05:00-18:00'}}","2106215571,2106215572",14575,27,,stamata-l-drosias-stamatas
"Σπ. Μερκόυρη 38, 11634 ΠΑΓΚΡΑΤΙ, Ελλάδα",AB Vassilopoulos,ΠΑΓΚΡΑΤΙ,Greece,"{'brand': 'AB Vassilopoulos', 'fascia': 'AB', 'category': 'Retail', 'edit_date': '20250518', 'lat_lon_source': 'Third Party'}",37.971694,23.747831,ΠΑΓΚΡΑΤΙ ΣΠ. ΜΕΡΚΟΥΡΗ,"{'opening_hours': {'Mon': '05:00-18:00', 'Tue': '05:00-18:00', 'Wed': '05:00-18:00', 'Thu': '05:00-18:00', 'Fri': '05:00-18:00', 'Sat': '05:00-18:00', 'Sun': '05:00-18:00'}}","2107258913,2107258914",11634,28,,pagkrati-sp-merkoyri
"Γ. Παπανδρέου & Άνδρου 1, 34100 ΧΑΛΚΙΔΑ, Ελλάδα",AB Vassilopoulos,ΧΑΛΚΙΔΑ,Greece,"{'brand': 'AB Vassilopoulos', 'fascia': 'AB', 'category': 'Retail', 'edit_date': '20250518', 'lat_lon_source': 'Third Party'}",38.473791,23.622774,ΧΑΛΚΙΔΑ 1 ΛΙΑΝΗ ΑΜΜΟΣ,"{'opening_hours': {'Mon': '05:00-18:00', 'Tue': '05:00-18:00', 'Wed': '05:00-18:00', 'Thu': '05:00-18:00', 'Fri': '05:00-18:00', 'Sat': '05:00-18:00', 'Sun': '05:00-18:00'}}","2221089721,2221089723",34100,29,,chalkida-1-liani-ammos
"Λ.Λαυρίου 113-115  & Λεονταρίου, 15354 ΓΛΥΚΑ ΝΕΡΑ, Ελλάδα",AB Vassilopoulos,ΓΛΥΚΑ ΝΕΡΑ,Greece,"{'brand': 'AB Vassilopoulos', 'fascia': 'AB', 'category': 'Retail', 'edit_date': '20250518', 'lat_lon_source': 'Third Party'}",37.993146,23.84918,ΓΛΥΚΑ ΝΕΡΑ 1 ΛΕΟΝΤΑΡΙΟΥ,"{'opening_hours': {'Mon': '05:00-18:00', 'Tue': '05:00-18:00', 'Wed': '05:00-18:00', 'Thu': '05:00-18:00', 'Fri': '05:00-18:00', 'Sat': '05:00-18:00', 'Sun': '05:00-18:00'}}","2106041966,2106041968",15354,30,,glyka-nera-1-leontarioy
"Ναυπλίου 39 & ΟΗΕ & Διοτίμας, 22100 ΤΡΙΠΟΛΗ, Ελλάδα",AB Vassilopoulos,ΤΡΙΠΟΛΗ,Greece,"{'brand': 'AB Vassilopoulos', 'fascia': 'AB', 'category': 'Retail', 'edit_date': '20250518', 'lat_lon_source': 'Third Party'}",37.509706,22.382965,ΤΡΙΠΟΛΗ ΝΑΥΠΛΙΟΥ,"{'opening_hours': {'Mon': '05:00-18:00', 'Tue': '05:00-18:00', 'Wed': '05:00-18:00', 'Thu': '05:00-18:00', 'Fri': '05:00-18:00', 'Sat': '05:00-18:00', 'Sun': '05:00-18:00'}}","2710234611,2710234613",22100,31,,tripoli-nayplioy
"Αγ. Μελετίου 35 & επτανήσου, 11257 ΚΥΨΕΛΗ, Ελλάδα",AB Vassilopoulos,ΚΥΨΕΛΗ,Greece,"{'brand': 'AB Vassilopoulos', 'fascia': 'AB', 'category': 'Retail', 'edit_date': '20250518', 'lat_lon_source': 'Third Party'}",37.999801,23.735707,ΚΥΨΕΛΗ 1 ΑΓ. ΜΕΛΕΤΙΟΥ,"{'opening_hours': {'Mon': '05:00-18:00', 'Tue': '05:00-18:00', 'Wed': '05:00-18:00', 'Thu': '05:00-18:00', 'Fri': '05:00-18:00', 'Sat': '05:00-18:00', 'Sun': '05:00-18:00'}}","2108253235,2108253236",11257,32,,kypseli-1-ag-meletioy
"Καλαμβόκη 2 & Λ. Δημοκρατίας, 15127 ΜΕΛΙΣΣΙΑ, Ελλάδα",AB Vassilopoulos,ΜΕΛΙΣΣΙΑ,Greece,"{'brand': 'AB Vassilopoulos', 'fascia': 'AB', 'category': 'Retail', 'edit_date': '20250518', 'lat_lon_source': 'Third Party'}",38.051547,23.830544,ΜΕΛΙΣΣΙΑ ΚΑΛΑΜΒΟΚΗ,"{'opening_hours': {'Mon': '05:00-18:00', 'Tue': '05:00-18:00', 'Wed': '05:00-18:00', 'Thu': '05:00-18:00', 'Fri': '05:00-18:00', 'Sat': '05:00-18:00', 'Sun': '05:00-18:00'}}","2106139906,2106139908",15127,34,,melissia-kalamvoki
"Α. Παπαναστασίου 21, 18533 ΠΕΙΡΑΙΑΣ, Ελλάδα",AB Vassilopoulos,ΠΕΙΡΑΙΑΣ,Greece,"{'brand': 'AB Vassilopoulos', 'fascia': 'AB', 'category': 'Retail', 'edit_date': '20250518', 'lat_lon_source': 'Third Party'}",37.936921,23.656499,ΚΑΣΤΕΛΛΑ Α. ΠΑΠΑΝΑΣΤΑΣΙΟΥ,"{'opening_hours': {'Mon': '05:00-18:00', 'Tue': '05:00-18:00', 'Wed': '05:00-18:00', 'Thu': '05:00-18:00', 'Fri': '05:00-18:00', 'Sat': '05:00-18:00', 'Sun': '05:00-18:00'}}","2104223761,2104223763",18533,35,,kastella-a-papanastasioy
"Περικλέους 28, 56224 ΕΥΟΣΜΟΣ, Ελλάδα",AB Vassilopoulos,ΕΥΟΣΜΟΣ,Greece,"{'brand': 'AB Vassilopoulos', 'fascia': 'AB', 'category': 'Retail', 'edit_date': '20250518', 'lat_lon_source': 'Third Party'}",40.667136,22.903976,ΘΕΣ/ΚΗ ΕΥΟΣΜΟΣ ΠΕΡΙΚΛΕΟΥΣ,"{'opening_hours': {'Mon': '05:00-18:00', 'Tue': '05:00-18:00', 'Wed': '05:00-18:00', 'Thu': '05:00-18:00', 'Fri': '05:00-18:00', 'Sat': '05:00-18:00', 'Sun': '05:00-18:00'}}","2310778600,2310778602",56224,36,,thes-ki-eyosmos-perikleoys
"Θερμοπυλών & Καλαμά & Δοϊράνης, 35100 ΛΑΜΙΑ, Ελλάδα",AB Vassilopoulos,ΛΑΜΙΑ,Greece,"{'brand': 'AB Vassilopoulos', 'fascia': 'AB', 'category': 'Retail', 'edit_date': '20250518', 'lat_lon_source': 'Third Party'}",38.895276,22.443712,ΛΑΜΙΑ ΘΕΡΜΟΠΥΛΩΝ,"{'opening_hours': {'Mon': '05:00-18:00', 'Tue': '05:00-18:00', 'Wed': '05:00-18:00', 'Thu': '05:00-18:00', 'Fri': '05:00-18:00', 'Sat': '05:00-18:00', 'Sun': '05:00-18:00'}}",2231050970,35100,37,,lamia-thermopylon
"Π. Εθνική οδός Κορίνθου - Πατρών 91, 20100 ΚΟΡΙΝΘΟΣ, Ελλάδα",AB Vassilopoulos,ΚΟΡΙΝΘΟΣ,Greece,"{'brand': 'AB Vassilopoulos', 'fascia': 'AB', 'category': 'Retail', 'edit_date': '20250518', 'lat_lon_source': 'Third Party'}",37.934953,22.915288,ΚΟΡΙΝΘΟΣ 1 ΠΕΟ ΚΟΡΙΝΘΟΥ-ΠΑΤΡΩΝ,"{'opening_hours': {'Mon': '05:00-18:00', 'Tue': '05:00-18:00', 'Wed': '05:00-18:00', 'Thu': '05:00-18:00', 'Fri': '05:00-18:00', 'Sat': '05:00-18:00', 'Sun': '05:00-18:00'}}","2741080894,2741080895",20100,38,,korinthos-1-peo-korinthoy-patron
"Λ. Βάρης Κερκύρας & Κέκρωπος, 16672 ΒΑΡΗ, Ελλάδα",AB Vassilopoulos,ΒΑΡΗ,Greece,"{'brand': 'AB Vassilopoulos', 'fascia': 'AB', 'category': 'Retail', 'edit_date': '20250518', 'lat_lon_source': 'Third Party'}",37.834224,23.79457,ΒΑΡΗ,"{'opening_hours': {'Mon': '05:00-18:00', 'Tue': '05:00-18:00', 'Wed': '05:00-18:00', 'Thu': '05:00-18:00', 'Fri': '05:00-18:00', 'Sat': '05:00-18:00', 'Sun': '05:00-18:00'}}","2108991803,2108991038",16672,39,,vari
"Kανάρη 28-30 & Π.Τσαλδάρη 29, 16232 ΒΥΡΩΝΑΣ, Ελλάδα",AB Vassilopoulos,ΒΥΡΩΝΑΣ,Greece,"{'brand': 'AB Vassilopoulos', 'fascia': 'AB', 'category': 'Retail', 'edit_date': '20250518', 'lat_lon_source': 'Third Party'}",37.961215,23.751327,ΒΥΡΩΝΑΣ 2 ΚΑΝΑΡΗ,"{'opening_hours': {'Mon': '05:00-18:00', 'Tue': '05:00-18:00', 'Wed': '05:00-18:00', 'Thu': '05:00-18:00', 'Fri': '05:00-18:00', 'Sat': '05:00-18:00', 'Sun': '05:00-18:00'}}",2107640800,16232,45,,vyronas-2-kanari
"Θερμοπυλών & Γκοτσόγλου, 23100 ΣΠΑΡΤΗ, Ελλάδα",AB Vassilopoulos,ΣΠΑΡΤΗ,Greece,"{'brand': 'AB Vassilopoulos', 'fascia': 'AB', 'category': 'Retail', 'edit_date': '20250518', 'lat_lon_source': 'Third Party'}",37.077024,22.428052,ΣΠΑΡΤΗ ΘΕΡΜΟΠΥΛΩΝ & ΓΚΟΤΣΟΓΛΟΥ,"{'opening_hours': {'Mon': '05:00-18:00', 'Tue': '05:00-18:00', 'Wed': '05:00-18:00', 'Thu': '05:00-18:00', 'Fri': '05:00-18:00', 'Sat': '05:00-18:00', 'Sun': '05:00-18:00'}}",2731-081.751,23100,46,,sparti-thermopylon-and-gkotsogloy
"Λ. Κύμης & Σκουφά Ν. Ηράκλειο, 14122 Ν. ΗΡΑΚΛΕΙΟ, Ελλάδα",AB Vassilopoulos,Ν. ΗΡΑΚΛΕΙΟ,Greece,"{'brand': 'AB Vassilopoulos', 'fascia': 'AB', 'category': 'Retail', 'edit_date': '20250518', 'lat_lon_source': 'Third Party'}",38.049033,23.782507,Ν. ΗΡΑΚΛΕΙΟ Λ. ΚΥΜΗΣ,"{'opening_hours': {'Mon': '05:00-18:00', 'Tue': '05:00-18:00', 'Wed': '05:00-18:00', 'Thu': '05:00-18:00', 'Fri': '05:00-18:00', 'Sat': '05:00-18:00', 'Sun': '05:00-18:00'}}","2102834360,2102834361",14122,47,,n-irakleio-l-kymis
"Εθ. Μακαρίου 54 & Αγ. Παύλου, 12131 ΠΕΡΙΣΤΕΡΙ, Ελλάδα",AB Vassilopoulos,ΠΕΡΙΣΤΕΡΙ,Greece,"{'brand': 'AB Vassilopoulos', 'fascia': 'AB', 'category': 'Retail', 'edit_date': '20250518', 'lat_lon_source': 'Third Party'}",38.004983,23.701368,ΠΕΡΙΣΤΕΡΙ 1 ΕΘ. ΜΑΚΑΡΙΟΥ,"{'opening_hours': {'Mon': '05:00-18:00', 'Tue': '05:00-18:00', 'Wed': '05:00-18:00', 'Thu': '05:00-18:00', 'Fri': '05:00-18:00', 'Sat': '05:00-18:00', 'Sun': '05:00-18:00'}}","2105770538,2105771401",12131,49,,peristeri-1-eth-makarioy
"Κονοπισοπούλου 18 Γαρουλάνου & Γεννηματά 19, 11125 ΑΜΠΕΛΟΚΗΠΟΙ, Ελλάδα",AB Vassilopoulos,ΑΜΠΕΛΟΚΗΠΟΙ,Greece,"{'brand': 'AB Vassilopoulos', 'fascia': 'AB', 'category': 'Retail', 'edit_date': '20250518', 'lat_lon_source': 'Third Party'}",37.994302,23.764632,ΑΜΠΕΛΟΚΗΠΟΙ ΚΟΝΟΠΙΣΟΠΟΥΛΟΥ,"{'opening_hours': {'Mon': '05:00-18:00', 'Tue': '05:00-18:00', 'Wed': '05:00-18:00', 'Thu': '05:00-18:00', 'Fri': '05:00-18:00', 'Sat': '05:00-18:00', 'Sun': '05:00-18:00'}}","2106926600,2106926779",11125,51,,ampelokipoi-konopisopoyloy
"Αγ. Κυριακής 5 & Χαρίτων, 17564 Π. ΦΑΛΗΡΟ, Ελλάδα",AB Vassilopoulos,Π. ΦΑΛΗΡΟ,Greece,"{'brand': 'AB Vassilopoulos', 'fascia': 'AB', 'category': 'Retail', 'edit_date': '20250518', 'lat_lon_source': 'Third Party'}",37.934048,23.696877,Π. ΦΑΛΗΡΟ ΑΓ. ΚΥΡΙΑΚΗΣ,"{'opening_hours': {'Mon': '05:00-18:00', 'Tue': '05:00-18:00', 'Wed': '05:00-18:00', 'Thu': '05:00-18:00', 'Fri': '05:00-18:00', 'Sat': '05:00-18:00', 'Sun': '05:00-18:00'}}","2109411222,2109411323",17564,52,,p-faliro-ag-kyriakis
"Σοφούλη 54 - 56 & καθ. Ρωσίδη, 54655 ΘΕΣΣΑΛΟΝΙΚΗ, Ελλάδα",AB Vassilopoulos,ΘΕΣΣΑΛΟΝΙΚΗ,Greece,"{'brand': 'AB Vassilopoulos', 'fascia': 'AB', 'category': 'Retail', 'edit_date': '20250518', 'lat_lon_source': 'Third Party'}",40.592962,22.950149,ΘΕΣ/ΚΗ ΣΟΦΟΥΛΗ,"{'opening_hours': {'Mon': '05:00-18:00', 'Tue': '05:00-18:00', 'Wed': '05:00-18:00', 'Thu': '05:00-18:00', 'Fri': '05:00-18:00', 'Sat': '05:00-18:00', 'Sun': '05:00-18:00'}}","2310422553,2310416840",54655,53,,thes-ki-sofoyli
"Νικήτα 14 Πειραιάς, 18531 ΠΕΙΡΑΙΑΣ, Ελλάδα",AB Vassilopoulos,ΠΕΙΡΑΙΑΣ,Greece,"{'brand': 'AB Vassilopoulos', 'fascia': 'ABCITY', 'category': 'Retail', 'edit_date': '20250518', 'lat_lon_source': 'Third Party'}",37.946197,23.644745,ΠΕΙΡΑΙΑΣ CITY ΝΙΚΗΤΑ,"{'opening_hours': {'Mon': '05:00-18:00', 'Tue': '05:00-18:00', 'Wed': '05:00-18:00', 'Thu': '05:00-18:00', 'Fri': '05:00-18:00', 'Sat': '05:00-18:00', 'Sun': '05:00-18:00'}}",2104190410,18531,55,,peiraias-city-nikita
"Λ. Μεσογείων 316 & Κονδυλάκη, 15341 ΑΓ.ΠΑΡΑΣΚΕΥΗ, Ελλάδα",AB Vassilopoulos,ΑΓ.ΠΑΡΑΣΚΕΥΗ,Greece,"{'brand': 'AB Vassilopoulos', 'fascia': 'AB', 'category': 'Retail', 'edit_date': '20250518', 'lat_lon_source': 'Third Party'}",38.009114,23.806173,ΑΓ.ΠΑΡΑΣΚΕΥΗ 1 ΝΟΜΙΣΜΑΤΟΚΟΠΕΙΟ,"{'opening_hours': {'Mon': '05:00-18:00', 'Tue': '05:00-18:00', 'Wed': '05:00-18:00', 'Thu': '05:00-18:00', 'Fri': '05:00-18:00', 'Sat': '05:00-18:00', 'Sun': '05:00-18:00'}}","2106548094,2106548066",15341,57,,ag-paraskeyi-1-nomismatokopeio
"Γρ. Λαμπράκη 25 και Σίφνου 10, 54351 ΤΟΥΜΠΑ, Ελλάδα",AB Vassilopoulos,ΤΟΥΜΠΑ,Greece,"{'brand': 'AB Vassilopoulos', 'fascia': 'AB', 'category': 'Retail', 'edit_date': '20250518', 'lat_lon_source': 'Third Party'}",40.620126,22.966872,ΘΕΣ/ΚΗ ΤΟΥΜΠΑ ΓΡ. ΛΑΜΠΡΑΚΗ,"{'opening_hours': {'Mon': '05:00-18:00', 'Tue': '05:00-18:00', 'Wed': '05:00-18:00', 'Thu': '05:00-18:00', 'Fri': '05:00-18:00', 'Sat': '05:00-18:00', 'Sun': '05:00-18:00'}}","2310930201,2310930201",54351,58,,thes-ki-toympa-gr-lampraki
"Κέρκυρας 28 & Παξών 21, 11362 ΚΥΨΕΛΗ, Ελλάδα",AB Vassilopoulos,ΚΥΨΕΛΗ,Greece,"{'brand': 'AB Vassilopoulos', 'fascia': 'AB', 'category': 'Retail', 'edit_date': '20250518', 'lat_lon_source': 'Third Party'}",37.99726,23.73985,ΚΥΨΕΛΗ 2 ΚΕΡΚΥΡΑΣ & ΠΑΞΩΝ,"{'opening_hours': {'Mon': '05:00-18:00', 'Tue': '05:00-18:00', 'Wed': '05:00-18:00', 'Thu': '05:00-18:00', 'Fri': '05:00-18:00', 'Sat': '05:00-18:00', 'Sun': '05:00-18:00'}}","2108226160,2108222006",11362,71,,kypseli-2-kerkyras-and-paxon
"Θηβών-Ιδομενέως & Ανωνύμου Οδού, 13121 ΙΛΙΟΝ, Ελλάδα",AB Vassilopoulos,ΙΛΙΟΝ,Greece,"{'brand': 'AB Vassilopoulos', 'fascia': 'AB', 'category': 'Retail', 'edit_date': '20250518', 'lat_lon_source': 'Third Party'}",38.031058,23.701278,ΙΛΙΟΝ ΘΗΒΩΝ,"{'opening_hours': {'Mon': '05:00-18:00', 'Tue': '05:00-18:00', 'Wed': '05:00-18:00', 'Thu': '05:00-18:00', 'Fri': '05:00-18:00', 'Sat': '05:00-18:00', 'Sun': '05:00-18:00'}}","2102639110,2102639112",13121,72,,ilion-thivon
"Λ. Μεσογείων 430, 15342 ΑΓ.ΠΑΡΑΣΚΕΥΗ, Ελλάδα",AB Vassilopoulos,ΑΓ.ΠΑΡΑΣΚΕΥΗ,Greece,"{'brand': 'AB Vassilopoulos', 'fascia': 'AB', 'category': 'Retail', 'edit_date': '20250518', 'lat_lon_source': 'Third Party'}",38.013621,23.82432,ΑΓ.ΠΑΡΑΣΚΕΥΗ 2 ΕΡΤ,"{'opening_hours': {'Mon': '05:00-18:00', 'Tue': '05:00-18:00', 'Wed': '05:00-18:00', 'Thu': '05:00-18:00', 'Fri': '05:00-18:00', 'Sat': '05:00-18:00', 'Sun': '05:00-18:00'}}","2106083064,2106083066",15342,73,,ag-paraskeyi-2-ert
"11o χλμ. Θεσ/νίκης - Αεροδρομίου, 57001 ΘΕΣΣΑΛΟΝΙΚΗ, Ελλάδα",AB Vassilopoulos,ΘΕΣΣΑΛΟΝΙΚΗ,Greece,"{'brand': 'AB Vassilopoulos', 'fascia': 'AB', 'category': 'Retail', 'edit_date': '20250518', 'lat_lon_source': 'Third Party'}",40.552075,22.982038,ΘΕΣ/ΚΗ ΜΑΚΕΔΟΝΙΑ,"{'opening_hours': {'Mon': '05:00-18:00', 'Tue': '05:00-18:00', 'Wed': '05:00-18:00', 'Thu': '05:00-18:00', 'Fri': '05:00-18:00', 'Sat': '05:00-18:00', 'Sun': '05:00-18:00'}}","2310471183,2310471184",57001,74,,thes-ki-makedonia
"Κουσίδου 28 & Υακίνθων, 15772 ΖΩΓΡΑΦΟΥ, Ελλάδα",AB Vassilopoulos,ΖΩΓΡΑΦΟΥ,Greece,"{'brand': 'AB Vassilopoulos', 'fascia': 'AB', 'category': 'Retail', 'edit_date': '20250518', 'lat_lon_source': 'Third Party'}",37.975291,23.776978,ΖΩΓΡΑΦΟΥ ΚΟΥΣΙΔΟΥ,"{'opening_hours': {'Mon': '05:00-18:00', 'Tue': '05:00-18:00', 'Wed': '05:00-18:00', 'Thu': '05:00-18:00', 'Fri': '05:00-18:00', 'Sat': '05:00-18:00', 'Sun': '05:00-18:00'}}","2107714447,2107797804",15772,77,,zografoy-koysidoy
"Λ. Ειρήνης 48 & Κοραή, 15121 ΠΕΥΚΗ, Ελλάδα",AB Vassilopoulos,ΠΕΥΚΗ,Greece,"{'brand': 'AB Vassilopoulos', 'fascia': 'AB', 'category': 'Retail', 'edit_date': '20250518', 'lat_lon_source': 'Third Party'}",38.059742,23.78746,ΠΕΥΚΗ Λ. ΕΙΡΗΝΗΣ,"{'opening_hours': {'Mon': '05:00-18:00', 'Tue': '05:00-18:00', 'Wed': '05:00-18:00', 'Thu': '05:00-18:00', 'Fri': '05:00-18:00', 'Sat': '05:00-18:00', 'Sun': '05:00-18:00'}}","2106129474,2106129476",15121,85,,peyki-l-eirinis
"Λ. Πεντέλης 84 & Θησέως, 15234 ΧΑΛΑΝΔΡΙ, Ελλάδα",AB Vassilopoulos,ΧΑΛΑΝΔΡΙ,Greece,"{'brand': 'AB Vassilopoulos', 'fascia': 'AB', 'category': 'Retail', 'edit_date': '20250518', 'lat_lon_source': 'Third Party'}",38.02745,23.812667,ΧΑΛΑΝΔΡΙ FREE FLOW Λ. ΠΕΝΤΕΛΗΣ,"{'opening_hours': {'Mon': '05:00-18:00', 'Tue': '05:00-18:00', 'Wed': '05:00-18:00', 'Thu': '05:00-18:00', 'Fri': '05:00-18:00', 'Sat': '05:00-18:00', 'Sun': '05:00-18:00'}}","2106898951,2106898952",15234,92,,chalandri-free-flow-l-pentelis
"Μουταλάσκη 53, 14234 ΚΑΛΟΓΡΕΖΑ, Ελλάδα",AB Vassilopoulos,ΚΑΛΟΓΡΕΖΑ,Greece,"{'brand': 'AB Vassilopoulos', 'fascia': 'AB', 'category': 'Retail', 'edit_date': '20250518', 'lat_lon_source': 'Third Party'}",38.03818,23.766394,ΚΑΛΟΓΡΕΖΑ ΜΟΥΤΑΛΑΣΚΗ,"{'opening_hours': {'Mon': '05:00-18:00', 'Tue': '05:00-18:00', 'Wed': '05:00-18:00', 'Thu': '05:00-18:00', 'Fri': '05:00-18:00', 'Sat': '05:00-18:00', 'Sun': '05:00-18:00'}}",2102797886,14234,244,,kalogreza-moytalaski
"Χαϊνά 271, 34100 ΧΑΛΚΙΔΑ, Ελλάδα",AB Vassilopoulos,ΧΑΛΚΙΔΑ,Greece,"{'brand': 'AB Vassilopoulos', 'fascia': 'AB', 'category': 'Retail', 'edit_date': '20250518', 'lat_lon_source': 'Third Party'}",38.469593,23.609544,ΧΑΛΚΙΔΑ 2 ΧΑΪΝΑ,"{'opening_hours': {'Mon': '05:00-18:00', 'Tue': '05:00-18:00', 'Wed': '05:00-18:00', 'Thu': '05:00-18:00', 'Fri': '05:00-18:00', 'Sat': '05:00-18:00', 'Sun': '05:00-18:00'}}","2221075669,2221078559",34100,245,,chalkida-2-chaina
"Συρρακούσων 56 -58, 11142 ΛΑΜΠΡΙΝΗ, Ελλάδα",AB Vassilopoulos,ΛΑΜΠΡΙΝΗ,Greece,"{'brand': 'AB Vassilopoulos', 'fascia': 'AB', 'category': 'Retail', 'edit_date': '20250518', 'lat_lon_source': 'Third Party'}",38.025139,23.749322,ΛΑΜΠΡΙΝΗ ΣΥΡΑΚΟΥΣΩΝ,"{'opening_hours': {'Mon': '05:00-18:00', 'Tue': '05:00-18:00', 'Wed': '05:00-18:00', 'Thu': '05:00-18:00', 'Fri': '05:00-18:00', 'Sat': '05:00-18:00', 'Sun': '05:00-18:00'}}","2102934988,2102221517",11142,246,,lamprini-syrakoyson
"25ης Μαρτίου 179, 13231 ΠΕΤΡΟΥΠΟΛΗ, Ελλάδα",AB Vassilopoulos,ΠΕΤΡΟΥΠΟΛΗ,Greece,"{'brand': 'AB Vassilopoulos', 'fascia': 'AB', 'category': 'Retail', 'edit_date': '20250518', 'lat_lon_source': 'Third Party'}",38.036881,23.69312,ΠΕΤΡΟΥΠΟΛΗ 25ης ΜΑΡΤΙΟΥ,"{'opening_hours': {'Mon': '05:00-18:00', 'Tue': '05:00-18:00', 'Wed': '05:00-18:00', 'Thu': '05:00-18:00', 'Fri': '05:00-18:00', 'Sat': '05:00-18:00', 'Sun': '05:00-18:00'}}","2105065136,2105014805",13231,247,,petroypoli-25is-martioy
"Πλατεία Εθνικής Αντιστάσεως, 19200 ΕΛΕΥΣΙΝΑ, Ελλάδα",AB Vassilopoulos,ΕΛΕΥΣΙΝΑ,Greece,"{'brand': 'AB Vassilopoulos', 'fascia': 'AB', 'category': 'Retail', 'edit_date': '20250518', 'lat_lon_source': 'Third Party'}",38.047515,23.535106,ΕΛΕΥΣΙΝΑ ΠΛ. ΕΘΝ. ΑΝΤΙΣΤΑΣΕΩΣ,"{'opening_hours': {'Mon': '05:00-18:00', 'Tue': '05:00-18:00', 'Wed': '05:00-18:00', 'Thu': '05:00-18:00', 'Fri': '05:00-18:00', 'Sat': '05:00-18:00', 'Sun': '05:00-18:00'}}","2105549853,2105549854",19200,248,,eleysina-pl-ethn-antistaseos
"1ο χιλ. Ε.Ο. Άργους - Ναυπλίου, 21200 ΑΡΓΟΣ, Ελλάδα",AB Vassilopoulos,ΑΡΓΟΣ,Greece,"{'brand': 'AB Vassilopoulos', 'fascia': 'AB', 'category': 'Retail', 'edit_date': '20250518', 'lat_lon_source': 'Third Party'}",37.623357,22.751676,ΑΡΓΟΣ 1,"{'opening_hours': {'Mon': '05:00-18:00', 'Tue': '05:00-18:00', 'Wed': '05:00-18:00', 'Thu': '05:00-18:00', 'Fri': '05:00-18:00', 'Sat': '05:00-18:00', 'Sun': '05:00-18:00'}}",2751069157,21200,250,,argos-1
"Ελευθερίου Βενιζέλου 95, 12351 ΑΓ. ΒΑΡΒΑΡΑ, Ελλάδα",AB Vassilopoulos,ΑΓ. ΒΑΡΒΑΡΑ,Greece,"{'brand': 'AB Vassilopoulos', 'fascia': 'AB', 'category': 'Retail', 'edit_date': '20250518', 'lat_lon_source': 'Third Party'}",37.986208,23.658115,ΑΓ. ΒΑΡΒΑΡΑ ΕΛ.ΒΕΝΙΖΕΛΟΥ,"{'opening_hours': {'Mon': '05:00-18:00', 'Tue': '05:00-18:00', 'Wed': '05:00-18:00', 'Thu': '05:00-18:00', 'Fri': '05:00-18:00', 'Sat': '05:00-18:00', 'Sun': '05:00-18:00'}}","2105615108,2105615148",12351,251,,ag-varvara-el-venizeloy
"Ελλήσποντου 2, 18451 ΝΙΚΑΙΑ, Ελλάδα",AB Vassilopoulos,ΝΙΚΑΙΑ,Greece,"{'brand': 'AB Vassilopoulos', 'fascia': 'AB', 'category': 'Retail', 'edit_date': '20250518', 'lat_lon_source': 'Third Party'}",37.976008,23.640753,ΝΙΚΑΙΑ ΕΛΛΗΣΠΟΝΤΟΥ,"{'opening_hours': {'Mon': '05:00-18:00', 'Tue': '05:00-18:00', 'Wed': '05:00-18:00', 'Thu': '05:00-18:00', 'Fri': '05:00-18:00', 'Sat': '05:00-18:00', 'Sun': '05:00-18:00'}}",2104256297,18451,252,,nikaia-ellispontoy
"Κολοκοτρώνη 10, 20100 ΚΟΡΙΝΘΟΣ, Ελλάδα",AB Vassilopoulos,ΚΟΡΙΝΘΟΣ,Greece,"{'brand': 'AB Vassilopoulos', 'fascia': 'AB', 'category': 'Retail', 'edit_date': '20250518', 'lat_lon_source': 'Third Party'}",37.939942,22.932345,ΚΟΡΙΝΘΟΣ 2 ΚΟΛΟΚΟΤΡΩΝΗ,"{'opening_hours': {'Mon': '05:00-18:00', 'Tue': '05:00-18:00', 'Wed': '05:00-18:00', 'Thu': '05:00-18:00', 'Fri': '05:00-18:00', 'Sat': '05:00-18:00', 'Sun': '05:00-18:00'}}","2741085281,2741085282",20100,258,,korinthos-2-kolokotroni
"Αργυροκάστρου 54, 30100 ΑΓΡΙΝΙΟ, Ελλάδα",AB Vassilopoulos,ΑΓΡΙΝΙΟ,Greece,"{'brand': 'AB Vassilopoulos', 'fascia': 'AB', 'category': 'Retail', 'edit_date': '20250518', 'lat_lon_source': 'Third Party'}",38.630441,21.395592,ΑΓΡΙΝΙΟ 1 ΑΡΓΥΡΟΚΑΣΤΡΟΥ,"{'opening_hours': {'Mon': '05:00-18:00', 'Tue': '05:00-18:00', 'Wed': '05:00-18:00', 'Thu': '05:00-18:00', 'Fri': '05:00-18:00', 'Sat': '05:00-18:00', 'Sun': '05:00-18:00'}}","26410-53.509,26410-53.509",30100,259,,agrinio-1-argyrokastroy
"2ας Νοεμβρίου 107, 38333 ΒΟΛΟΣ, Ελλάδα",AB Vassilopoulos,ΒΟΛΟΣ,Greece,"{'brand': 'AB Vassilopoulos', 'fascia': 'AB', 'category': 'Retail', 'edit_date': '20250518', 'lat_lon_source': 'Third Party'}",39.36543,22.939656,ΒΟΛΟΣ 1 2ΑΣ ΝΟΕΜΒΡΙΟΥ,"{'opening_hours': {'Mon': '05:00-18:00', 'Tue': '05:00-18:00', 'Wed': '05:00-18:00', 'Thu': '05:00-18:00', 'Fri': '05:00-18:00', 'Sat': '05:00-18:00', 'Sun': '05:00-18:00'}}","2421032412,2421032413",38333,261,,volos-1-2as-noemvrioy
"Πεύκων 26, 15126 ΜΕΤΑΜΟΡΦΩΣΗ, Ελλάδα",AB Vassilopoulos,ΜΕΤΑΜΟΡΦΩΣΗ,Greece,"{'brand': 'AB Vassilopoulos', 'fascia': 'AB', 'category': 'Retail', 'edit_date': '20250518', 'lat_lon_source': 'Third Party'}",38.057539,23.757601,ΜΕΤΑΜΟΡΦΩΣΗ ΠΕΥΚΩΝ,"{'opening_hours': {'Mon': '05:00-18:00', 'Tue': '05:00-18:00', 'Wed': '05:00-18:00', 'Thu': '05:00-18:00', 'Fri': '05:00-18:00', 'Sat': '05:00-18:00', 'Sun': '05:00-18:00'}}","2102843456,2102843457",15126,264,,metamorfosi-peykon
"Β. Αλεξάνδρου 18 & Πλούταρχου, 15122 ΜΑΡΟΥΣΙ, Ελλάδα",AB Vassilopoulos,ΜΑΡΟΥΣΙ,Greece,"{'brand': 'AB Vassilopoulos', 'fascia': 'ABCITY', 'category': 'Retail', 'edit_date': '20250518', 'lat_lon_source': 'Third Party'}",38.061442,23.801043,ΜΑΡΟΥΣΙ CITY Β.ΑΛΕΞΑΝΔΡΟΥ,"{'opening_hours': {'Mon': '05:00-18:00', 'Tue': '05:00-18:00', 'Wed': '05:00-18:00', 'Thu': '05:00-18:00', 'Fri': '05:00-18:00', 'Sat': '05:00-18:00', 'Sun': '05:00-18:00'}}","2108067501,2106148474",15122,267,,maroysi-city-v-alexandroy
"Κρήτης 13, 24100 ΚΑΛΑΜΑΤΑ, Ελλάδα",AB Vassilopoulos,ΚΑΛΑΜΑΤΑ,Greece,"{'brand': 'AB Vassilopoulos', 'fascia': 'AB', 'category': 'Retail', 'edit_date': '20250518', 'lat_lon_source': 'Third Party'}",37.027738,22.111948,ΚΑΛΑΜΑΤΑ 1 ΚΡΗΤΗΣ,"{'opening_hours': {'Mon': '05:00-18:00', 'Tue': '05:00-18:00', 'Wed': '05:00-18:00', 'Thu': '05:00-18:00', 'Fri': '05:00-18:00', 'Sat': '05:00-18:00', 'Sun': '05:00-18:00'}}",2721092811,24100,270,,kalamata-1-kritis
"2ο Χιλ. Ε.Ο. Κέρκυρας- Παλ/τσας (Κογεβίνα), 49100 ΚΕΡΚΥΡΑ, Ελλάδα",AB Vassilopoulos,ΚΕΡΚΥΡΑ,Greece,"{'brand': 'AB Vassilopoulos', 'fascia': 'AB', 'category': 'Retail', 'edit_date': '20250518', 'lat_lon_source': 'Third Party'}",39.622065,19.901645,ΚΕΡΚΥΡΑ 3 ΣΟΛΑΡΙ-ΚΟΓΕΒΙΝΑ,"{'opening_hours': {'Mon': '05:00-18:00', 'Tue': '05:00-18:00', 'Wed': '05:00-18:00', 'Thu': '05:00-18:00', 'Fri': '05:00-18:00', 'Sat': '05:00-18:00', 'Sun': '05:00-18:00'}}",2661026935,49100,271,,kerkyra-3-solari-kogevina
"Φαρσάλων 43, 12133 ΠΕΡΙΣΤΕΡΙ, Ελλάδα",AB Vassilopoulos,ΠΕΡΙΣΤΕΡΙ,Greece,"{'brand': 'AB Vassilopoulos', 'fascia': 'AB', 'category': 'Retail', 'edit_date': '20250518', 'lat_lon_source': 'Third Party'}",38.02163,23.694761,ΠΕΡΙΣΤΕΡΙ 3 ΦΑΡΣΑΛΩΝ,"{'opening_hours': {'Mon': '05:00-18:00', 'Tue': '05:00-18:00', 'Wed': '05:00-18:00', 'Thu': '05:00-18:00', 'Fri': '05:00-18:00', 'Sat': '05:00-18:00', 'Sun': '05:00-18:00'}}","2105777742,2105777743",12133,272,,peristeri-3-farsalon
"Καρπενησίου 25, 12131 ΠΕΡΙΣΤΕΡΙ, Ελλάδα",AB Vassilopoulos,ΠΕΡΙΣΤΕΡΙ,Greece,"{'brand': 'AB Vassilopoulos', 'fascia': 'AB', 'category': 'Retail', 'edit_date': '20250518', 'lat_lon_source': 'Third Party'}",38.008402,23.68895,ΠΕΡΙΣΤΕΡΙ 2 ΚΑΡΠΕΝΗΣΙΟΥ,"{'opening_hours': {'Mon': '05:00-18:00', 'Tue': '05:00-18:00', 'Wed': '05:00-18:00', 'Thu': '05:00-18:00', 'Fri': '05:00-18:00', 'Sat': '05:00-18:00', 'Sun': '05:00-18:00'}}","2105780628,2105744528",12131,277,,peristeri-2-karpenisioy
"Μονής Σέλτσου & Παν. Μακρή (γωνία), 11443 ΠΑΤΗΣΙΑ, Ελλάδα",AB Vassilopoulos,ΠΑΤΗΣΙΑ,Greece,"{'brand': 'AB Vassilopoulos', 'fascia': 'AB', 'category': 'Retail', 'edit_date': '20250518', 'lat_lon_source': 'Third Party'}",38.02506,23.73401,ΠΑΤΗΣΙΑ 2 ΜΟΝΗΣ ΣΕΛΤΣΟΥ,"{'opening_hours': {'Mon': '05:00-18:00', 'Tue': '05:00-18:00', 'Wed': '05:00-18:00', 'Thu': '05:00-18:00', 'Fri': '05:00-18:00', 'Sat': '05:00-18:00', 'Sun': '05:00-18:00'}}","2102586132,2102586133",11443,280,,patisia-2-monis-seltsoy
"Νεοφύτου & Κοτοπούλη, 34100 ΧΑΛΚΙΔΑ, Ελλάδα",AB Vassilopoulos,ΧΑΛΚΙΔΑ,Greece,"{'brand': 'AB Vassilopoulos', 'fascia': 'AB', 'category': 'Retail', 'edit_date': '20250518', 'lat_lon_source': 'Third Party'}",38.46296,23.595885,ΧΑΛΚΙΔΑ 3 ΚΕΝΤΡΙΚΗ ΑΓΟΡΑ,"{'opening_hours': {'Mon': '05:00-18:00', 'Tue': '05:00-18:00', 'Wed': '05:00-18:00', 'Thu': '05:00-18:00', 'Fri': '05:00-18:00', 'Sat': '05:00-18:00', 'Sun': '05:00-18:00'}}","2221087769,2221087779",34100,282,,chalkida-3-kentriki-agora
"Σμύρνης 5, 81100 ΜΥΤΙΛΗΝΗ, Ελλάδα",AB Vassilopoulos,ΜΥΤΙΛΗΝΗ,Greece,"{'brand': 'AB Vassilopoulos', 'fascia': 'AB', 'category': 'Retail', 'edit_date': '20250518', 'lat_lon_source': 'Third Party'}",39.102133,26.555208,ΜΥΤΙΛΗΝΗ ΣΜΥΡΝΗΣ,"{'opening_hours': {'Mon': '05:00-18:00', 'Tue': '05:00-18:00', 'Wed': '05:00-18:00', 'Thu': '05:00-18:00', 'Fri': '05:00-18:00', 'Sat': '05:00-18:00', 'Sun': '05:00-18:00'}}",2251037756,81100,283,,mytilini-smyrnis
"Πολυμέρη 163 & Γαρέφη, 38222 ΒΟΛΟΣ, Ελλάδα",AB Vassilopoulos,ΒΟΛΟΣ,Greece,"{'brand': 'AB Vassilopoulos', 'fascia': 'AB', 'category': 'Retail', 'edit_date': '20250518', 'lat_lon_source': 'Third Party'}",39.353047,22.962359,ΒΟΛΟΣ 2 ΠΟΛΥΜΕΡΗ ΝΟΣΟΚΟΜΕΙΟ,"{'opening_hours': {'Mon': '05:00-18:00', 'Tue': '05:00-18:00', 'Wed': '05:00-18:00', 'Thu': '05:00-18:00', 'Fri': '05:00-18:00', 'Sat': '05:00-18:00', 'Sun': '05:00-18:00'}}","2421021198,242139022",38222,285,,volos-2-polymeri-nosokomeio
"Λ. Γράμμου 28, 45445 ΙΩΑΝΝΙΝΑ, Ελλάδα",AB Vassilopoulos,ΙΩΑΝΝΙΝΑ,Greece,"{'brand': 'AB Vassilopoulos', 'fascia': 'AB', 'category': 'Retail', 'edit_date': '20250518', 'lat_lon_source': 'Third Party'}",39.683237,20.835072,ΙΩΑΝΝΙΝΑ 3 Λ. ΓΡΑΜΜΟΥ,"{'opening_hours': {'Mon': '05:00-18:00', 'Tue': '05:00-18:00', 'Wed': '05:00-18:00', 'Thu': '05:00-18:00', 'Fri': '05:00-18:00', 'Sat': '05:00-18:00', 'Sun': '05:00-18:00'}}",2651065283,45445,286,,ioannina-3-l-grammoy
"Χρ. Μπέκα - Αιγαίου & Λύγκου, 19004 ΣΠΑΤΑ, Ελλάδα",AB Vassilopoulos,ΣΠΑΤΑ,Greece,"{'brand': 'AB Vassilopoulos', 'fascia': 'AB', 'category': 'Retail', 'edit_date': '20250518', 'lat_lon_source': 'Third Party'}",37.960905,23.926035,ΣΠΑΤΑ,"{'opening_hours': {'Mon': '05:00-18:00', 'Tue': '05:00-18:00', 'Wed': '05:00-18:00', 'Thu': '05:00-18:00', 'Fri': '05:00-18:00', 'Sat': '05:00-18:00', 'Sun': '05:00-18:00'}}",2106630510,19004,301,,spata
"Αιγιαλείας 70-74 Μ. Μπότσαρη 3 & Ρ.Φεραίου 101, 25100 ΑΙΓΙΟ, Ελλάδα",AB Vassilopoulos,ΑΙΓΙΟ,Greece,"{'brand': 'AB Vassilopoulos', 'fascia': 'AB', 'category': 'Retail', 'edit_date': '20250518', 'lat_lon_source': 'Third Party'}",38.248176,22.089759,ΑΙΓΙΟ,"{'opening_hours': {'Mon': '05:00-18:00', 'Tue': '05:00-18:00', 'Wed': '05:00-18:00', 'Thu': '05:00-18:00', 'Fri': '05:00-18:00', 'Sat': '05:00-18:00', 'Sun': '05:00-18:00'}}","2691020589,2691020673",25100,302,,aigio
"Εθνικής Αντίστασης 18 Καλαμαριά - Θεσ/νικη, 55535 ΚΑΛΑΜΑΡΙΑ, Ελλάδα",AB Vassilopoulos,ΚΑΛΑΜΑΡΙΑ,Greece,"{'brand': 'AB Vassilopoulos', 'fascia': 'AB', 'category': 'Retail', 'edit_date': '20250518', 'lat_lon_source': 'Third Party'}",40.587444,22.961275,ΘΕΣ/ΚΗ ΒΥΖΑΝΤΙΟ ΕΘΝ.ΑΝΤΙΣΤΑΣΗΣ,"{'opening_hours': {'Mon': '05:00-18:00', 'Tue': '05:00-18:00', 'Wed': '05:00-18:00', 'Thu': '05:00-18:00', 'Fri': '05:00-18:00', 'Sat': '05:00-18:00', 'Sun': '05:00-18:00'}}","2310458971,2310458972",55535,303,,thes-ki-vyzantio-ethn-antistasis
"Αβέρωφ 38 - Μακελαράκη & Βυζαντινών Αυτοκρατόρων, 14232 ΠΕΡΙΣΣΟΣ, Ελλάδα",AB Vassilopoulos,ΠΕΡΙΣΣΟΣ,Greece,"{'brand': 'AB Vassilopoulos', 'fascia': 'AB', 'category': 'Retail', 'edit_date': '20250518', 'lat_lon_source': 'Third Party'}",38.034915,23.748554,ΠΕΡΙΣΣΟΣ,"{'opening_hours': {'Mon': '05:00-18:00', 'Tue': '05:00-18:00', 'Wed': '05:00-18:00', 'Thu': '05:00-18:00', 'Fri': '05:00-18:00', 'Sat': '05:00-18:00', 'Sun': '05:00-18:00'}}","2102514764,2102514469",14232,304,,perissos
"Πατησίων 240, 11256 ΑΘΗΝΑ, Ελλάδα",AB Vassilopoulos,ΑΘΗΝΑ,Greece,"{'brand': 'AB Vassilopoulos', 'fascia': 'AB', 'category': 'Retail', 'edit_date': '20250518', 'lat_lon_source': 'Third Party'}",38.008589,23.735463,ΡΑΔΙΟ CITY ΠΛΑΤΕΙΑ ΚΟΛΙΑΤΣΟΥ,"{'opening_hours': {'Mon': '05:00-18:00', 'Tue': '05:00-18:00', 'Wed': '05:00-18:00', 'Thu': '05:00-18:00', 'Fri': '05:00-18:00', 'Sat': '05:00-18:00', 'Sun': '05:00-18:00'}}","2108641278,2108641407",11256,305,,radio-city-plateia-koliatsoy
"Βαρβάκη 22-26 & Μομφεράτου 82, 11474 ΓΚΥΖΗ, Ελλάδα",AB Vassilopoulos,ΓΚΥΖΗ,Greece,"{'brand': 'AB Vassilopoulos', 'fascia': 'ABCITY', 'category': 'Retail', 'edit_date': '20250518', 'lat_lon_source': 'Third Party'}",37.990703,23.746171,ΓΚΥΖΗ CITY ΒΑΡΒΑΚΗ,"{'opening_hours': {'Mon': '05:00-18:00', 'Tue': '05:00-18:00', 'Wed': '05:00-18:00', 'Thu': '05:00-18:00', 'Fri': '05:00-18:00', 'Sat': '05:00-18:00', 'Sun': '05:00-18:00'}}","2106466852,2106466345",11474,306,,gkyzi-city-varvaki
"Σερρών 6 & Παλαιολόγου 2, 18120 ΚΟΡΥΔΑΛΛΟΣ, Ελλάδα",AB Vassilopoulos,ΚΟΡΥΔΑΛΛΟΣ,Greece,"{'brand': 'AB Vassilopoulos', 'fascia': 'AB', 'category': 'Retail', 'edit_date': '20250518', 'lat_lon_source': 'Third Party'}",37.976309,23.654039,ΚΟΡΥΔΑΛΟΣ ΣΕΡΡΩΝ & ΠΑΛΑΙΟΛΟΓΟΥ,"{'opening_hours': {'Mon': '05:00-18:00', 'Tue': '05:00-18:00', 'Wed': '05:00-18:00', 'Thu': '05:00-18:00', 'Fri': '05:00-18:00', 'Sat': '05:00-18:00', 'Sun': '05:00-18:00'}}","2104951435,2104969554",18120,307,,korydalos-serron-and-palaiologoy
"Λέσβου 5-7 & Ανδριανείου Κάτω Χαλάνδρι, 15231 ΧΑΛΑΝΔΡΙ, Ελλάδα",AB Vassilopoulos,ΧΑΛΑΝΔΡΙ,Greece,"{'brand': 'AB Vassilopoulos', 'fascia': 'AB', 'category': 'Retail', 'edit_date': '20250518', 'lat_lon_source': 'Third Party'}",38.013656,23.790315,ΧΑΛΑΝΔΡΙ 2 ΛΕΣΒΟΥ,"{'opening_hours': {'Mon': '05:00-18:00', 'Tue': '05:00-18:00', 'Wed': '05:00-18:00', 'Thu': '05:00-18:00', 'Fri': '05:00-18:00', 'Sat': '05:00-18:00', 'Sun': '05:00-18:00'}}","2106725284,2106725285",15231,309,,chalandri-2-lesvoy
"Ιερά Οδός 261 25ης Μαρτίου & Ξάνθου, 12244 ΑΙΓΑΛΕΩ, Ελλάδα",AB Vassilopoulos,ΑΙΓΑΛΕΩ,Greece,"{'brand': 'AB Vassilopoulos', 'fascia': 'AB', 'category': 'Retail', 'edit_date': '20250518', 'lat_lon_source': 'Third Party'}",37.992636,23.67713,ΑΙΓΑΛΕΩ ΙΕΡΑ ΟΔΟΣ,"{'opening_hours': {'Mon': '05:00-18:00', 'Tue': '05:00-18:00', 'Wed': '05:00-18:00', 'Thu': '05:00-18:00', 'Fri': '05:00-18:00', 'Sat': '05:00-18:00', 'Sun': '05:00-18:00'}}","2105313901,2105313902",12244,310,,aigaleo-iera-odos
"Λ. Καραμανλή 38-40 & Θρακομακεδόνων, 13678 ΜΕΝΙΔΙ, Ελλάδα",AB Vassilopoulos,ΜΕΝΙΔΙ,Greece,"{'brand': 'AB Vassilopoulos', 'fascia': 'AB', 'category': 'Retail', 'edit_date': '20250518', 'lat_lon_source': 'Third Party'}",38.101538,23.741834,ΜΕΝΙΔΙ Λ. ΚΑΡΑΜΑΝΛΗ,"{'opening_hours': {'Mon': '05:00-18:00', 'Tue': '05:00-18:00', 'Wed': '05:00-18:00', 'Thu': '05:00-18:00', 'Fri': '05:00-18:00', 'Sat': '05:00-18:00', 'Sun': '05:00-18:00'}}",2102476005,13678,311,,menidi-l-karamanli
"Κειριάδων 12 Σφηττίων & Αλκμήνης 5, 11854 ΠΕΤΡΑΛΩΝΑ, Ελλάδα",AB Vassilopoulos,ΠΕΤΡΑΛΩΝΑ,Greece,"{'brand': 'AB Vassilopoulos', 'fascia': 'AB', 'category': 'Retail', 'edit_date': '20250518', 'lat_lon_source': 'Third Party'}",37.974386,23.711002,ΠΕΤΡΑΛΩΝΑ,"{'opening_hours': {'Mon': '05:00-18:00', 'Tue': '05:00-18:00', 'Wed': '05:00-18:00', 'Thu': '05:00-18:00', 'Fri': '05:00-18:00', 'Sat': '05:00-18:00', 'Sun': '05:00-18:00'}}","2103469071,2103467750",11854,312,,petralona
"Μακεδονίας 2 & Τενέδου 8, 15235 ΔΟΥΚΙΣΣΗΣ ΠΛΑΚΕΝΤΙΑΣ, Ελλάδα",AB Vassilopoulos,ΔΟΥΚΙΣΣΗΣ ΠΛΑΚΕΝΤΙΑΣ,Greece,"{'brand': 'AB Vassilopoulos', 'fascia': 'AB', 'category': 'Retail', 'edit_date': '20250518', 'lat_lon_source': 'Third Party'}",38.026649,23.831694,ΔΟΥΚΙΣΣΗΣ ΠΛΑΚΕΝΤΙΑΣ,"{'opening_hours': {'Mon': '05:00-18:00', 'Tue': '05:00-18:00', 'Wed': '05:00-18:00', 'Thu': '05:00-18:00', 'Fri': '05:00-18:00', 'Sat': '05:00-18:00', 'Sun': '05:00-18:00'}}","2106084034,2106084130",15235,313,,doykissis-plakentias
"Φαιδριάδων 4-6, 11364 ΚΥΨΕΛΗ, Ελλάδα",AB Vassilopoulos,ΚΥΨΕΛΗ,Greece,"{'brand': 'AB Vassilopoulos', 'fascia': 'ABCITY', 'category': 'Retail', 'edit_date': '20250518', 'lat_lon_source': 'Third Party'}",38.003299,23.741538,ΚΥΨΕΛΗΣ CITY ΦΑΙΔΡΙΑΔΩΝ,"{'opening_hours': {'Mon': '05:00-18:00', 'Tue': '05:00-18:00', 'Wed': '05:00-18:00', 'Thu': '05:00-18:00', 'Fri': '05:00-18:00', 'Sat': '05:00-18:00', 'Sun': '05:00-18:00'}}",2108619375,11364,315,,kypselis-city-faidriadon
"Λαζαράκι 59, 16674 ΓΛΥΦΑΔΑ, Ελλάδα",AB Vassilopoulos,ΓΛΥΦΑΔΑ,Greece,"{'brand': 'AB Vassilopoulos', 'fascia': 'AB', 'category': 'Retail', 'edit_date': '20250518', 'lat_lon_source': 'Third Party'}",37.858666,23.753814,ΓΛΥΦΑΔΑ 2 ΛΑΖΑΡΑΚΗ,"{'opening_hours': {'Mon': '05:00-18:00', 'Tue': '05:00-18:00', 'Wed': '05:00-18:00', 'Thu': '05:00-18:00', 'Fri': '05:00-18:00', 'Sat': '05:00-18:00', 'Sun': '05:00-18:00'}}","2108943491,2108945574",16674,318,,glyfada-2-lazaraki
"Αλκέτου 5 & Υμηττού, 11633 ΠΑΓΚΡΑΤΙ, Ελλάδα",AB Vassilopoulos,ΠΑΓΚΡΑΤΙ,Greece,"{'brand': 'AB Vassilopoulos', 'fascia': 'AB', 'category': 'Retail', 'edit_date': '20250518', 'lat_lon_source': 'Third Party'}",37.965353,23.747545,ΠΑΓΚΡΑΤΙ 2 ΑΛΚΕΤΟΥ,"{'opening_hours': {'Mon': '05:00-18:00', 'Tue': '05:00-18:00', 'Wed': '05:00-18:00', 'Thu': '05:00-18:00', 'Fri': '05:00-18:00', 'Sat': '05:00-18:00', 'Sun': '05:00-18:00'}}","2107518711,2107518782",11633,319,,pagkrati-2-alketoy
"Φαρσάλων 111 & Διγενή Ακρίτα, 41335 ΛΑΡΙΣΑ, Ελλάδα",AB Vassilopoulos,ΛΑΡΙΣΑ,Greece,"{'brand': 'AB Vassilopoulos', 'fascia': 'AB', 'category': 'Retail', 'edit_date': '20250518', 'lat_lon_source': 'Third Party'}",39.621116,22.426506,ΛΑΡΙΣΑ ΦΑΡΣΑΛΩΝ,"{'opening_hours': {'Mon': '05:00-18:00', 'Tue': '05:00-18:00', 'Wed': '05:00-18:00', 'Thu': '05:00-18:00', 'Fri': '05:00-18:00', 'Sat': '05:00-18:00', 'Sun': '05:00-18:00'}}","2410670690,2410670699",41335,320,,larisa-farsalon
"Μαυρομιχάλη 157 & Διγενή Ακρίτα, 11472 ΑΘΗΝΑ, Ελλάδα",AB Vassilopoulos,ΑΘΗΝΑ,Greece,"{'brand': 'AB Vassilopoulos', 'fascia': 'AB', 'category': 'Retail', 'edit_date': '20250518', 'lat_lon_source': 'Third Party'}",37.988258,23.745018,ΠΟΛΥΤΕΧΝΟ ΜΑΥΡΟΜΙΧΑΛΗ,"{'opening_hours': {'Mon': '05:00-18:00', 'Tue': '05:00-18:00', 'Wed': '05:00-18:00', 'Thu': '05:00-18:00', 'Fri': '05:00-18:00', 'Sat': '05:00-18:00', 'Sun': '05:00-18:00'}}","2106463612,2106463690",11472,321,,polytechno-mayromichali
"Λ. Βουλιαγμένης 69 & Μένωνος, 11636 ΑΘΗΝΑ, Ελλάδα",AB Vassilopoulos,ΑΘΗΝΑ,Greece,"{'brand': 'AB Vassilopoulos', 'fascia': 'AB', 'category': 'Retail', 'edit_date': '20250518', 'lat_lon_source': 'Third Party'}",37.962643,23.734253,ΜΕΤΣ Λ. ΒΟΥΛΙΑΓΜΕΝΗΣ,"{'opening_hours': {'Mon': '05:00-18:00', 'Tue': '05:00-18:00', 'Wed': '05:00-18:00', 'Thu': '05:00-18:00', 'Fri': '05:00-18:00', 'Sat': '05:00-18:00', 'Sun': '05:00-18:00'}}",2109234007,11636,322,,mets-l-voyliagmenis
"Λ. Αμφιθέας 95-97 Άρεως 103 & Αγ. Τριάδος 36, 17564 Π.ΦΑΛΗΡΟ, Ελλάδα",AB Vassilopoulos,Π.ΦΑΛΗΡΟ,Greece,"{'brand': 'AB Vassilopoulos', 'fascia': 'AB', 'category': 'Retail', 'edit_date': '20250518', 'lat_lon_source': 'Third Party'}",37.930868,23.702684,ΑΜΦΙΘΕΑΣ,"{'opening_hours': {'Mon': '05:00-18:00', 'Tue': '05:00-18:00', 'Wed': '05:00-18:00', 'Thu': '05:00-18:00', 'Fri': '05:00-18:00', 'Sat': '05:00-18:00', 'Sun': '05:00-18:00'}}","2109802002,2109802010",17564,323,,amfitheas
"Ν. Δίκα & 19ης Μαϊου, 60100 ΚΑΤΕΡΙΝΗ, Ελλάδα",AB Vassilopoulos,ΚΑΤΕΡΙΝΗ,Greece,"{'brand': 'AB Vassilopoulos', 'fascia': 'AB', 'category': 'Retail', 'edit_date': '20250518', 'lat_lon_source': 'Third Party'}",40.273047,22.51518,ΚΑΤΕΡΙΝΗ Ν. ΔΙΚΑ,"{'opening_hours': {'Mon': '05:00-18:00', 'Tue': '05:00-18:00', 'Wed': '05:00-18:00', 'Thu': '05:00-18:00', 'Fri': '05:00-18:00', 'Sat': '05:00-18:00', 'Sun': '05:00-18:00'}}","2351037540,2351037543",60100,324,,katerini-n-dika
"7ο χλμ. Επαρχιακής οδού Κω - Χωρίων (στη θέση ΑΓ. Παύλος Ασφενδίου Κω του δήμου Δικαίου), 85300 ΚΩΣ, Ελλάδα",AB Vassilopoulos,ΚΩΣ,Greece,"{'brand': 'AB Vassilopoulos', 'fascia': 'AB', 'category': 'Retail', 'edit_date': '20250518', 'lat_lon_source': 'Third Party'}",36.877475,27.219429,ΚΩΣ 7ο ΧΛΜ Ε.Ο. ΚΩ-ΧΩΡΙΩΝ,"{'opening_hours': {'Mon': '05:00-18:00', 'Tue': '05:00-18:00', 'Wed': '05:00-18:00', 'Thu': '05:00-18:00', 'Fri': '05:00-18:00', 'Sat': '05:00-18:00', 'Sun': '05:00-18:00'}}","2242068840,2242068841",85300,325,,kos-7o-chlm-e-o-ko-chorion
"Θέση Αγία Τριάδα Ο.Τ. 291 επί των οδών Αγ. Τριάδος 28 & Ανωνύμου οδού, 32200 ΘΗΒΑ, Ελλάδα",AB Vassilopoulos,ΘΗΒΑ,Greece,"{'brand': 'AB Vassilopoulos', 'fascia': 'AB', 'category': 'Retail', 'edit_date': '20250518', 'lat_lon_source': 'Third Party'}",38.315186,23.314612,ΘΗΒΑ 2 ΘΕΣΗ ΑΓ. ΤΡΙΑΔΑ,"{'opening_hours': {'Mon': '05:00-18:00', 'Tue': '05:00-18:00', 'Wed': '05:00-18:00', 'Thu': '05:00-18:00', 'Fri': '05:00-18:00', 'Sat': '05:00-18:00', 'Sun': '05:00-18:00'}}","2262026201,226228646",32200,327,,thiva-2-thesi-ag-triada
"Καρδίτσης 65 (περιοχή Στρατώνες), 42100 ΤΡΙΚΑΛΑ, Ελλάδα",AB Vassilopoulos,ΤΡΙΚΑΛΑ,Greece,"{'brand': 'AB Vassilopoulos', 'fascia': 'AB', 'category': 'Retail', 'edit_date': '20250518', 'lat_lon_source': 'Third Party'}",39.544081,21.776773,ΤΡΙΚΑΛΑ ΠΕΡΙΟΧΗ ΣΤΡΑΤΩΝΕΣ,"{'opening_hours': {'Mon': '05:00-18:00', 'Tue': '05:00-18:00', 'Wed': '05:00-18:00', 'Thu': '05:00-18:00', 'Fri': '05:00-18:00', 'Sat': '05:00-18:00', 'Sun': '05:00-18:00'}}","2431025072,2431030702",42100,328,,trikala-periochi-stratones
"Κόμβος Πανόραμα Ο.Τ. 991 (στη συμβολή των οδών Κασλά & Διονύσου), 50100 ΚΟΖΑΝΗ, Ελλάδα",AB Vassilopoulos,ΚΟΖΑΝΗ,Greece,"{'brand': 'AB Vassilopoulos', 'fascia': 'AB', 'category': 'Retail', 'edit_date': '20250518', 'lat_lon_source': 'Third Party'}",40.303322,21.805037,ΚΟΖΑΝΗ,"{'opening_hours': {'Mon': '05:00-18:00', 'Tue': '05:00-18:00', 'Wed': '05:00-18:00', 'Thu': '05:00-18:00', 'Fri': '05:00-18:00', 'Sat': '05:00-18:00', 'Sun': '05:00-18:00'}}",2461049640,50100,330,,kozani
"Φιλίππου 34, 58100 ΓΙΑΝΝΙΤΣΑ, Ελλάδα",AB Vassilopoulos,ΓΙΑΝΝΙΤΣΑ,Greece,"{'brand': 'AB Vassilopoulos', 'fascia': 'AB', 'category': 'Retail', 'edit_date': '20250518', 'lat_lon_source': 'Third Party'}",40.785983,22.412407,ΓΙΑΝΝΙΤΣΑ ΦΙΛΙΠΠΟΥ,"{'opening_hours': {'Mon': '05:00-18:00', 'Tue': '05:00-18:00', 'Wed': '05:00-18:00', 'Thu': '05:00-18:00', 'Fri': '05:00-18:00', 'Sat': '05:00-18:00', 'Sun': '05:00-18:00'}}","2382027247,2382027440",58100,331,,giannitsa-filippoy
"Γούναρη 163 & Προφήτη Ηλία, 16674 ΓΛΥΦΑΔΑ, Ελλάδα",AB Vassilopoulos,ΓΛΥΦΑΔΑ,Greece,"{'brand': 'AB Vassilopoulos', 'fascia': 'AB', 'category': 'Retail', 'edit_date': '20250518', 'lat_lon_source': 'Third Party'}",37.874364,23.764399,ΓΛΥΦΑΔΑ 3 ΓΟΥΝΑΡΗ,"{'opening_hours': {'Mon': '05:00-18:00', 'Tue': '05:00-18:00', 'Wed': '05:00-18:00', 'Thu': '05:00-18:00', 'Fri': '05:00-18:00', 'Sat': '05:00-18:00', 'Sun': '05:00-18:00'}}",2109628097,16674,333,,glyfada-3-goynari
"Πετμεζά 36-38 & Κολοκοτρώνη, 20200 ΚΙΑΤΟ, Ελλάδα",AB Vassilopoulos,ΚΙΑΤΟ,Greece,"{'brand': 'AB Vassilopoulos', 'fascia': 'AB', 'category': 'Retail', 'edit_date': '20250518', 'lat_lon_source': 'Third Party'}",38.013078,22.745832,ΚΙΑΤΟ 2 ΠΕΤΜΕΖΑ,"{'opening_hours': {'Mon': '05:00-18:00', 'Tue': '05:00-18:00', 'Wed': '05:00-18:00', 'Thu': '05:00-18:00', 'Fri': '05:00-18:00', 'Sat': '05:00-18:00', 'Sun': '05:00-18:00'}}","2742021213,274227042",20200,334,,kiato-2-petmeza
"Ποταμού & Κρόνου 17, 18122 ΚΟΡΥΔΑΛΟΣ, Ελλάδα",AB Vassilopoulos,ΚΟΡΥΔΑΛΟΣ,Greece,"{'brand': 'AB Vassilopoulos', 'fascia': 'AB', 'category': 'Retail', 'edit_date': '20250518', 'lat_lon_source': 'Third Party'}",37.986269,23.642183,ΚΟΡΥΔΑΛΟΣ 3 ΚΡΟΝΟΥ,"{'opening_hours': {'Mon': '05:00-18:00', 'Tue': '05:00-18:00', 'Wed': '05:00-18:00', 'Thu': '05:00-18:00', 'Fri': '05:00-18:00', 'Sat': '05:00-18:00', 'Sun': '05:00-18:00'}}",2104950985,18122,336,,korydalos-3-kronoy
"Κομνηνών 1 Εθνομαρτύρων και Αναγεννήσεως, 17341 ΑΓ.ΔΗΜΗΤΡΙΟΣ, Ελλάδα",AB Vassilopoulos,ΑΓ.ΔΗΜΗΤΡΙΟΣ,Greece,"{'brand': 'AB Vassilopoulos', 'fascia': 'AB', 'category': 'Retail', 'edit_date': '20250518', 'lat_lon_source': 'Third Party'}",37.93351,23.720187,ΑΓ.ΔΗΜΗΤΡΙΟΣ ΚΟΜΝΗΝΩΝ,"{'opening_hours': {'Mon': '05:00-18:00', 'Tue': '05:00-18:00', 'Wed': '05:00-18:00', 'Thu': '05:00-18:00', 'Fri': '05:00-18:00', 'Sat': '05:00-18:00', 'Sun': '05:00-18:00'}}",2109373734,17341,337,,ag-dimitrios-komninon
"Λ. Ηλιουπόλεως 4 & Κασσιόπης 3, 17237 ΥΜΗΤΤΟΣ, Ελλάδα",AB Vassilopoulos,ΥΜΗΤΤΟΣ,Greece,"{'brand': 'AB Vassilopoulos', 'fascia': 'AB', 'category': 'Retail', 'edit_date': '20250518', 'lat_lon_source': 'Third Party'}",37.950268,23.741685,ΥΜΗΤΤΟΣ ΗΛΙΟΥΠΟΛΕΩΣ,"{'opening_hours': {'Mon': '05:00-18:00', 'Tue': '05:00-18:00', 'Wed': '05:00-18:00', 'Thu': '05:00-18:00', 'Fri': '05:00-18:00', 'Sat': '05:00-18:00', 'Sun': '05:00-18:00'}}","2109758570,2109758571",17237,338,,ymittos-ilioypoleos
"Λ. Καλαμακίου 93 & Αμμοχώστου (Θέση Αμπελάκια), 17455 ΑΛΙΜΟΣ, Ελλάδα",AB Vassilopoulos,ΑΛΙΜΟΣ,Greece,"{'brand': 'AB Vassilopoulos', 'fascia': 'AB', 'category': 'Retail', 'edit_date': '20250518', 'lat_lon_source': 'Third Party'}",37.918835,23.720134,ΑΛΙΜΟΣ Λ. ΚΑΛΑΜΑΚΙΟΥ,"{'opening_hours': {'Mon': '05:00-18:00', 'Tue': '05:00-18:00', 'Wed': '05:00-18:00', 'Thu': '05:00-18:00', 'Fri': '05:00-18:00', 'Sat': '05:00-18:00', 'Sun': '05:00-18:00'}}","2109801905,2109803356",17455,339,,alimos-l-kalamakioy
"Γ. Παπανδρέου 47, 14452 ΜΕΤΑΜΟΡΦΩΣΗ, Ελλάδα",AB Vassilopoulos,ΜΕΤΑΜΟΡΦΩΣΗ,Greece,"{'brand': 'AB Vassilopoulos', 'fascia': 'ABCITY', 'category': 'Retail', 'edit_date': '20250518', 'lat_lon_source': 'Third Party'}",38.061728,23.761121,ΜΕΤΑΜΟΡΦΩΣΗ 2 CITY,"{'opening_hours': {'Mon': '05:00-18:00', 'Tue': '05:00-18:00', 'Wed': '05:00-18:00', 'Thu': '05:00-18:00', 'Fri': '05:00-18:00', 'Sat': '05:00-18:00', 'Sun': '05:00-18:00'}}","2102838440,2102838442",14452,340,,metamorfosi-2-city
"Πανεπιστημίου & Δελφών, 30100 ΑΓΡΙΝΙΟ, Ελλάδα",AB Vassilopoulos,ΑΓΡΙΝΙΟ,Greece,"{'brand': 'AB Vassilopoulos', 'fascia': 'AB', 'category': 'Retail', 'edit_date': '20250518', 'lat_lon_source': 'Third Party'}",38.617344,21.419228,ΑΓΡΙΝΙΟ 4 ΠΑΝΕΠΙΣΤΗΜΙΟΥ,"{'opening_hours': {'Mon': '05:00-18:00', 'Tue': '05:00-18:00', 'Wed': '05:00-18:00', 'Thu': '05:00-18:00', 'Fri': '05:00-18:00', 'Sat': '05:00-18:00', 'Sun': '05:00-18:00'}}","2641053139,264153183",30100,344,,agrinio-4-panepistimioy
"Κουμουνδούρου & Παλαιολόγου 46-48, 43100 ΚΑΡΔΙΤΣΑ, Ελλάδα",AB Vassilopoulos,ΚΑΡΔΙΤΣΑ,Greece,"{'brand': 'AB Vassilopoulos', 'fascia': 'AB', 'category': 'Retail', 'edit_date': '20250518', 'lat_lon_source': 'Third Party'}",39.361676,21.922822,ΚΑΡΔΙΤΣΑ 2 ΚΟΥΜΟΥΝΔΟΥΡΟΥ,"{'opening_hours': {'Mon': '05:00-18:00', 'Tue': '05:00-18:00', 'Wed': '05:00-18:00', 'Thu': '05:00-18:00', 'Fri': '05:00-18:00', 'Sat': '05:00-18:00', 'Sun': '05:00-18:00'}}","2441041715,2441041716",43100,347,,karditsa-2-koymoyndoyroy
"Πριγκηπονήσων 10  Γκύζη, 11474 ΑΘΗΝΑ, Ελλάδα",AB Vassilopoulos,ΑΘΗΝΑ,Greece,"{'brand': 'AB Vassilopoulos', 'fascia': 'AB', 'category': 'Retail', 'edit_date': '20250518', 'lat_lon_source': 'Third Party'}",37.995639,23.748819,ΑΜΟΡΕ ΠΡΙΓΚΗΠΟΝΗΣΩΝ,"{'opening_hours': {'Mon': '05:00-18:00', 'Tue': '05:00-18:00', 'Wed': '05:00-18:00', 'Thu': '05:00-18:00', 'Fri': '05:00-18:00', 'Sat': '05:00-18:00', 'Sun': '05:00-18:00'}}","2106400721,2106400297",11474,348,,amore-prigkiponison
"Χλόης & Εμπειρίκου - συνοικία Φουντουκλή, 52100 ΚΑΣΤΟΡΙΑ, Ελλάδα",AB Vassilopoulos,ΚΑΣΤΟΡΙΑ,Greece,"{'brand': 'AB Vassilopoulos', 'fascia': 'AB', 'category': 'Retail', 'edit_date': '20250518', 'lat_lon_source': 'Third Party'}",40.533997,21.258879,ΚΑΣΤΟΡΙΑ ΣΥΝΟΙΚΙΑ ΦΟΥΝΤΟΥΚΛΗ,"{'opening_hours': {'Mon': '05:00-18:00', 'Tue': '05:00-18:00', 'Wed': '05:00-18:00', 'Thu': '05:00-18:00', 'Fri': '05:00-18:00', 'Sat': '05:00-18:00', 'Sun': '05:00-18:00'}}",2467021153,52100,349,,kastoria-synoikia-foyntoykli
"Κ. Καραμανλή 44 & Επικούρου 7  Θεσ/νικη, 55535 ΚΑΛΑΜΑΡΙΑ, Ελλάδα",AB Vassilopoulos,ΚΑΛΑΜΑΡΙΑ,Greece,"{'brand': 'AB Vassilopoulos', 'fascia': 'AB', 'category': 'Retail', 'edit_date': '20250518', 'lat_lon_source': 'Third Party'}",40.576635,22.965573,ΘΕΣ/ΚΗ ΚΑΛΑΜΑΡΙΑ Κ. ΚΑΡΑΜΑΝΛΗ,"{'opening_hours': {'Mon': '05:00-18:00', 'Tue': '05:00-18:00', 'Wed': '05:00-18:00', 'Thu': '05:00-18:00', 'Fri': '05:00-18:00', 'Sat': '05:00-18:00', 'Sun': '05:00-18:00'}}","2310441650,2310451161",55535,350,,thes-ki-kalamaria-k-karamanli
"Αλεξάνδρου Υψηλάντου 30  Ωραιόκαστρο, 57013 ΩΡΑΙΟΚΑΣΤΡΟ, Ελλάδα",AB Vassilopoulos,ΩΡΑΙΟΚΑΣΤΡΟ,Greece,"{'brand': 'AB Vassilopoulos', 'fascia': 'AB', 'category': 'Retail', 'edit_date': '20250518', 'lat_lon_source': 'Third Party'}",40.725731,22.915242,ΘΕΣ/ΚΗ ΩΡΑΙΟΚΑΣΤΡΟ,"{'opening_hours': {'Mon': '05:00-18:00', 'Tue': '05:00-18:00', 'Wed': '05:00-18:00', 'Thu': '05:00-18:00', 'Fri': '05:00-18:00', 'Sat': '05:00-18:00', 'Sun': '05:00-18:00'}}",2310690884,57013,353,,thes-ki-oraiokastro
"Κτηματική Περιφέρεια του Δήμου Λεβαδέων - Θέση Ισώματα, 32100 ΛΙΒΑΔΕΙΑ, Ελλάδα",AB Vassilopoulos,ΛΙΒΑΔΕΙΑ,Greece,"{'brand': 'AB Vassilopoulos', 'fascia': 'AB', 'category': 'Retail', 'edit_date': '20250518', 'lat_lon_source': 'Third Party'}",38.445667,22.874299,ΛΙΒΑΔΕΙΑ ΘΕΣΗ ΙΣΩΜΑΤΑ,"{'opening_hours': {'Mon': '05:00-18:00', 'Tue': '05:00-18:00', 'Wed': '05:00-18:00', 'Thu': '05:00-18:00', 'Fri': '05:00-18:00', 'Sat': '05:00-18:00', 'Sun': '05:00-18:00'}}",2261021422,32100,357,,livadeia-thesi-isomata
"Κτηματική περιφέρεια του Δήμου Καρπενησίου στην θέση Αγ. Γεώργιος, 36071 ΚΑΡΠΕΝΗΣΙ, Ελλάδα",AB Vassilopoulos,ΚΑΡΠΕΝΗΣΙ,Greece,"{'brand': 'AB Vassilopoulos', 'fascia': 'AB', 'category': 'Retail', 'edit_date': '20250518', 'lat_lon_source': 'Third Party'}",38.917279,21.788482,ΚΑΡΠΕΝΗΣΙ,"{'opening_hours': {'Mon': '05:00-18:00', 'Tue': '05:00-18:00', 'Wed': '05:00-18:00', 'Thu': '05:00-18:00', 'Fri': '05:00-18:00', 'Sat': '05:00-18:00', 'Sun': '05:00-18:00'}}","2237089104,2237022146",36071,358,,karpenisi
"Αττικής 26-28 & Χρήστου Παύλου   Κορωπί, 19400 ΚΟΡΩΠΙ, Ελλάδα",AB Vassilopoulos,ΚΟΡΩΠΙ,Greece,"{'brand': 'AB Vassilopoulos', 'fascia': 'AB', 'category': 'Retail', 'edit_date': '20250518', 'lat_lon_source': 'Third Party'}",37.909187,23.874297,ΚΟΡΩΠΙ ΑΤΤΙΚΗΣ,"{'opening_hours': {'Mon': '05:00-18:00', 'Tue': '05:00-18:00', 'Wed': '05:00-18:00', 'Thu': '05:00-18:00', 'Fri': '05:00-18:00', 'Sat': '05:00-18:00', 'Sun': '05:00-18:00'}}",2106022305,19400,359,,koropi-attikis
"Γρηγορίου Λαμπράκη 402, 18758 ΚΕΡΑΤΣΙΝΙ, Ελλάδα",AB Vassilopoulos,ΚΕΡΑΤΣΙΝΙ,Greece,"{'brand': 'AB Vassilopoulos', 'fascia': 'AB', 'category': 'Retail', 'edit_date': '20250518', 'lat_lon_source': 'Third Party'}",37.976163,23.626713,ΚΕΡΑΤΣΙΝΙ ΓΡ. ΛΑΜΠΡΑΚΗ,"{'opening_hours': {'Mon': '05:00-18:00', 'Tue': '05:00-18:00', 'Wed': '05:00-18:00', 'Thu': '05:00-18:00', 'Fri': '05:00-18:00', 'Sat': '05:00-18:00', 'Sun': '05:00-18:00'}}",2104319640,18758,361,,keratsini-gr-lampraki
"Παύλου Φύσσα 76, 18757 ΚΕΡΑΤΣΙΝΙ, Ελλάδα",AB Vassilopoulos,ΚΕΡΑΤΣΙΝΙ,Greece,"{'brand': 'AB Vassilopoulos', 'fascia': 'AB', 'category': 'Retail', 'edit_date': '20250518', 'lat_lon_source': 'Third Party'}",37.968601,23.6221287,ΚΕΡΑΤΣΙΝΙ Π. ΤΣΑΛΔΑΡΗ,"{'opening_hours': {'Mon': '05:00-18:00', 'Tue': '05:00-18:00', 'Wed': '05:00-18:00', 'Thu': '05:00-18:00', 'Fri': '05:00-18:00', 'Sat': '05:00-18:00', 'Sun': '05:00-18:00'}}","2104319282,2104005028",18757,362,,keratsini-p-tsaldari
"Εθνικής Αντιστάσεως 143  Καισαριανή, 16122 ΚΑΙΣΑΡΙΑΝΗ, Ελλάδα",AB Vassilopoulos,ΚΑΙΣΑΡΙΑΝΗ,Greece,"{'brand': 'AB Vassilopoulos', 'fascia': 'AB', 'category': 'Retail', 'edit_date': '20250518', 'lat_lon_source': 'Third Party'}",37.967201,23.765208,ΚΑΙΣΑΡΙΑΝΗ ΕΘ.ΑΝΤΙΣΤΑΣΕΩΣ,"{'opening_hours': {'Mon': '05:00-18:00', 'Tue': '05:00-18:00', 'Wed': '05:00-18:00', 'Thu': '05:00-18:00', 'Fri': '05:00-18:00', 'Sat': '05:00-18:00', 'Sun': '05:00-18:00'}}",2107225740,16122,364,,kaisariani-eth-antistaseos
"Γρηγορίου Λαμπράκη 102, 18120 ΚΟΡΥΔΑΛΛΟΣ, Ελλάδα",AB Vassilopoulos,ΚΟΡΥΔΑΛΛΟΣ,Greece,"{'brand': 'AB Vassilopoulos', 'fascia': 'AB', 'category': 'Retail', 'edit_date': '20250518', 'lat_lon_source': 'Third Party'}",37.979576,23.658464,ΚΟΡΥΔΑΛΟΣ 2 ΓΡ.ΛΑΜΠΡΑΚΗ,"{'opening_hours': {'Mon': '05:00-18:00', 'Tue': '05:00-18:00', 'Wed': '05:00-18:00', 'Thu': '05:00-18:00', 'Fri': '05:00-18:00', 'Sat': '05:00-18:00', 'Sun': '05:00-18:00'}}",2105625800,18120,365,,korydalos-2-gr-lampraki
"Μπουμπουλίνας & Νέας Κίου, 21100 ΝΑΥΠΛΙΟ, Ελλάδα",AB Vassilopoulos,ΝΑΥΠΛΙΟ,Greece,"{'brand': 'AB Vassilopoulos', 'fascia': 'AB', 'category': 'Retail', 'edit_date': '20250518', 'lat_lon_source': 'Third Party'}",37.567046,22.803334,ΝΑΥΠΛΙΟ ΜΠΟΥΜΠΟΥΛΙΝΑΣ,"{'opening_hours': {'Mon': '05:00-18:00', 'Tue': '05:00-18:00', 'Wed': '05:00-18:00', 'Thu': '05:00-18:00', 'Fri': '05:00-18:00', 'Sat': '05:00-18:00', 'Sun': '05:00-18:00'}}",2752047138,21100,366,,nayplio-mpoympoylinas
"Λ. Παπανδρέου 33- Ιωαννίνων 4 - Γλάδστωνος 3, 16345 ΗΛΙΟΥΠΟΛΗ, Ελλάδα",AB Vassilopoulos,ΗΛΙΟΥΠΟΛΗ,Greece,"{'brand': 'AB Vassilopoulos', 'fascia': 'AB', 'category': 'Retail', 'edit_date': '20250518', 'lat_lon_source': 'Third Party'}",37.940459,23.754525,ΗΛΙΟΥΠΟΛΗ 2 Λ. ΠΑΠΑΝΔΡΕΟΥ,"{'opening_hours': {'Mon': '05:00-18:00', 'Tue': '05:00-18:00', 'Wed': '05:00-18:00', 'Thu': '05:00-18:00', 'Fri': '05:00-18:00', 'Sat': '05:00-18:00', 'Sun': '05:00-18:00'}}","2109701723,2109701683",16345,367,,ilioypoli-2-l-papandreoy
"2ο χλμ Επαρχιακής οδού Κω - Χωρίων  Μαρμαρωτό, 85300 ΚΩΣ, Ελλάδα",AB Vassilopoulos,ΚΩΣ,Greece,"{'brand': 'AB Vassilopoulos', 'fascia': 'AB', 'category': 'Retail', 'edit_date': '20250518', 'lat_lon_source': 'Third Party'}",36.892675,27.271828,ΚΩΣ ΜΑΡΜΑΡΩΤΟ,"{'opening_hours': {'Mon': '05:00-18:00', 'Tue': '05:00-18:00', 'Wed': '05:00-18:00', 'Thu': '05:00-18:00', 'Fri': '05:00-18:00', 'Sat': '05:00-18:00', 'Sun': '05:00-18:00'}}",2242027401,85300,371,,kos-marmaroto
"Καμπούρογλου 10, 15452 ΨΥΧΙΚΟ, Ελλάδα",AB Vassilopoulos,ΨΥΧΙΚΟ,Greece,"{'brand': 'AB Vassilopoulos', 'fascia': 'ABCITY', 'category': 'Retail', 'edit_date': '20250518', 'lat_lon_source': 'Third Party'}",37.998993,23.776104,ΨΥΧΙΚΟ ΕΛΛΗΝΟΡΩΣΩΝ,"{'opening_hours': {'Mon': '05:00-18:00', 'Tue': '05:00-18:00', 'Wed': '05:00-18:00', 'Thu': '05:00-18:00', 'Fri': '05:00-18:00', 'Sat': '05:00-18:00', 'Sun': '05:00-18:00'}}",2106778986,15452,378,,psychiko-ellinoroson
"Γενναίου Κολοκοτρώνη 16, 11741 ΚΟΥΚΑΚΙ, Ελλάδα",AB Vassilopoulos,ΚΟΥΚΑΚΙ,Greece,"{'brand': 'AB Vassilopoulos', 'fascia': 'ABCITY', 'category': 'Retail', 'edit_date': '20250518', 'lat_lon_source': 'Third Party'}",37.96305981,23.7180224,ΚΟΥΚΑΚΙ ΚΟΛΟΚΟΤΡΩΝΗ,"{'opening_hours': {'Mon': '05:00-18:00', 'Tue': '05:00-18:00', 'Wed': '05:00-18:00', 'Thu': '05:00-18:00', 'Fri': '05:00-18:00', 'Sat': '05:00-18:00', 'Sun': '05:00-18:00'}}",2109211421,11741,379,,koykaki-kolokotroni
"Αχιλλέως 10, 17562 Π. ΦΑΛΗΡΟ, Ελλάδα",AB Vassilopoulos,Π. ΦΑΛΗΡΟ,Greece,"{'brand': 'AB Vassilopoulos', 'fascia': 'AB', 'category': 'Retail', 'edit_date': '20250518', 'lat_lon_source': 'Third Party'}",37.92187974,23.6997819,Π.ΦΑΛΗΡΟ ΑΧΙΛΛΕΩΣ,"{'opening_hours': {'Mon': '05:00-18:00', 'Tue': '05:00-18:00', 'Wed': '05:00-18:00', 'Thu': '05:00-18:00', 'Fri': '05:00-18:00', 'Sat': '05:00-18:00', 'Sun': '05:00-18:00'}}","2109842227,2109842229",17562,381,,p-faliro-achilleos
"Πίνδου και Πηνειού, 13341 ΜΕΝΙΔΙ, Ελλάδα",AB Vassilopoulos,ΜΕΝΙΔΙ,Greece,"{'brand': 'AB Vassilopoulos', 'fascia': 'AB', 'category': 'Retail', 'edit_date': '20250518', 'lat_lon_source': 'Third Party'}",38.086527,23.708239,ΜΕΝΙΔΙ 3 ΠΙΝΔΟΥ,"{'opening_hours': {'Mon': '05:00-18:00', 'Tue': '05:00-18:00', 'Wed': '05:00-18:00', 'Thu': '05:00-18:00', 'Fri': '05:00-18:00', 'Sat': '05:00-18:00', 'Sun': '05:00-18:00'}}",2102470700,13341,394,,menidi-3-pindoy
"1ο χλμ. Εθν. Οδού Πτολεμαΐδας - Κοζάνης, 50200 ΠΤΟΛΕΜΑΙΔΑ, Ελλάδα",AB Vassilopoulos,ΠΤΟΛΕΜΑΙΔΑ,Greece,"{'brand': 'AB Vassilopoulos', 'fascia': 'AB', 'category': 'Retail', 'edit_date': '20250518', 'lat_lon_source': 'Third Party'}",40.520227,21.695544,ΠΤΟΛΕΜΑΙΔΑ,"{'opening_hours': {'Mon': '05:00-18:00', 'Tue': '05:00-18:00', 'Wed': '05:00-18:00', 'Thu': '05:00-18:00', 'Fri': '05:00-18:00', 'Sat': '05:00-18:00', 'Sun': '05:00-18:00'}}",2463082219,50200,501,,ptolemaida
"2ο χλμ. Εθνικής οδού Φλώρινας - Κοζάνης, 53100 ΦΛΩΡΙΝΑ, Ελλάδα",AB Vassilopoulos,ΦΛΩΡΙΝΑ,Greece,"{'brand': 'AB Vassilopoulos', 'fascia': 'AB', 'category': 'Retail', 'edit_date': '20250518', 'lat_lon_source': 'Third Party'}",40.793053,21.436064,ΦΛΩΡΙΝΑ,"{'opening_hours': {'Mon': '05:00-18:00', 'Tue': '05:00-18:00', 'Wed': '05:00-18:00', 'Thu': '05:00-18:00', 'Fri': '05:00-18:00', 'Sat': '05:00-18:00', 'Sun': '05:00-18:00'}}",2385044713,53100,502,,florina
"1o χλμ. Εθνικής Οδού Δράμας – Θεσσαλονίκης, 66100 ΔΡΑΜΑ, Ελλάδα",AB Vassilopoulos,ΔΡΑΜΑ,Greece,"{'brand': 'AB Vassilopoulos', 'fascia': 'AB', 'category': 'Retail', 'edit_date': '20250518', 'lat_lon_source': 'Third Party'}",41.146582,24.139459,ΔΡΑΜΑ 1ο ΧΛΜ Ε.Ο. ΔΡΑΜΑ-ΘΕΣ/ΚΗ,"{'opening_hours': {'Mon': '05:00-18:00', 'Tue': '05:00-18:00', 'Wed': '05:00-18:00', 'Thu': '05:00-18:00', 'Fri': '05:00-18:00', 'Sat': '05:00-18:00', 'Sun': '05:00-18:00'}}",2521038915,66100,504,,drama-1o-chlm-e-o-drama-thes-ki
"1ο χλμ. Νέας Περιφερειακής Δημοτικής οδού Βέροιας, 59100 ΒΕΡΟΙΑ, Ελλάδα",AB Vassilopoulos,ΒΕΡΟΙΑ,Greece,"{'brand': 'AB Vassilopoulos', 'fascia': 'AB', 'category': 'Retail', 'edit_date': '20250518', 'lat_lon_source': 'Third Party'}",40.528284,22.208966,ΒΕΡΟΙΑ 1οΧΛΜ. ΝΕΑΣ  ΠΕΡΙΦ.ΟΔΟΥ,"{'opening_hours': {'Mon': '05:00-18:00', 'Tue': '05:00-18:00', 'Wed': '05:00-18:00', 'Thu': '05:00-18:00', 'Fri': '05:00-18:00', 'Sat': '05:00-18:00', 'Sun': '05:00-18:00'}}",2331064813,59100,505,,veroia-1ochlm-neas-perif-odoy
"Οδός Μεραρχίας 132, 62122 ΣΕΡΡΕΣ, Ελλάδα",AB Vassilopoulos,ΣΕΡΡΕΣ,Greece,"{'brand': 'AB Vassilopoulos', 'fascia': 'AB', 'category': 'Retail', 'edit_date': '20250518', 'lat_lon_source': 'Third Party'}",41.079452,23.540394,ΣΕΡΡΕΣ 1 ΟΔΟΣ ΜΕΡΑΡΧΙΑΣ,"{'opening_hours': {'Mon': '05:00-18:00', 'Tue': '05:00-18:00', 'Wed': '05:00-18:00', 'Thu': '05:00-18:00', 'Fri': '05:00-18:00', 'Sat': '05:00-18:00', 'Sun': '05:00-18:00'}}",2321039445,62122,507,,serres-1-odos-merarchias
"Εθνικής Αντιστάσεως & Παπανδρέου, 69100 ΚΟΜΟΤΗΝΗ, Ελλάδα",AB Vassilopoulos,ΚΟΜΟΤΗΝΗ,Greece,"{'brand': 'AB Vassilopoulos', 'fascia': 'AB', 'category': 'Retail', 'edit_date': '20250518', 'lat_lon_source': 'Third Party'}",41.126555,25.390582,ΚΟΜΟΤΗΝΗ ΕΘΝ. ΑΝΤΙΣΤΑΣΕΩΣ,"{'opening_hours': {'Mon': '05:00-18:00', 'Tue': '05:00-18:00', 'Wed': '05:00-18:00', 'Thu': '05:00-18:00', 'Fri': '05:00-18:00', 'Sat': '05:00-18:00', 'Sun': '05:00-18:00'}}",25310-23363,69100,508,,komotini-ethn-antistaseos
"Ν. Μάνου 4 & Μπότσαρη, 54642 ΘΕΣΣΑΛΟΝΙΚΗ, Ελλάδα",AB Vassilopoulos,ΘΕΣΣΑΛΟΝΙΚΗ,Greece,"{'brand': 'AB Vassilopoulos', 'fascia': 'AB', 'category': 'Retail', 'edit_date': '20250518', 'lat_lon_source': 'Third Party'}",40.609201,22.952731,ΘΕΣ/ΚΗ ΜΠΟΤΣΑΡΗ Ν. ΜΑΝΟΥ,"{'opening_hours': {'Mon': '05:00-18:00', 'Tue': '05:00-18:00', 'Wed': '05:00-18:00', 'Thu': '05:00-18:00', 'Fri': '05:00-18:00', 'Sat': '05:00-18:00', 'Sun': '05:00-18:00'}}",2310843332,54642,510,,thes-ki-mpotsari-n-manoy
"Καλλιθέας 17, 41222 ΛΑΡΙΣΑ, Ελλάδα",AB Vassilopoulos,ΛΑΡΙΣΑ,Greece,"{'brand': 'AB Vassilopoulos', 'fascia': 'AB', 'category': 'Retail', 'edit_date': '20250518', 'lat_lon_source': 'Third Party'}",39.640997,22.411952,ΛΑΡΙΣΑ 2 ΚΑΛΛΙΘΕΑΣ,"{'opening_hours': {'Mon': '05:00-18:00', 'Tue': '05:00-18:00', 'Wed': '05:00-18:00', 'Thu': '05:00-18:00', 'Fri': '05:00-18:00', 'Sat': '05:00-18:00', 'Sun': '05:00-18:00'}}",2410532279,41222,511,,larisa-2-kallitheas
"Τριανταφύλλου Μιχαηλίδη, 67100 ΞΑΝΘΗ, Ελλάδα",AB Vassilopoulos,ΞΑΝΘΗ,Greece,"{'brand': 'AB Vassilopoulos', 'fascia': 'AB', 'category': 'Retail', 'edit_date': '20250518', 'lat_lon_source': 'Third Party'}",41.126924,24.884306,ΞΑΝΘΗ ΤΡ. ΜΙΧΑΗΛΙΔΗ,"{'opening_hours': {'Mon': '05:00-18:00', 'Tue': '05:00-18:00', 'Wed': '05:00-18:00', 'Thu': '05:00-18:00', 'Fri': '05:00-18:00', 'Sat': '05:00-18:00', 'Sun': '05:00-18:00'}}",2541020547,67100,513,,xanthi-tr-michailidi
"Λ. Σοφοκλή Βενιζέλου 49-51, 14123 ΛΥΚΟΒΡΥΣΗ, Ελλάδα",AB Vassilopoulos,ΛΥΚΟΒΡΥΣΗ,Greece,"{'brand': 'AB Vassilopoulos', 'fascia': 'AB', 'category': 'Retail', 'edit_date': '20250518', 'lat_lon_source': 'Third Party'}",38.071266,23.785625,ΛΥΚΟΒΡΥΣΗ Λ. ΣΟΦΟΚΛΗ ΒΕΝΙΖΕΛΟΥ,"{'opening_hours': {'Mon': '05:00-18:00', 'Tue': '05:00-18:00', 'Wed': '05:00-18:00', 'Thu': '05:00-18:00', 'Fri': '05:00-18:00', 'Sat': '05:00-18:00', 'Sun': '05:00-18:00'}}",2102819187,14123,520,,lykovrysi-l-sofokli-venizeloy
"Θησέως  223, 17672 ΚΑΛΛΙΘΕΑ, Ελλάδα",AB Vassilopoulos,ΚΑΛΛΙΘΕΑ,Greece,"{'brand': 'AB Vassilopoulos', 'fascia': 'AB', 'category': 'Retail', 'edit_date': '20250518', 'lat_lon_source': 'Third Party'}",37.952155,23.696711,ΚΑΛΛΙΘΕΑ 4 ΘΗΣΕΩΣ 223,"{'opening_hours': {'Mon': '05:00-18:00', 'Tue': '05:00-18:00', 'Wed': '05:00-18:00', 'Thu': '05:00-18:00', 'Fri': '05:00-18:00', 'Sat': '05:00-18:00', 'Sun': '05:00-18:00'}}",2109563063,17672,523,,kallithea-4-thiseos-223
"Λ. Λαυρίου 160 & Χρυσανθέμων, 15354 ΓΛΥΚΑ ΝΕΡΑ, Ελλάδα",AB Vassilopoulos,ΓΛΥΚΑ ΝΕΡΑ,Greece,"{'brand': 'AB Vassilopoulos', 'fascia': 'AB', 'category': 'Retail', 'edit_date': '20250518', 'lat_lon_source': 'Third Party'}",37.986492,23.850105,ΓΛΥΚΑ ΝΕΡΑ 2 ΧΡΥΣΑΝΘΕΜΩΝ,"{'opening_hours': {'Mon': '05:00-18:00', 'Tue': '05:00-18:00', 'Wed': '05:00-18:00', 'Thu': '05:00-18:00', 'Fri': '05:00-18:00', 'Sat': '05:00-18:00', 'Sun': '05:00-18:00'}}",2106042078,15354,525,,glyka-nera-2-chrysanthemon
"Λ. Μαραθώνος 4, 15351 ΠΑΛΛΗΝΗ, Ελλάδα",AB Vassilopoulos,ΠΑΛΛΗΝΗ,Greece,"{'brand': 'AB Vassilopoulos', 'fascia': 'AB', 'category': 'Retail', 'edit_date': '20250518', 'lat_lon_source': 'Third Party'}",38.005325,23.868667,ΠΑΛΛΗΝΗ Λ. ΜΑΡΑΘΩΝΟΣ,"{'opening_hours': {'Mon': '05:00-18:00', 'Tue': '05:00-18:00', 'Wed': '05:00-18:00', 'Thu': '05:00-18:00', 'Fri': '05:00-18:00', 'Sat': '05:00-18:00', 'Sun': '05:00-18:00'}}",2106030461,15351,526,,pallini-l-marathonos
"Δεληγιαννάκη 112 Α, 73134 ΧΑΝΙΑ, Ελλάδα",AB Vassilopoulos,ΧΑΝΙΑ,Greece,"{'brand': 'AB Vassilopoulos', 'fascia': 'AB', 'category': 'Retail', 'edit_date': '20250518', 'lat_lon_source': 'Third Party'}",35.500839,24.042526,ΧΑΝΙΑ 1 ΔΕΛΗΓΙΑΝΝΑΚΗ,"{'opening_hours': {'Mon': '05:00-18:00', 'Tue': '05:00-18:00', 'Wed': '05:00-18:00', 'Thu': '05:00-18:00', 'Fri': '05:00-18:00', 'Sat': '05:00-18:00', 'Sun': '05:00-18:00'}}","2821083005,2821083390",73134,532,,chania-1-deligiannaki
"2o χλμ Π.Ε.Ο. Χανίων - Καστελλίου  στη θέση Γερμανικό Πουλί, 73100 ΧΑΝΙΑ, Ελλάδα",AB Vassilopoulos,ΧΑΝΙΑ,Greece,"{'brand': 'AB Vassilopoulos', 'fascia': 'AB', 'category': 'Retail', 'edit_date': '20250518', 'lat_lon_source': 'Third Party'}",35.505741,23.966268,ΧΑΝΙΑ 2 ΚΑΣΤΕΛΛΙ,"{'opening_hours': {'Mon': '05:00-18:00', 'Tue': '05:00-18:00', 'Wed': '05:00-18:00', 'Thu': '05:00-18:00', 'Fri': '05:00-18:00', 'Sat': '05:00-18:00', 'Sun': '05:00-18:00'}}","2821090806,2821091945",73100,533,,chania-2-kastelli
"Κομνηνών 34 & Ακριτίδου, 55236 ΠΑΝΟΡΑΜΑ, Ελλάδα",AB Vassilopoulos,ΠΑΝΟΡΑΜΑ,Greece,"{'brand': 'AB Vassilopoulos', 'fascia': 'AB', 'category': 'Retail', 'edit_date': '20250518', 'lat_lon_source': 'Third Party'}",40.588697,23.038381,ΘΕΣ/ΚΗ ΠΑΝΟΡΑΜΑ,"{'opening_hours': {'Mon': '05:00-18:00', 'Tue': '05:00-18:00', 'Wed': '05:00-18:00', 'Thu': '05:00-18:00', 'Fri': '05:00-18:00', 'Sat': '05:00-18:00', 'Sun': '05:00-18:00'}}",2310331162,55236,534,,thes-ki-panorama
"1ο Χλμ. Σπάρτης - Γυθείου & Μεσ/γίου, 23100 ΣΠΑΡΤΗ, Ελλάδα",AB Vassilopoulos,ΣΠΑΡΤΗ,Greece,"{'brand': 'AB Vassilopoulos', 'fascia': 'AB', 'category': 'Retail', 'edit_date': '20250518', 'lat_lon_source': 'Third Party'}",37.062554,22.433515,ΣΠΑΡΤΗ 2 1ο ΧΛΜ. ΣΠΑΡΤΗ-ΓΥΘΕΙΟ,"{'opening_hours': {'Mon': '05:00-18:00', 'Tue': '05:00-18:00', 'Wed': '05:00-18:00', 'Thu': '05:00-18:00', 'Fri': '05:00-18:00', 'Sat': '05:00-18:00', 'Sun': '05:00-18:00'}}",2731089406,23100,536,,sparti-2-1o-chlm-sparti-gytheio
"2ο χλμ Εθνικής Οδού Αρτας - Ιωαννίνων, 47100 ΑΡΤΑ, Ελλάδα",AB Vassilopoulos,ΑΡΤΑ,Greece,"{'brand': 'AB Vassilopoulos', 'fascia': 'AB', 'category': 'Retail', 'edit_date': '20250518', 'lat_lon_source': 'Third Party'}",39.155347,20.961738,ΑΡΤΑ ΕΛΕΟΥΣΑ,"{'opening_hours': {'Mon': '05:00-18:00', 'Tue': '05:00-18:00', 'Wed': '05:00-18:00', 'Thu': '05:00-18:00', 'Fri': '05:00-18:00', 'Sat': '05:00-18:00', 'Sun': '05:00-18:00'}}",2681051691,47100,538,,arta-eleoysa
"Φυλής 293 & Κασσιανής-  Ο.Τ. 650, 13342 ΑΝΩ ΛΙΟΣΙΑ, Ελλάδα",AB Vassilopoulos,ΑΝΩ ΛΙΟΣΙΑ,Greece,"{'brand': 'AB Vassilopoulos', 'fascia': 'AB', 'category': 'Retail', 'edit_date': '20250518', 'lat_lon_source': 'Third Party'}",38.088983,23.691699,ΑΝΩ ΛΙΟΣΙΑ ΦΥΛΗΣ 293,"{'opening_hours': {'Mon': '05:00-18:00', 'Tue': '05:00-18:00', 'Wed': '05:00-18:00', 'Thu': '05:00-18:00', 'Fri': '05:00-18:00', 'Sat': '05:00-18:00', 'Sun': '05:00-18:00'}}",2102484569,13342,541,,ano-liosia-fylis-293
"Φιλαδελφείας 101, 13671 ΜΕΝΙΔΙ, Ελλάδα",AB Vassilopoulos,ΜΕΝΙΔΙ,Greece,"{'brand': 'AB Vassilopoulos', 'fascia': 'AB', 'category': 'Retail', 'edit_date': '20250518', 'lat_lon_source': 'Third Party'}",38.068711,23.739084,ΜΕΝΙΔΙ 2 ΦΙΛΑΔΕΛΦΕΙΑΣ 101,"{'opening_hours': {'Mon': '05:00-18:00', 'Tue': '05:00-18:00', 'Wed': '05:00-18:00', 'Thu': '05:00-18:00', 'Fri': '05:00-18:00', 'Sat': '05:00-18:00', 'Sun': '05:00-18:00'}}",2102449780,13671,542,,menidi-2-filadelfeias-101
"Λ. Χαλκουτσίου & Φαφούτη, 19015 ΩΡΩΠΟΣ, Ελλάδα",AB Vassilopoulos,ΩΡΩΠΟΣ,Greece,"{'brand': 'AB Vassilopoulos', 'fascia': 'AB', 'category': 'Retail', 'edit_date': '20250518', 'lat_lon_source': 'Third Party'}",38.324099,23.773244,ΩΡΩΠΟΣ,"{'opening_hours': {'Mon': '05:00-18:00', 'Tue': '05:00-18:00', 'Wed': '05:00-18:00', 'Thu': '05:00-18:00', 'Fri': '05:00-18:00', 'Sat': '05:00-18:00', 'Sun': '05:00-18:00'}}",2295037680,19015,544,,oropos
"Ακτής Κονδύλη 44 Δερβενακίων & οδού Κάστορος, 18542 ΠΕΙΡΑΙΑΣ, Ελλάδα",AB Vassilopoulos,ΠΕΙΡΑΙΑΣ,Greece,"{'brand': 'AB Vassilopoulos', 'fascia': 'AB', 'category': 'Retail', 'edit_date': '20250518', 'lat_lon_source': 'Third Party'}",37.949475,23.638059,ΠΕΙΡΑΙΑΣ ΑΚΤΗ ΚΟΝΔΥΛΗ,"{'opening_hours': {'Mon': '05:00-18:00', 'Tue': '05:00-18:00', 'Wed': '05:00-18:00', 'Thu': '05:00-18:00', 'Fri': '05:00-18:00', 'Sat': '05:00-18:00', 'Sun': '05:00-18:00'}}",2104625572,18542,546,,peiraias-akti-kondyli
"Μαιάνδρου & Πετρακογιώργη, 71305 ΗΡΑΚΛΕΙΟ, Ελλάδα",AB Vassilopoulos,ΗΡΑΚΛΕΙΟ,Greece,"{'brand': 'AB Vassilopoulos', 'fascia': 'AB', 'category': 'Retail', 'edit_date': '20250518', 'lat_lon_source': 'Third Party'}",35.324831,25.125069,ΗΡΑΚΛΕΙΟ ΜΑΣΤΑΜΠΑΣ ΜΑΙΑΝΔΡΟΥ,"{'opening_hours': {'Mon': '05:00-18:00', 'Tue': '05:00-18:00', 'Wed': '05:00-18:00', 'Thu': '05:00-18:00', 'Fri': '05:00-18:00', 'Sat': '05:00-18:00', 'Sun': '05:00-18:00'}}",2810314414,71305,547,,irakleio-mastampas-maiandroy
"Φυτόκου & Σκοπέλου ΟΤ 728 (Θέση Μαχαιρίτσα), 38446 ΒΟΛΟΣ, Ελλάδα",AB Vassilopoulos,ΒΟΛΟΣ,Greece,"{'brand': 'AB Vassilopoulos', 'fascia': 'AB', 'category': 'Retail', 'edit_date': '20250518', 'lat_lon_source': 'Third Party'}",39.381268,22.940033,ΒΟΛΟΣ 3 ΦΥΤΟΚΟΥ,"{'opening_hours': {'Mon': '05:00-18:00', 'Tue': '05:00-18:00', 'Wed': '05:00-18:00', 'Thu': '05:00-18:00', 'Fri': '05:00-18:00', 'Sat': '05:00-18:00', 'Sun': '05:00-18:00'}}",2421091081,38446,548,,volos-3-fytokoy
"62 Μαρτύρων 191 και επί των οδών Πετράκη και Λευκωσίας, 71304 ΗΡΑΚΛΕΙΟ, Ελλάδα",AB Vassilopoulos,ΗΡΑΚΛΕΙΟ,Greece,"{'brand': 'AB Vassilopoulos', 'fascia': 'AB', 'category': 'Retail', 'edit_date': '20250518', 'lat_lon_source': 'Third Party'}",35.330526,25.110823,ΗΡΑΚΛΕΙΟ 62 ΜΑΡΤΥΡΩΝ,"{'opening_hours': {'Mon': '05:00-18:00', 'Tue': '05:00-18:00', 'Wed': '05:00-18:00', 'Thu': '05:00-18:00', 'Fri': '05:00-18:00', 'Sat': '05:00-18:00', 'Sun': '05:00-18:00'}}",2810373020,71304,549,,irakleio-62-martyron
"Ε.Ο. Άρτας Ιωαννίνων  κόμβος Ανατολής έναντι Πανηπειρωτικού σταδίου, 45221 ΑΝΑΤΟΛΗ ΙΩΑΝΝΙΝΩΝ, Ελλάδα",AB Vassilopoulos,ΑΝΑΤΟΛΗ ΙΩΑΝΝΙΝΩΝ,Greece,"{'brand': 'AB Vassilopoulos', 'fascia': 'AB', 'category': 'Retail', 'edit_date': '20250518', 'lat_lon_source': 'Third Party'}",39.622871,20.861165,ΙΩΑΝΝΙΝΑ ΑΝΑΤΟΛΗ,"{'opening_hours': {'Mon': '05:00-18:00', 'Tue': '05:00-18:00', 'Wed': '05:00-18:00', 'Thu': '05:00-18:00', 'Fri': '05:00-18:00', 'Sat': '05:00-18:00', 'Sun': '05:00-18:00'}}",2651002453,45221,551,,ioannina-anatoli
"Στρατηγού Καλάρη 45 Κάτω Πατήσια, 10445 ΠΑΤΗΣΙΑ, Ελλάδα",AB Vassilopoulos,ΠΑΤΗΣΙΑ,Greece,"{'brand': 'AB Vassilopoulos', 'fascia': 'AB', 'category': 'Retail', 'edit_date': '20250518', 'lat_lon_source': 'Third Party'}",38.012797,23.723767,ΠΑΤΗΣΙΑ 4 ΣΤΡ.ΚΑΛΛΑΡΗ,"{'opening_hours': {'Mon': '05:00-18:00', 'Tue': '05:00-18:00', 'Wed': '05:00-18:00', 'Thu': '05:00-18:00', 'Fri': '05:00-18:00', 'Sat': '05:00-18:00', 'Sun': '05:00-18:00'}}",2108322018,10445,563,,patisia-4-str-kallari
"Δημητσάνης 25, 11522 ΑΘΗΝΑ, Ελλάδα",AB Vassilopoulos,ΑΘΗΝΑ,Greece,"{'brand': 'AB Vassilopoulos', 'fascia': 'AB', 'category': 'Retail', 'edit_date': '20250518', 'lat_lon_source': 'Third Party'}",37.991753,23.756759,ΑΜΠΕΛΟΚΗΠΟΙ 2 ΔΗΜΗΤΣΑΝΑΣ,"{'opening_hours': {'Mon': '05:00-18:00', 'Tue': '05:00-18:00', 'Wed': '05:00-18:00', 'Thu': '05:00-18:00', 'Fri': '05:00-18:00', 'Sat': '05:00-18:00', 'Sun': '05:00-18:00'}}",2106470683,11522,566,,ampelokipoi-2-dimitsanas
"Λ. Πόρτο Ράφτη 34, 19003 ΜΑΡΚΟΠΟΥΛΟ, Ελλάδα",AB Vassilopoulos,ΜΑΡΚΟΠΟΥΛΟ,Greece,"{'brand': 'AB Vassilopoulos', 'fascia': 'AB', 'category': 'Retail', 'edit_date': '20250518', 'lat_lon_source': 'Third Party'}",37.884995,23.937343,ΜΑΡΚΟΠΟΥΛΟ Λ. ΠΟΡΤΟ ΡΑΦΤΗ,"{'opening_hours': {'Mon': '05:00-18:00', 'Tue': '05:00-18:00', 'Wed': '05:00-18:00', 'Thu': '05:00-18:00', 'Fri': '05:00-18:00', 'Sat': '05:00-18:00', 'Sun': '05:00-18:00'}}",2299041012,19003,567,,markopoylo-l-porto-rafti
"25ης Μαρτίου 37, 54645 ΘΕΣΣΑΛΟΝΙΚΗ, Ελλάδα",AB Vassilopoulos,ΘΕΣΣΑΛΟΝΙΚΗ,Greece,"{'brand': 'AB Vassilopoulos', 'fascia': 'AB', 'category': 'Retail', 'edit_date': '20250518', 'lat_lon_source': 'Third Party'}",40.600082,22.956431,ΘΕΣ/ΚΗ 25ης ΜΑΡΤΙΟΥ,"{'opening_hours': {'Mon': '05:00-18:00', 'Tue': '05:00-18:00', 'Wed': '05:00-18:00', 'Thu': '05:00-18:00', 'Fri': '05:00-18:00', 'Sat': '05:00-18:00', 'Sun': '05:00-18:00'}}","2310833550,2310833579",54645,569,,thes-ki-25is-martioy
"Δεμερτζή 16 & Παπαναστασίου 27-29, 10445 ΚΑΤΩ ΠΑΤΗΣΙΑ, Ελλάδα",AB Vassilopoulos,ΚΑΤΩ ΠΑΤΗΣΙΑ,Greece,"{'brand': 'AB Vassilopoulos', 'fascia': 'AB', 'category': 'Retail', 'edit_date': '20250518', 'lat_lon_source': 'Third Party'}",38.004363,23.724448,ΔΕΜΕΡΤΖΗ ΘΥΜΑΡΑΚΙΑ,"{'opening_hours': {'Mon': '05:00-18:00', 'Tue': '05:00-18:00', 'Wed': '05:00-18:00', 'Thu': '05:00-18:00', 'Fri': '05:00-18:00', 'Sat': '05:00-18:00', 'Sun': '05:00-18:00'}}","2108547242,2108547245",10445,570,,demertzi-thymarakia
"Ψαρρών & Μακεδονίας, 24100 ΚΑΛΑΜΑΤΑ, Ελλάδα",AB Vassilopoulos,ΚΑΛΑΜΑΤΑ,Greece,"{'brand': 'AB Vassilopoulos', 'fascia': 'AB', 'category': 'Retail', 'edit_date': '20250518', 'lat_lon_source': 'Third Party'}",37.032596,22.109011,ΚΑΛΑΜΑΤΑ 3 ΨΑΡΡΩΝ,"{'opening_hours': {'Mon': '05:00-18:00', 'Tue': '05:00-18:00', 'Wed': '05:00-18:00', 'Thu': '05:00-18:00', 'Fri': '05:00-18:00', 'Sat': '05:00-18:00', 'Sun': '05:00-18:00'}}",2721023116,24100,572,,kalamata-3-psarron
"Οδός Ελασσώνος  Ασπρόπυργος, 19300 ΑΣΠΡΟΠΥΡΓΟΣ, Ελλάδα",AB Vassilopoulos,ΑΣΠΡΟΠΥΡΓΟΣ,Greece,"{'brand': 'AB Vassilopoulos', 'fascia': 'AB', 'category': 'Retail', 'edit_date': '20250518', 'lat_lon_source': 'Third Party'}",38.064409,23.594363,ΑΣΠΡΟΠΥΡΓΟΣ 2 ΕΛΑΣΣΩΝΟΣ 1,"{'opening_hours': {'Mon': '05:00-18:00', 'Tue': '05:00-18:00', 'Wed': '05:00-18:00', 'Thu': '05:00-18:00', 'Fri': '05:00-18:00', 'Sat': '05:00-18:00', 'Sun': '05:00-18:00'}}","2105575050,2105575250",19300,575,,aspropyrgos-2-elassonos-1
"Επαρχιακή οδός Θεσ/νικης - Ν. Μηχανιώνας Ο.Τ. 62, 57004 ΠΕΡΑΙΑ, Ελλάδα",AB Vassilopoulos,ΠΕΡΑΙΑ,Greece,"{'brand': 'AB Vassilopoulos', 'fascia': 'AB', 'category': 'Retail', 'edit_date': '20250518', 'lat_lon_source': 'Third Party'}",40.500615,22.926049,ΘΕΣ/ΚΗ ΠΕΡΑΙΑ,"{'opening_hours': {'Mon': '05:00-18:00', 'Tue': '05:00-18:00', 'Wed': '05:00-18:00', 'Thu': '05:00-18:00', 'Fri': '05:00-18:00', 'Sat': '05:00-18:00', 'Sun': '05:00-18:00'}}",2392039821,57004,576,,thes-ki-peraia
"Αρτέμιδος 118, 24100 ΚΑΛΑΜΑΤΑ, Ελλάδα",AB Vassilopoulos,ΚΑΛΑΜΑΤΑ,Greece,"{'brand': 'AB Vassilopoulos', 'fascia': 'AB', 'category': 'Retail', 'edit_date': '20250518', 'lat_lon_source': 'Third Party'}",37.039938,22.108407,ΚΑΛΑΜΑΤΑ 4 ΑΡΤΕΜΙΔΟΣ,"{'opening_hours': {'Mon': '05:00-18:00', 'Tue': '05:00-18:00', 'Wed': '05:00-18:00', 'Thu': '05:00-18:00', 'Fri': '05:00-18:00', 'Sat': '05:00-18:00', 'Sun': '05:00-18:00'}}",2721060091,24100,579,,kalamata-4-artemidos
"Ανδρονίκου 37, 68100 ΑΛΕΞΑΝΔΡΟΥΠΟΛΗ, Ελλάδα",AB Vassilopoulos,ΑΛΕΞΑΝΔΡΟΥΠΟΛΗ,Greece,"{'brand': 'AB Vassilopoulos', 'fascia': 'AB', 'category': 'Retail', 'edit_date': '20250518', 'lat_lon_source': 'Third Party'}",40.854933,25.872355,ΑΛΕΞΑΝΔΡΟΥΠΟΛΗ ΑΝΔΡΟΝΙΚΟΥ,"{'opening_hours': {'Mon': '05:00-18:00', 'Tue': '05:00-18:00', 'Wed': '05:00-18:00', 'Thu': '05:00-18:00', 'Fri': '05:00-18:00', 'Sat': '05:00-18:00', 'Sun': '05:00-18:00'}}",2551080831,68100,583,,alexandroypoli-andronikoy
"Μ.Αλεξάνδρου & Έλλης, 68100 ΑΛΕΞΑΝΔΡΟΥΠΟΛΗ, Ελλάδα",AB Vassilopoulos,ΑΛΕΞΑΝΔΡΟΥΠΟΛΗ,Greece,"{'brand': 'AB Vassilopoulos', 'fascia': 'AB', 'category': 'Retail', 'edit_date': '20250518', 'lat_lon_source': 'Third Party'}",40.842211,25.870258,ΑΛΕΞΑΝΔΡΟΥΠΟΛΗ Μ.ΑΛΕΞΑΝΔΡΟΥ,"{'opening_hours': {'Mon': '05:00-18:00', 'Tue': '05:00-18:00', 'Wed': '05:00-18:00', 'Thu': '05:00-18:00', 'Fri': '05:00-18:00', 'Sat': '05:00-18:00', 'Sun': '05:00-18:00'}}",2551087048,68100,587,,alexandroypoli-m-alexandroy
"Βασ.Κωνσταντίνου 131 -, 68200 ΟΡΕΣΤΙΑΔΑ, Ελλάδα",AB Vassilopoulos,ΟΡΕΣΤΙΑΔΑ,Greece,"{'brand': 'AB Vassilopoulos', 'fascia': 'AB', 'category': 'Retail', 'edit_date': '20250518', 'lat_lon_source': 'Third Party'}",41.497881,26.532153,ΟΡΕΣΤΙΑΔΑ ΒΑΣ. ΚΩΝΣΤΑΝΤΙΝΟΥ,"{'opening_hours': {'Mon': '05:00-18:00', 'Tue': '05:00-18:00', 'Wed': '05:00-18:00', 'Thu': '05:00-18:00', 'Fri': '05:00-18:00', 'Sat': '05:00-18:00', 'Sun': '05:00-18:00'}}",2552021426,68200,590,,orestiada-vas-konstantinoy
"Έναντι Γηπέδου -, 69300 ΣΑΠΠΕΣ, Ελλάδα",AB Vassilopoulos,ΣΑΠΠΕΣ,Greece,"{'brand': 'AB Vassilopoulos', 'fascia': 'ABCITY', 'category': 'Retail', 'edit_date': '20250518', 'lat_lon_source': 'Third Party'}",41.023508,25.696524,ΑΛΕΞΑΝΔΡΟΥΠΟΛΗ ΣΑΠΠΕΣ,"{'opening_hours': {'Mon': '05:00-18:00', 'Tue': '05:00-18:00', 'Wed': '05:00-18:00', 'Thu': '05:00-18:00', 'Fri': '05:00-18:00', 'Sat': '05:00-18:00', 'Sun': '05:00-18:00'}}",2532021074,69300,591,,alexandroypoli-sappes
"Δήμος Καβάλας  Θέση Περγιάλι, 65201 ΚΑΒΑΛΑ, Ελλάδα",AB Vassilopoulos,ΚΑΒΑΛΑ,Greece,"{'brand': 'AB Vassilopoulos', 'fascia': 'AB', 'category': 'Retail', 'edit_date': '20250518', 'lat_lon_source': 'Third Party'}",40.945709,24.431532,ΚΑΒΑΛΑ ΘΕΣΗ ΠΕΡΙΓΙΑΛΙ,"{'opening_hours': {'Mon': '05:00-18:00', 'Tue': '05:00-18:00', 'Wed': '05:00-18:00', 'Thu': '05:00-18:00', 'Fri': '05:00-18:00', 'Sat': '05:00-18:00', 'Sun': '05:00-18:00'}}",2510830588,65201,593,,kavala-thesi-perigiali
"ΝΙΚΟΛΟΠΟΥΛΟΥ 21, 24400 ΓΑΡΓΑΛΙΑΝΟΙ, Ελλάδα",AB Vassilopoulos,ΓΑΡΓΑΛΙΑΝΟΙ,Greece,"{'brand': 'AB Vassilopoulos', 'fascia': 'FOODMRKT', 'category': 'Retail', 'edit_date': '20250518', 'lat_lon_source': 'Third Party'}",37.062186,21.639726,FM ΓΑΡΓΑΛΙΑΝΟΙ (ΝΙΚΟΛΟΠΟΥΛΟΥ),"{'opening_hours': {'Mon': '05:00-18:00', 'Tue': '05:00-18:00', 'Wed': '05:00-18:00', 'Thu': '05:00-18:00', 'Fri': '05:00-18:00', 'Sat': '05:00-18:00', 'Sun': '05:00-18:00'}}",2763022233,24400,802,,fm-gargalianoi-nikolopoyloy
"ΜΗΤΡΟΠΟΛΕΩΣ 82 & ΓΡΗΓΟΡΙΟΥ Ε', 25100 ΑΙΓΙΟ, Ελλάδα",AB Vassilopoulos,ΑΙΓΙΟ,Greece,"{'brand': 'AB Vassilopoulos', 'fascia': 'FOODMRKT', 'category': 'Retail', 'edit_date': '20250518', 'lat_lon_source': 'Third Party'}",38.250271,22.079555,FM ΑΙΓΙΟ,"{'opening_hours': {'Mon': '05:00-18:00', 'Tue': '05:00-18:00', 'Wed': '05:00-18:00', 'Thu': '05:00-18:00', 'Fri': '05:00-18:00', 'Sat': '05:00-18:00', 'Sun': '05:00-18:00'}}",2691068194,25100,803,,fm-aigio
"ΛΕΩΦΟΡΟΣ ΚΑΛΥΒΙΩΝ 501, 19010 ΚΑΛΥΒΙΑ, Ελλάδα",AB Vassilopoulos,ΚΑΛΥΒΙΑ,Greece,"{'brand': 'AB Vassilopoulos', 'fascia': 'FOODMRKT', 'category': 'Retail', 'edit_date': '20250518', 'lat_lon_source': 'Third Party'}",37.830777,23.914303,ABF ΚΑΛΥΒΙΑ,"{'opening_hours': {'Mon': '05:00-18:00', 'Tue': '05:00-18:00', 'Wed': '05:00-18:00', 'Thu': '05:00-18:00', 'Fri': '05:00-18:00', 'Sat': '05:00-18:00', 'Sun': '05:00-18:00'}}","2291027153,2291071842",19010,808,,abf-kalyvia
"ΜΠΑΤΣΙ ΑΝΔΡΟΥ, 84501 ΜΠΑΤΣΙ, Ελλάδα",AB Vassilopoulos,ΜΠΑΤΣΙ,Greece,"{'brand': 'AB Vassilopoulos', 'fascia': 'FOODMRKT', 'category': 'Retail', 'edit_date': '20250518', 'lat_lon_source': 'Third Party'}",37.857821,24.787522,FM ΑΝΔΡΟΣ (ΜΠΑΤΣΙ),"{'opening_hours': {'Mon': '05:00-18:00', 'Tue': '05:00-18:00', 'Wed': '05:00-18:00', 'Thu': '05:00-18:00', 'Fri': '05:00-18:00', 'Sat': '05:00-18:00', 'Sun': '05:00-18:00'}}","2282042379,2282042422",84501,816,,fm-andros-mpatsi
"ΧΩΡΑ ΣΑΜΟΥ, 83103 ΣΑΜΟΣ, Ελλάδα",AB Vassilopoulos,ΣΑΜΟΣ,Greece,"{'brand': 'AB Vassilopoulos', 'fascia': 'FOODMRKT', 'category': 'Retail', 'edit_date': '20250518', 'lat_lon_source': 'Third Party'}",37.701953,26.907884,FM ΣΑΜΟΣ (ΧΩΡΑ),"{'opening_hours': {'Mon': '05:00-18:00', 'Tue': '05:00-18:00', 'Wed': '05:00-18:00', 'Thu': '05:00-18:00', 'Fri': '05:00-18:00', 'Sat': '05:00-18:00', 'Sun': '05:00-18:00'}}",2273091431,83103,818,,fm-samos-chora
"ΕΠΑΡΧΙΑΚΗ ΟΔΟΣ ΚΟΛΙΑΚΙΟΥ - ΕΠΙΔΑΥΡΟΥ, 21059 ΕΠΙΔΑΥΡΟΣ, Ελλάδα",AB Vassilopoulos,ΕΠΙΔΑΥΡΟΣ,Greece,"{'brand': 'AB Vassilopoulos', 'fascia': 'FOODMRKT', 'category': 'Retail', 'edit_date': '20250518', 'lat_lon_source': 'Third Party'}",37.628654,23.141279,FM ΕΠΙΔΑΥΡΟΣ,"{'opening_hours': {'Mon': '05:00-18:00', 'Tue': '05:00-18:00', 'Wed': '05:00-18:00', 'Thu': '05:00-18:00', 'Fri': '05:00-18:00', 'Sat': '05:00-18:00', 'Sun': '05:00-18:00'}}",2753096539,21059,819,,fm-epidayros
"14 ΧΛΜ. ΛΕΟΦΩΡΟΥ ΡΟΔΟΥ - ΛΙΝΔΟΥ ΦΑΛΗΡΑΚΙ, 85100 ΡΟΔΟΣ, Ελλάδα",AB Vassilopoulos,ΡΟΔΟΣ,Greece,"{'brand': 'AB Vassilopoulos', 'fascia': 'FOODMRKT', 'category': 'Retail', 'edit_date': '20250518', 'lat_lon_source': 'Third Party'}",36.341838,28.198823,FM ΡΟΔΟΣ (ΦΑΛΗΡΑΚΙ),"{'opening_hours': {'Mon': '05:00-18:00', 'Tue': '05:00-18:00', 'Wed': '05:00-18:00', 'Thu': '05:00-18:00', 'Fri': '05:00-18:00', 'Sat': '05:00-18:00', 'Sun': '05:00-18:00'}}",2241087982,85100,827,,fm-rodos-faliraki
"3 ΧΛΜ ΕΠΑΡΧΙΑΚΗΣ ΟΔΟΥ ΑΡΓΟΣΤΟΛΙΟΥ - ΠΟΡΟΥ, 28100 ΑΡΓΟΣΤΟΛΙ, Ελλάδα",AB Vassilopoulos,ΑΡΓΟΣΤΟΛΙ,Greece,"{'brand': 'AB Vassilopoulos', 'fascia': 'FOODMRKT', 'category': 'Retail', 'edit_date': '20250518', 'lat_lon_source': 'Third Party'}",38.148512,20.528057,FM ΚΕΦΑΛΟΝΙΑ (ΑΡΓΟΣΤΟΛΙ),"{'opening_hours': {'Mon': '05:00-18:00', 'Tue': '05:00-18:00', 'Wed': '05:00-18:00', 'Thu': '05:00-18:00', 'Fri': '05:00-18:00', 'Sat': '05:00-18:00', 'Sun': '05:00-18:00'}}",2671027940,28100,834,,fm-kefalonia-argostoli
"ΥΨΟΣ ΚΕΡΚΥΡΑΣ  ΚΑΤΩ ΚΟΡΑΚΙΑΝΑ, 49100 ΚΕΡΚΥΡΑ, Ελλάδα",AB Vassilopoulos,ΚΕΡΚΥΡΑ,Greece,"{'brand': 'AB Vassilopoulos', 'fascia': 'FOODMRKT', 'category': 'Retail', 'edit_date': '20250518', 'lat_lon_source': 'Third Party'}",39.703385,19.841046,FM ΚΕΡΚΥΡΑ,"{'opening_hours': {'Mon': '05:00-18:00', 'Tue': '05:00-18:00', 'Wed': '05:00-18:00', 'Thu': '05:00-18:00', 'Fri': '05:00-18:00', 'Sat': '05:00-18:00', 'Sun': '05:00-18:00'}}",2661097959,49100,841,,fm-kerkyra
"ΑΡΧΑΙΑ ΟΛΥΜΠΙΑ ΘΕΣΗ ΜΑΜΟΥΣΕΪΚΑ, 27065 ΑΡΧΑΙΑ ΟΛΥΜΠΙΑ, Ελλάδα",AB Vassilopoulos,ΑΡΧΑΙΑ ΟΛΥΜΠΙΑ,Greece,"{'brand': 'AB Vassilopoulos', 'fascia': 'FOODMRKT', 'category': 'Retail', 'edit_date': '20250518', 'lat_lon_source': 'Third Party'}",37.647269,21.626345,FM ΑΡΧΑΙΑ ΟΛΥΜΠΙΑ,"{'opening_hours': {'Mon': '05:00-18:00', 'Tue': '05:00-18:00', 'Wed': '05:00-18:00', 'Thu': '05:00-18:00', 'Fri': '05:00-18:00', 'Sat': '05:00-18:00', 'Sun': '05:00-18:00'}}",2624023734,27065,844,,fm-archaia-olympia
"ΚΑΝΑΔΑ 117, 85100 ΡΟΔΟΣ, Ελλάδα",AB Vassilopoulos,ΡΟΔΟΣ,Greece,"{'brand': 'AB Vassilopoulos', 'fascia': 'FOODMRKT', 'category': 'Retail', 'edit_date': '20250518', 'lat_lon_source': 'Third Party'}",36.432804,28.233278,FM ΡΟΔΟΣ (ΚΑΝΑΔΑ),"{'opening_hours': {'Mon': '05:00-18:00', 'Tue': '05:00-18:00', 'Wed': '05:00-18:00', 'Thu': '05:00-18:00', 'Fri': '05:00-18:00', 'Sat': '05:00-18:00', 'Sun': '05:00-18:00'}}",2241029360,85100,847,,fm-rodos-kanada
"ΝΙΚΟΛΑΟΥ ΣΚΙΑΔΑ 3, 24400 ΓΑΡΓΑΛΙΑΝΟΙ, Ελλάδα",AB Vassilopoulos,ΓΑΡΓΑΛΙΑΝΟΙ,Greece,"{'brand': 'AB Vassilopoulos', 'fascia': 'FOODMRKT', 'category': 'Retail', 'edit_date': '20250518', 'lat_lon_source': 'Third Party'}",37.067504,21.636025,FM ΓΑΡΓΑΛΙΑΝΟΙ (ΚΕΝΤΡΟ),"{'opening_hours': {'Mon': '05:00-18:00', 'Tue': '05:00-18:00', 'Wed': '05:00-18:00', 'Thu': '05:00-18:00', 'Fri': '05:00-18:00', 'Sat': '05:00-18:00', 'Sun': '05:00-18:00'}}",2763022007,24400,848,,fm-gargalianoi-kentro
"ΑΡΑΧΩΒΑ (ΘΕΣΗ ΨΗΛΑ ΑΛΩΝΙΑ), 32004 ΑΡΑΧΩΒΑ, Ελλάδα",AB Vassilopoulos,ΑΡΑΧΩΒΑ,Greece,"{'brand': 'AB Vassilopoulos', 'fascia': 'FOODMRKT', 'category': 'Retail', 'edit_date': '20250518', 'lat_lon_source': 'Third Party'}",38.480719,22.578819,FM ΑΡΑΧΩΒΑ,"{'opening_hours': {'Mon': '05:00-18:00', 'Tue': '05:00-18:00', 'Wed': '05:00-18:00', 'Thu': '05:00-18:00', 'Fri': '05:00-18:00', 'Sat': '05:00-18:00', 'Sun': '05:00-18:00'}}",2267032678,32004,851,,fm-arachova
"ΚΑΡΑΓΙΑΝΝΟΠΟΥΛΟΥ 42, 32100 ΛΙΒΑΔΕΙΑ, Ελλάδα",AB Vassilopoulos,ΛΙΒΑΔΕΙΑ,Greece,"{'brand': 'AB Vassilopoulos', 'fascia': 'FOODMRKT', 'category': 'Retail', 'edit_date': '20250518', 'lat_lon_source': 'Third Party'}",38.437428,22.878758,FM ΛΙΒΑΔΕΙΑ,"{'opening_hours': {'Mon': '05:00-18:00', 'Tue': '05:00-18:00', 'Wed': '05:00-18:00', 'Thu': '05:00-18:00', 'Fri': '05:00-18:00', 'Sat': '05:00-18:00', 'Sun': '05:00-18:00'}}",2261025043,32100,852,,fm-livadeia
"ΓΑΥΡΙΟ ΑΝΔΡΟΥ, 84501 ΓΑΥΡΙΟ, Ελλάδα",AB Vassilopoulos,ΓΑΥΡΙΟ,Greece,"{'brand': 'AB Vassilopoulos', 'fascia': 'FOODMRKT', 'category': 'Retail', 'edit_date': '20250518', 'lat_lon_source': 'Third Party'}",37.884428,24.736899,FM ΑΝΔΡΟΣ (ΓΑΥΡΙΟ),"{'opening_hours': {'Mon': '05:00-18:00', 'Tue': '05:00-18:00', 'Wed': '05:00-18:00', 'Thu': '05:00-18:00', 'Fri': '05:00-18:00', 'Sat': '05:00-18:00', 'Sun': '05:00-18:00'}}",2282071770,84501,858,,fm-andros-gayrio
"ΕΘΝΙΚΗΣ ΑΝΤΙΣΤΑΣΕΩΣ 6Α, 27051 ΑΝΔΡΑΒΙΔΑ, Ελλάδα",AB Vassilopoulos,ΑΝΔΡΑΒΙΔΑ,Greece,"{'brand': 'AB Vassilopoulos', 'fascia': 'FOODMRKT', 'category': 'Retail', 'edit_date': '20250518', 'lat_lon_source': 'Third Party'}",37.907693,21.270212,ABF ΑΝΔΡΑΒΙΔΑ-E.ΑΝΤΙΣΤΑΣΕΩΣ 6A,"{'opening_hours': {'Mon': '05:00-18:00', 'Tue': '05:00-18:00', 'Wed': '05:00-18:00', 'Thu': '05:00-18:00', 'Fri': '05:00-18:00', 'Sat': '05:00-18:00', 'Sun': '05:00-18:00'}}",2623054222,27051,860,,abf-andravida-e-antistaseos-6a
"ΛΕΩΦΟΡΟΣ ΔΗΜΟΚΡΑΤΙΑΣ & ΖΑΛΟΓΓΟΥ, 60300 ΑΙΓIΝΙΟ, Ελλάδα",AB Vassilopoulos,ΑΙΓIΝΙΟ,Greece,"{'brand': 'AB Vassilopoulos', 'fascia': 'FOODMRKT', 'category': 'Retail', 'edit_date': '20250518', 'lat_lon_source': 'Third Party'}",40.50421,22.539967,FM ΑΙΓΙΝΙΟ,"{'opening_hours': {'Mon': '05:00-18:00', 'Tue': '05:00-18:00', 'Wed': '05:00-18:00', 'Thu': '05:00-18:00', 'Fri': '05:00-18:00', 'Sat': '05:00-18:00', 'Sun': '05:00-18:00'}}",2353023934,60300,864,,fm-aiginio
"ΜΑΥΡΟΘΑΛΑΣΣΑ ΣΕΡΡΩΝ, 62049 ΜΑΥΡΟΘΑΛΑΣΣΑ, Ελλάδα",AB Vassilopoulos,ΜΑΥΡΟΘΑΛΑΣΣΑ,Greece,"{'brand': 'AB Vassilopoulos', 'fascia': 'FOODMRKT', 'category': 'Retail', 'edit_date': '20250518', 'lat_lon_source': 'Third Party'}",40.891689,23.748969,FM ΜΑΥΡΟΘΑΛΑΣΣΑ,"{'opening_hours': {'Mon': '05:00-18:00', 'Tue': '05:00-18:00', 'Wed': '05:00-18:00', 'Thu': '05:00-18:00', 'Fri': '05:00-18:00', 'Sat': '05:00-18:00', 'Sun': '05:00-18:00'}}",2322031207,62049,868,,fm-mayrothalassa
"ΣΕΒΑΣΤΟΥΠΟΛΕΩΣ 118, 11526 ΑΘΗΝΑ, Ελλάδα",AB Vassilopoulos,ΑΘΗΝΑ,Greece,"{'brand': 'AB Vassilopoulos', 'fascia': 'FOODMRKT', 'category': 'Retail', 'edit_date': '20250518', 'lat_lon_source': 'Third Party'}",37.992381,23.768104,FM ΕΡΥΘΡΟΣ ΣΤΑΥΡΟΣ,"{'opening_hours': {'Mon': '05:00-18:00', 'Tue': '05:00-18:00', 'Wed': '05:00-18:00', 'Thu': '05:00-18:00', 'Fri': '05:00-18:00', 'Sat': '05:00-18:00', 'Sun': '05:00-18:00'}}","2106925113,2106925114",11526,870,,fm-erythros-stayros
"ΝΑΟΥΣΑ ΠΑΡΟΥ, 84401 ΝΑΟΥΣΑ, Ελλάδα",AB Vassilopoulos,ΝΑΟΥΣΑ,Greece,"{'brand': 'AB Vassilopoulos', 'fascia': 'FOODMRKT', 'category': 'Retail', 'edit_date': '20250518', 'lat_lon_source': 'Third Party'}",37.123148,25.238453,FM ΠΑΡΟΣ (ΝΑΟΥΣΑ),"{'opening_hours': {'Mon': '05:00-18:00', 'Tue': '05:00-18:00', 'Wed': '05:00-18:00', 'Thu': '05:00-18:00', 'Fri': '05:00-18:00', 'Sat': '05:00-18:00', 'Sun': '05:00-18:00'}}",2284055108,84401,871,,fm-paros-naoysa
"ΓΡΗΓΟΡΙΟΥ ΛΑΜΠΡΑΚΗ 40, 28200 ΛΗΞΟΥΡΙ, Ελλάδα",AB Vassilopoulos,ΛΗΞΟΥΡΙ,Greece,"{'brand': 'AB Vassilopoulos', 'fascia': 'FOODMRKT', 'category': 'Retail', 'edit_date': '20250518', 'lat_lon_source': 'Third Party'}",38.199715,20.438663,FM ΚΕΦΑΛΟΝΙΑ (ΛΗΞΟΥΡΙ),"{'opening_hours': {'Mon': '05:00-18:00', 'Tue': '05:00-18:00', 'Wed': '05:00-18:00', 'Thu': '05:00-18:00', 'Fri': '05:00-18:00', 'Sat': '05:00-18:00', 'Sun': '05:00-18:00'}}",2671093546,28200,873,,fm-kefalonia-lixoyri
"ΕΛΕΥΘΕΡΙΟΥ ΒΕΝΙΖΕΛΟΥ 53, 30002 ΒΟΝΙΤΣΑ, Ελλάδα",AB Vassilopoulos,ΒΟΝΙΤΣΑ,Greece,"{'brand': 'AB Vassilopoulos', 'fascia': 'FOODMRKT', 'category': 'Retail', 'edit_date': '20250518', 'lat_lon_source': 'Third Party'}",38.914638,20.889719,FM ΒΟΝΙΤΣΑ,"{'opening_hours': {'Mon': '05:00-18:00', 'Tue': '05:00-18:00', 'Wed': '05:00-18:00', 'Thu': '05:00-18:00', 'Fri': '05:00-18:00', 'Sat': '05:00-18:00', 'Sun': '05:00-18:00'}}","2643022340,2643022490",30002,874,,fm-vonitsa
"ΝΙΚΟΠΟΛΕΩΣ 60, 48100 ΠΡΕΒΕΖΑ, Ελλάδα",AB Vassilopoulos,ΠΡΕΒΕΖΑ,Greece,"{'brand': 'AB Vassilopoulos', 'fascia': 'FOODMRKT', 'category': 'Retail', 'edit_date': '20250518', 'lat_lon_source': 'Third Party'}",38.954068,20.748236,FM ΠΡΕΒΕΖΑ,"{'opening_hours': {'Mon': '05:00-18:00', 'Tue': '05:00-18:00', 'Wed': '05:00-18:00', 'Thu': '05:00-18:00', 'Fri': '05:00-18:00', 'Sat': '05:00-18:00', 'Sun': '05:00-18:00'}}",2682022647,48100,877,,fm-preveza
"ΕΘΝΙΚΗ ΟΔΟΣ ΠΥΡΓΟΥ-ΚΥΠΑΡΙΣΣΙΑΣ, 27054 ΖΑΧΑΡΩ, Ελλάδα",AB Vassilopoulos,ΖΑΧΑΡΩ,Greece,"{'brand': 'AB Vassilopoulos', 'fascia': 'FOODMRKT', 'category': 'Retail', 'edit_date': '20250518', 'lat_lon_source': 'Third Party'}",37.482445,21.649494,FM ΖΑΧΑΡΩ,"{'opening_hours': {'Mon': '05:00-18:00', 'Tue': '05:00-18:00', 'Wed': '05:00-18:00', 'Thu': '05:00-18:00', 'Fri': '05:00-18:00', 'Sat': '05:00-18:00', 'Sun': '05:00-18:00'}}",2625031826,27054,878,,fm-zacharo
"ΛΑΚΚΑ ΜΥΚΟΝΟΥ, 84600 ΜΥΚΟΝΟΣ, Ελλάδα",AB Vassilopoulos,ΜΥΚΟΝΟΣ,Greece,"{'brand': 'AB Vassilopoulos', 'fascia': 'FOODMRKT', 'category': 'Retail', 'edit_date': '20250518', 'lat_lon_source': 'Third Party'}",37.444222,25.328469,FM ΜΥΚΟNOΣ (ΛΑΚΚΑ),"{'opening_hours': {'Mon': '05:00-18:00', 'Tue': '05:00-18:00', 'Wed': '05:00-18:00', 'Thu': '05:00-18:00', 'Fri': '05:00-18:00', 'Sat': '05:00-18:00', 'Sun': '05:00-18:00'}}",2289024897,84600,881,,fm-mykonos-lakka
"1 ΧΛΜ ΕΘΝΙΚΗΣ ΟΔΟΥ ΦΙΛΙΑΤΡΩΝ ΚΥΠΑΡΙΣΣΙΑΣ, 24300 ΦΙΛΙΑΤΡΑ, Ελλάδα",AB Vassilopoulos,ΦΙΛΙΑΤΡΑ,Greece,"{'brand': 'AB Vassilopoulos', 'fascia': 'FOODMRKT', 'category': 'Retail', 'edit_date': '20250518', 'lat_lon_source': 'Third Party'}",37.165229,21.582526,FM ΦΙΛΙΑΤΡΑ,"{'opening_hours': {'Mon': '05:00-18:00', 'Tue': '05:00-18:00', 'Wed': '05:00-18:00', 'Thu': '05:00-18:00', 'Fri': '05:00-18:00', 'Sat': '05:00-18:00', 'Sun': '05:00-18:00'}}",2761033835,24300,883,,fm-filiatra
"ΟΣΙΟΥ ΙΩΑΝΝΟΥ ΤΟΥ ΡΩΣΣΟΥ 50 & ΑΡΙΣΤΕΙΔΟΥ, 34002 ΒΑΣΙΛΙΚΟ, Ελλάδα",AB Vassilopoulos,ΒΑΣΙΛΙΚΟ,Greece,"{'brand': 'AB Vassilopoulos', 'fascia': 'FOODMRKT', 'category': 'Retail', 'edit_date': '20250518', 'lat_lon_source': 'Third Party'}",38.424492,23.673837,FM ΒΑΣΙΛΙΚΟ ΧΑΛΚΙΔΑΣ,"{'opening_hours': {'Mon': '05:00-18:00', 'Tue': '05:00-18:00', 'Wed': '05:00-18:00', 'Thu': '05:00-18:00', 'Fri': '05:00-18:00', 'Sat': '05:00-18:00', 'Sun': '05:00-18:00'}}",2221054620,34002,884,,fm-vasiliko-chalkidas
"ΕΛΑΤΟΥ, 35004 ΕΛΑΤΕΙΑ, Ελλάδα",AB Vassilopoulos,ΕΛΑΤΕΙΑ,Greece,"{'brand': 'AB Vassilopoulos', 'fascia': 'FOODMRKT', 'category': 'Retail', 'edit_date': '20250518', 'lat_lon_source': 'Third Party'}",38.627346,22.761705,FM ΕΛΑΤΕΙΑ,"{'opening_hours': {'Mon': '05:00-18:00', 'Tue': '05:00-18:00', 'Wed': '05:00-18:00', 'Thu': '05:00-18:00', 'Fri': '05:00-18:00', 'Sat': '05:00-18:00', 'Sun': '05:00-18:00'}}",2234029190,35004,885,,fm-elateia
"ΑΝΤΩΝΗ ΤΡΙΤΣΗ 99, 28100 ΑΡΓΟΣΤΟΛΙ, Ελλάδα",AB Vassilopoulos,ΑΡΓΟΣΤΟΛΙ,Greece,"{'brand': 'AB Vassilopoulos', 'fascia': 'FOODMRKT', 'category': 'Retail', 'edit_date': '20250518', 'lat_lon_source': 'Third Party'}",38.169682,20.492249,FM ΚΕΦΑΛΟΝΙΑ (ΛΙΜ.ΑΡΓΟΣΤΟΛΙΟΥ),"{'opening_hours': {'Mon': '05:00-18:00', 'Tue': '05:00-18:00', 'Wed': '05:00-18:00', 'Thu': '05:00-18:00', 'Fri': '05:00-18:00', 'Sat': '05:00-18:00', 'Sun': '05:00-18:00'}}",2671027001,28100,887,,fm-kefalonia-lim-argostolioy
"ΛΕΩΝΙΔΑ ΖΕΡΒΑ 16-18, 22200 ΜΕΓΑΛΟΠΟΛΗ, Ελλάδα",AB Vassilopoulos,ΜΕΓΑΛΟΠΟΛΗ,Greece,"{'brand': 'AB Vassilopoulos', 'fascia': 'FOODMRKT', 'category': 'Retail', 'edit_date': '20250518', 'lat_lon_source': 'Third Party'}",37.400918,22.136001,FM ΜΕΓΑΛΟΠΟΛΗ,"{'opening_hours': {'Mon': '05:00-18:00', 'Tue': '05:00-18:00', 'Wed': '05:00-18:00', 'Thu': '05:00-18:00', 'Fri': '05:00-18:00', 'Sat': '05:00-18:00', 'Sun': '05:00-18:00'}}",2791029119,22200,893,,fm-megalopoli
"Καλλιδρομίου 32, 11473 ΕΞΑΡΧΕΙΑ, Ελλάδα",AB Vassilopoulos,ΕΞΑΡΧΕΙΑ,Greece,"{'brand': 'AB Vassilopoulos', 'fascia': 'ABCITY', 'category': 'Retail', 'edit_date': '20250518', 'lat_lon_source': 'Third Party'}",37.98630636,23.7385565,ΕΞΑΡΧΕΙΑ ΚΑΛΛΙΔΡΟΜΙΟΥ,"{'opening_hours': {'Mon': '05:00-18:00', 'Tue': '05:00-18:00', 'Wed': '05:00-18:00', 'Thu': '05:00-18:00', 'Fri': '05:00-18:00', 'Sat': '05:00-18:00', 'Sun': '05:00-18:00'}}",2103817060,11473,377,,exarcheia-kallidromioy
"Επιδαύρου 49-51, 54454 ΤΟΥΜΠΑ, Ελλάδα",AB Vassilopoulos,ΤΟΥΜΠΑ,Greece,"{'brand': 'AB Vassilopoulos', 'fascia': 'AB', 'category': 'Retail', 'edit_date': '20250518', 'lat_lon_source': 'Third Party'}",40.60821079,22.981021,ΘΕΣ/ΚΗ ΤΟΥΜΠΑ 2 ΕΠΙΔΑΥΡΟΥ,"{'opening_hours': {'Mon': '05:00-18:00', 'Tue': '05:00-18:00', 'Wed': '05:00-18:00', 'Thu': '05:00-18:00', 'Fri': '05:00-18:00', 'Sat': '05:00-18:00', 'Sun': '05:00-18:00'}}",2310949449,54454,393,,thes-ki-toympa-2-epidayroy
"Παπαδιαμαντοπούλου & Πετρουλα, 30200 ΜΕΣΟΛΟΓΓΙ, Ελλάδα",AB Vassilopoulos,ΜΕΣΟΛΟΓΓΙ,Greece,"{'brand': 'AB Vassilopoulos', 'fascia': 'AB', 'category': 'Retail', 'edit_date': '20250518', 'lat_lon_source': 'Third Party'}",38.376017,21.430703,ΜΕΣΟΛΟΓΓΙ,"{'opening_hours': {'Mon': '05:00-18:00', 'Tue': '05:00-18:00', 'Wed': '05:00-18:00', 'Thu': '05:00-18:00', 'Fri': '05:00-18:00', 'Sat': '05:00-18:00', 'Sun': '05:00-18:00'}}","2631028866,2631028860",30200,397,,mesologgi
"ΑΥΛΩΝΑ ΑΤΤΙΚΗΣ - ΘΕΣΗ ΖΥΓΟΜΑΛΑ Π.Ε.Ο. ΑΘΗΝΩΝ-ΧΑΛΚΙΔΑΣ, 10443 ΑΥΛΩΝΑ, Ελλάδα",AB Vassilopoulos,ΑΥΛΩΝΑ,Greece,"{'brand': 'AB Vassilopoulos', 'fascia': 'FOODMRKT', 'category': 'Retail', 'edit_date': '20250518', 'lat_lon_source': 'Third Party'}",38.248294,23.703308,FM ΑΥΛΩΝΑ,"{'opening_hours': {'Mon': '05:00-18:00', 'Tue': '05:00-18:00', 'Wed': '05:00-18:00', 'Thu': '05:00-18:00', 'Fri': '05:00-18:00', 'Sat': '05:00-18:00', 'Sun': '05:00-18:00'}}",2295044121,10443,894,,fm-aylona
"ΞΕΝΟΦΩΝΤΟΣ 18, 27055 ΚΡΕΣΤΕΝΑ, Ελλάδα",AB Vassilopoulos,ΚΡΕΣΤΕΝΑ,Greece,"{'brand': 'AB Vassilopoulos', 'fascia': 'FOODMRKT', 'category': 'Retail', 'edit_date': '20250518', 'lat_lon_source': 'Third Party'}",37.591586,21.616371,FM ΚΡΕΣΤΕΝΑ,"{'opening_hours': {'Mon': '05:00-18:00', 'Tue': '05:00-18:00', 'Wed': '05:00-18:00', 'Thu': '05:00-18:00', 'Fri': '05:00-18:00', 'Sat': '05:00-18:00', 'Sun': '05:00-18:00'}}","26250-25300,26250-25300",27055,895,,fm-krestena
"ΠΕΡΙΦΕΡΕΙΑΚΗ Ν.ΛΙΜΑΝΙΟΥ, 84600 ΜΥΚΟΝΟΣ, Ελλάδα",AB Vassilopoulos,ΜΥΚΟΝΟΣ,Greece,"{'brand': 'AB Vassilopoulos', 'fascia': 'FOODMRKT', 'category': 'Retail', 'edit_date': '20250518', 'lat_lon_source': 'Third Party'}",37.44696,25.334762,FM ΜΥΚΟΝΟΣ (ΠΕΡ.ΟΔΟΣ),"{'opening_hours': {'Mon': '05:00-18:00', 'Tue': '05:00-18:00', 'Wed': '05:00-18:00', 'Thu': '05:00-18:00', 'Fri': '05:00-18:00', 'Sat': '05:00-18:00', 'Sun': '05:00-18:00'}}","22890-28991,22890-28991",84600,897,,fm-mykonos-per-odos
"Λεωφόρος Κηφισού 94, 12241 ΑΙΓΑΛΕΩ, Ελλάδα",AB Vassilopoulos,ΑΙΓΑΛΕΩ,Greece,"{'brand': 'AB Vassilopoulos', 'fascia': 'AB', 'category': 'Retail', 'edit_date': '20250518', 'lat_lon_source': 'Third Party'}",37.98220712,23.680781,ΚΗΦΙΣΟΣ,"{'opening_hours': {'Mon': '05:00-18:00', 'Tue': '05:00-18:00', 'Wed': '05:00-18:00', 'Thu': '05:00-18:00', 'Fri': '05:00-18:00', 'Sat': '05:00-18:00', 'Sun': '05:00-18:00'}}",2105444043,12241,375,,kifisos
"2ο χλμ Ε.Ο. Μυτιλήνης - Θέρμης, 81100 ΜΥΤΙΛΗΝΗ, Ελλάδα",AB Vassilopoulos,ΜΥΤΙΛΗΝΗ,Greece,"{'brand': 'AB Vassilopoulos', 'fascia': 'AB', 'category': 'Retail', 'edit_date': '20250518', 'lat_lon_source': 'Third Party'}",39.125515,26.545352,ΜΥΤΙΛΗΝΗ ΚΑΡΑΤΕΠΕ,"{'opening_hours': {'Mon': '05:00-18:00', 'Tue': '05:00-18:00', 'Wed': '05:00-18:00', 'Thu': '05:00-18:00', 'Fri': '05:00-18:00', 'Sat': '05:00-18:00', 'Sun': '05:00-18:00'}}",2251025440,81100,399,,mytilini-karatepe
"ΧΑΤΖΗΑΝΤΩΝΙΟΥ 9-11 & Δ.ΡΑΛΛΗ, 15124 ΜΑΡΟΥΣΙ, Ελλάδα",AB Vassilopoulos,ΜΑΡΟΥΣΙ,Greece,"{'brand': 'AB Vassilopoulos', 'fascia': 'AB', 'category': 'Retail', 'edit_date': '20250518', 'lat_lon_source': 'Third Party'}",38.053275,23.806934,ΜΑΡΟΥΣΙ ΧΑΤΖΗΑΝΤΩΝΙΟΥ,"{'opening_hours': {'Mon': '05:00-18:00', 'Tue': '05:00-18:00', 'Wed': '05:00-18:00', 'Thu': '05:00-18:00', 'Fri': '05:00-18:00', 'Sat': '05:00-18:00', 'Sun': '05:00-18:00'}}",,15124,555,,maroysi-chatziantonioy
"25ης Μαρτίου & Μουρούζη, 18543 ΠΕΙΡΑΙΑΣ, Ελλάδα",AB Vassilopoulos,ΠΕΙΡΑΙΑΣ,Greece,"{'brand': 'AB Vassilopoulos', 'fascia': 'AB', 'category': 'Retail', 'edit_date': '20250518', 'lat_lon_source': 'Third Party'}",37.96149,23.649175,ΠΕΙΡΑΙΑΣ ΚΟΚΚΙΝΙΑ 25ης ΜΑΡΤΙΟΥ,"{'opening_hours': {'Mon': '05:00-18:00', 'Tue': '05:00-18:00', 'Wed': '05:00-18:00', 'Thu': '05:00-18:00', 'Fri': '05:00-18:00', 'Sat': '05:00-18:00', 'Sun': '05:00-18:00'}}",2104909003,18543,376,,peiraias-kokkinia-25is-martioy
"Κόμβος Ιονίας οδού,Αγ.Δημήτριος, 47100 ΑΡΤΑ, Ελλάδα",AB Vassilopoulos,ΑΡΤΑ,Greece,"{'brand': 'AB Vassilopoulos', 'fascia': 'AB', 'category': 'Retail', 'edit_date': '20250518', 'lat_lon_source': 'Third Party'}",39.15812,21.012694,ΑΡΤΑ 2 ΚΟΜΒΟΣ ΙΩΝΙΑΣ ΟΔΟΥ,"{'opening_hours': {'Mon': '05:00-18:00', 'Tue': '05:00-18:00', 'Wed': '05:00-18:00', 'Thu': '05:00-18:00', 'Fri': '05:00-18:00', 'Sat': '05:00-18:00', 'Sun': '05:00-18:00'}}",2681082080,47100,383,,arta-2-komvos-ionias-odoy
"ΑΡΓΥΡΟΥΠΟΛΕΩΣ  63 & ΠΙΝΟΥ, 16451 ΑΡΓΥΡΟΥΠΟΛΗ, Ελλάδα",AB Vassilopoulos,ΑΡΓΥΡΟΥΠΟΛΗ,Greece,"{'brand': 'AB Vassilopoulos', 'fascia': 'AB', 'category': 'Retail', 'edit_date': '20250518', 'lat_lon_source': 'Third Party'}",37.91209215,23.7544048,ΑΡΓΥΡΟΥΠΟΛΗ,"{'opening_hours': {'Mon': '05:00-18:00', 'Tue': '05:00-18:00', 'Wed': '05:00-18:00', 'Thu': '05:00-18:00', 'Fri': '05:00-18:00', 'Sat': '05:00-18:00', 'Sun': '05:00-18:00'}}",2109939033,16451,392,,argyroypoli
"Επαρχιακή λεωφορος Ναξος-Χαλκιού, 84300 ΝΑΞΟΣ, Ελλάδα",AB Vassilopoulos,ΝΑΞΟΣ,Greece,"{'brand': 'AB Vassilopoulos', 'fascia': 'AB', 'category': 'Retail', 'edit_date': '20250518', 'lat_lon_source': 'Third Party'}",37.09915,25.38498,ΝΑΞΟΣ,"{'opening_hours': {'Mon': '05:00-18:00', 'Tue': '05:00-18:00', 'Wed': '05:00-18:00', 'Thu': '05:00-18:00', 'Fri': '05:00-18:00', 'Sat': '05:00-18:00', 'Sun': '05:00-18:00'}}",22850-22.302,84300,386,,naxos
"Νεωρίου 25, 84100 ΣΥΡΟΣ ΕΡΜΟΥΠΟΛΗ, Ελλάδα",AB Vassilopoulos,ΣΥΡΟΣ ΕΡΜΟΥΠΟΛΗ,Greece,"{'brand': 'AB Vassilopoulos', 'fascia': 'AB', 'category': 'Retail', 'edit_date': '20250518', 'lat_lon_source': 'Third Party'}",37.440234,24.937198,ΣΥΡΟΣ ΕΡΜΟΥΠΟΛΗ,"{'opening_hours': {'Mon': '05:00-18:00', 'Tue': '05:00-18:00', 'Wed': '05:00-18:00', 'Thu': '05:00-18:00', 'Fri': '05:00-18:00', 'Sat': '05:00-18:00', 'Sun': '05:00-18:00'}}",,84100,617,,syros-ermoypoli
"Καταφια,Παγος, 84100 ΣΥΡΟΣ ΠΑΓΟΣ, Ελλάδα",AB Vassilopoulos,ΣΥΡΟΣ ΠΑΓΟΣ,Greece,"{'brand': 'AB Vassilopoulos', 'fascia': 'AB', 'category': 'Retail', 'edit_date': '20250518', 'lat_lon_source': 'Third Party'}",37.425355,24.907044,ΣΥΡΟΣ ΠΑΓΟΣ,"{'opening_hours': {'Mon': '05:00-18:00', 'Tue': '05:00-18:00', 'Wed': '05:00-18:00', 'Thu': '05:00-18:00', 'Fri': '05:00-18:00', 'Sat': '05:00-18:00', 'Sun': '05:00-18:00'}}",22810-45.129,84100,618,,syros-pagos
"Δημητρίου και Κυπρού, 56626 ΘΕΣΣΑΛΟΝΙΚΗ, Ελλάδα",AB Vassilopoulos,ΘΕΣΣΑΛΟΝΙΚΗ,Greece,"{'brand': 'AB Vassilopoulos', 'fascia': 'AB', 'category': 'Retail', 'edit_date': '20250518', 'lat_lon_source': 'Third Party'}",40.65032918,22.9522188,ΘΕΣ/ΚΗ ΣΥΚΙΕΣ,"{'opening_hours': {'Mon': '05:00-18:00', 'Tue': '05:00-18:00', 'Wed': '05:00-18:00', 'Thu': '05:00-18:00', 'Fri': '05:00-18:00', 'Sat': '05:00-18:00', 'Sun': '05:00-18:00'}}",,56626,602,,thes-ki-sykies
