[
{"addr_full": "東京都千代田区有楽町2-5-1<br>ルミネ有楽町店 ルミネ2 2F", "brand": "UNITED ARROWS", "city": "関東", "country": "Japan", "extras": {"brand": "UNITED ARROWS", "fascia": "ユナイテッドアローズ", "category": null, "edit_date": "2025-03-04 14:31:33", "lat_lon_source": "website"}, "lat": "139.763680860466", "lon": "35.6735723065374", "name": "ユナイテッドアローズ 有楽町店", "opening_hours": {"Mon": "11:00-21:00", "Tue": "11:00-21:00", "Wed": "11:00-21:00", "Thur": "11:00-21:00", "Fri": "11:00-21:00", "Sat": "11:00-21:00", "Sun": "11:00-21:00"}, "phone": ["050-8892-0763", "050-8892-0764"], "postcode": "100-0006", "ref": "0120", "state": "東京都", "website": "https://www.lumine.ne.jp/yurakucho/"},
{"addr_full": "東京都千代田区丸の内1-5-1<br>新丸の内ビルディング 1F", "brand": "UNITED ARROWS", "city": "関東", "country": "Japan", "extras": {"brand": "UNITED ARROWS", "fascia": "ユナイテッドアローズ", "category": null, "edit_date": "2025-03-04 14:31:33", "lat_lon_source": "website"}, "lat": "139.764078964239", "lon": "35.6824269969758", "name": "ユナイテッドアローズ 丸の内店", "opening_hours": ["Weekday/Sat 11:00-21:00<br>Sun/National holiday 11:00-20:00"], "phone": ["050-8885-8756"], "postcode": "100-6501", "ref": "0122", "state": "東京都", "website": "https://www.marunouchi.com/building/shinmaru/"},
{"addr_full": "東京都千代田区丸の内1-9-1<br>大丸東京店　4F", "brand": "UNITED ARROWS", "city": "関東", "country": "Japan", "extras": {"brand": "UNITED ARROWS", "fascia": "ユナイテッドアローズ", "category": null, "edit_date": "2025-03-04 14:31:33", "lat_lon_source": "website"}, "lat": "139.768787195183", "lon": "35.6812051336678", "name": "ユナイテッドアローズ 大丸東京 ウィメンズストア", "opening_hours": ["Mon-Wed/Sat/Sun/National holiday 10:00-20:00<br>Thu/Fri 10:00-21:00"], "phone": ["050-8893-4201"], "postcode": "100-6701", "ref": "0137", "state": "東京都", "website": "https://www.daimaru.co.jp/tokyo/"},
{"addr_full": "東京都中央区日本橋1-4-1<br>COREDO 日本橋 1F", "brand": "UNITED ARROWS", "city": "関東", "country": "Japan", "extras": {"brand": "UNITED ARROWS", "fascia": "ユナイテッドアローズ", "category": null, "edit_date": "2025-03-04 14:31:33", "lat_lon_source": "website"}, "lat": "139.774220673442", "lon": "35.6826617717482", "name": "ユナイテッドアローズ 日本橋店", "opening_hours": ["Weekdayt 11:00-21:00<br>Sat/Sun/National holiday 11:00-20:00"], "phone": ["050-8893-4199"], "postcode": "103-0027", "ref": "0123", "state": "東京都", "website": "https://mitsui-shopping-park.com/urban/nihonbashi/index.html"},
{"addr_full": "東京都港区麻布台1-3-1 麻布台ヒルズ タワープラザ 2F", "brand": "UNITED ARROWS", "city": "関東", "country": "Japan", "extras": {"brand": "UNITED ARROWS", "fascia": "ユナイテッドアローズ", "category": null, "edit_date": "2025-03-04 14:31:33", "lat_lon_source": "website"}, "lat": "139.740188224379", "lon": "35.6609951570243", "name": "ユナイテッドアローズ 麻布台ヒルズ ウィメンズストア", "opening_hours": ["11:00-20:00<br><br>営業時間が変更もしくは臨時休業になる可能性がございます。<br>最新の情報は、店舗・各商業施設までお問い合わせください。"], "phone": ["03-5575-1335"], "postcode": "106-0041", "ref": "0128", "state": "東京都", "website": "https://www.azabudai-hills.com/"},
{"addr_full": "東京都港区六本木6-10-3<br>六本木ヒルズ ウェストウォーク 2F-3F", "brand": "UNITED ARROWS", "city": "関東", "country": "Japan", "extras": {"brand": "UNITED ARROWS", "fascia": "ユナイテッドアローズ", "category": null, "edit_date": "2025-03-04 14:31:33", "lat_lon_source": "website"}, "lat": "139.729067143381", "lon": "35.6596828753015", "name": "ユナイテッドアローズ 六本木ヒルズ店", "opening_hours": {"Mon": "11:00-20:00", "Tue": "11:00-20:00", "Wed": "11:00-20:00", "Thur": "11:00-20:00", "Fri": "11:00-20:00", "Sat": "11:00-20:00", "Sun": "11:00-20:00"}, "phone": ["050-8893-4218", "050-8893-4217", "050-8893-4219"], "postcode": "106-0032", "ref": "0129", "state": "東京都", "website": "https://www.roppongihills.com/"},
{"addr_full": "東京都新宿区西新宿1-1-5<br>ルミネ新宿 ルミネ1 B1・1F", "brand": "UNITED ARROWS", "city": "関東", "country": "Japan", "extras": {"brand": "UNITED ARROWS", "fascia": "ユナイテッドアローズ", "category": null, "edit_date": "2025-03-04 14:31:33", "lat_lon_source": "website"}, "lat": "139.6993", "lon": "35.6892072", "name": "ユナイテッドアローズ 新宿店", "opening_hours": ["Weekday 11:00-21:30<br>Sat/Sun/National holiday 10:30-21:30"], "phone": ["050-8893-4221", "050-8893-4220"], "postcode": "160-0023", "ref": "0130", "state": "東京都", "website": "https://www.lumine.ne.jp/shinjuku/"},
{"addr_full": "東京都世田谷区玉川3-17-1<br>玉川高島屋S･C 南館 2F", "brand": "UNITED ARROWS", "city": "関東", "country": "Japan", "extras": {"brand": "UNITED ARROWS", "fascia": "ユナイテッドアローズ", "category": null, "edit_date": "2025-03-04 14:31:33", "lat_lon_source": "website"}, "lat": "139.62621175191", "lon": "35.613311727851", "name": "ユナイテッドアローズ 二子玉川店", "opening_hours": ["10:00-20:00<br>"], "phone": ["050-8893-1894"], "postcode": "158-0094", "ref": "0150", "state": "東京都", "website": "https://www.takashimaya.co.jp/tamagawa/sc/"},
{"addr_full": "東京都渋谷区神宮前3-28-1 B1F-3F", "brand": "UNITED ARROWS", "city": "関東", "country": "Japan", "extras": {"brand": "UNITED ARROWS", "fascia": "ユナイテッドアローズ", "category": null, "edit_date": "2025-03-04 14:31:33", "lat_lon_source": "website"}, "lat": "139.709445347084", "lon": "35.6720346461949", "name": "ユナイテッドアローズ 原宿本店（1F:ユナイテッドアローズ＆サンズ / 2F:ディストリクト ユナイテッドアローズ）", "opening_hours": [""], "phone": [], "postcode": "150-0001", "ref": "0100", "state": "東京都", "website": "https://www.instagram.com/unitedarrows_official/"},
{"addr_full": "東京都渋谷区渋谷2-24-12 <br>渋谷スクランブルスクエア 8F", "brand": "UNITED ARROWS", "city": "関東", "country": "Japan", "extras": {"brand": "UNITED ARROWS", "fascia": "ユナイテッドアローズ", "category": null, "edit_date": "2025-03-04 14:31:33", "lat_lon_source": "website"}, "lat": "139.702124", "lon": "35.658442", "name": "ユナイテッドアローズ 渋谷スクランブルスクエア店", "opening_hours": {"Mon": "10:00-21:00", "Tue": "10:00-21:00", "Wed": "10:00-21:00", "Thur": "10:00-21:00", "Fri": "10:00-21:00", "Sat": "10:00-21:00", "Sun": "10:00-21:00"}, "phone": ["03-5774-1030"], "postcode": "150-6101", "ref": "0103", "state": "東京都", "website": "https://www.shibuya-scramble-square.com/"},
{"addr_full": "東京都渋谷区渋谷2-21-1 <br>渋谷ヒカリエ ShinQs 3F", "brand": "UNITED ARROWS", "city": "関東", "country": "Japan", "extras": {"brand": "UNITED ARROWS", "fascia": "ユナイテッドアローズ", "category": null, "edit_date": "2025-03-04 14:31:33", "lat_lon_source": "website"}, "lat": "139.703190056875", "lon": "35.6587755761966", "name": "ユナイテッドアローズ 渋谷シンクス ウィメンズストア", "opening_hours": {"Mon": "10:00-21:00", "Tue": "10:00-21:00", "Wed": "10:00-21:00", "Thur": "10:00-21:00", "Fri": "10:00-21:00", "Sat": "10:00-21:00", "Sun": "10:00-21:00"}, "phone": ["050-8893-4195"], "postcode": "150-8509", "ref": "0110", "state": "東京都", "website": "https://www.tokyu-dept.co.jp/shinqs/"},
{"addr_full": "東京都渋谷区恵比寿南1-5-5 <br>アトレ 恵比寿 3F", "brand": "UNITED ARROWS", "city": "関東", "country": "Japan", "extras": {"brand": "UNITED ARROWS", "fascia": "ユナイテッドアローズ", "category": null, "edit_date": "2025-03-04 14:31:33", "lat_lon_source": "website"}, "lat": "139.709719785098", "lon": "35.6473277461625", "name": "ユナイテッドアローズ アトレ恵比寿 ウィメンズストア", "opening_hours": {"Mon": "10:00-21:00", "Tue": "10:00-21:00", "Wed": "10:00-21:00", "Thur": "10:00-21:00", "Fri": "10:00-21:00", "Sat": "10:00-21:00", "Sun": "10:00-21:00"}, "phone": ["050-8890-9505"], "postcode": "150-0022", "ref": "0115", "state": "東京都", "website": "https://www.atre.co.jp/ebisu/"},
{"addr_full": "東京都豊島区南池袋1-28-2<br>池袋パルコ 3F", "brand": "UNITED ARROWS", "city": "関東", "country": "Japan", "extras": {"brand": "UNITED ARROWS", "fascia": "ユナイテッドアローズ", "category": null, "edit_date": "2025-03-04 14:31:33", "lat_lon_source": "website"}, "lat": "139.7124374", "lon": "35.73075861", "name": "ユナイテッドアローズ 池袋店", "opening_hours": {"Mon": "10:00-21:00", "Tue": "10:00-21:00", "Wed": "10:00-21:00", "Thur": "10:00-21:00", "Fri": "10:00-21:00", "Sat": "10:00-21:00", "Sun": "10:00-21:00"}, "phone": ["050-8893-4204", "050-8893-4205"], "postcode": "171-0022", "ref": "0140", "state": "東京都", "website": "https://ikebukuro.parco.jp/"},
{"addr_full": "東京都豊島区西池袋1-11-1 <br>ルミネ池袋 B1F", "brand": "UNITED ARROWS", "city": "関東", "country": "Japan", "extras": {"brand": "UNITED ARROWS", "fascia": "ユナイテッドアローズ", "category": null, "edit_date": "2025-03-04 14:31:33", "lat_lon_source": "website"}, "lat": "139.709398821335", "lon": "35.7294546175663", "name": "ユナイテッドアローズ 池袋 ウィメンズストア", "opening_hours": ["Weekday 11:00-21:30<br>Sat/Sun/National holiday 11:00-21:00"], "phone": ["03-5928-1226"], "postcode": "171-0021", "ref": "0142", "state": "東京都", "website": "https://www.lumine.ne.jp/ikebukuro/"},
{"addr_full": "東京都足立区千住旭町42-2 <br>ルミネ北千住 3F", "brand": "UNITED ARROWS", "city": "関東", "country": "Japan", "extras": {"brand": "UNITED ARROWS", "fascia": "ユナイテッドアローズ", "category": null, "edit_date": "2025-03-04 14:31:33", "lat_lon_source": "website"}, "lat": "139.805016313925", "lon": "35.7501001356068", "name": "ユナイテッドアローズ 北千住 ウィメンズストア", "opening_hours": {"Mon": "10:00-20:30", "Tue": "10:00-20:30", "Wed": "10:00-20:30", "Thur": "10:00-20:30", "Fri": "10:00-20:30", "Sat": "10:00-20:30", "Sun": "10:00-20:30"}, "phone": ["03-5244-6030"], "postcode": "120-0026", "ref": "0145", "state": "東京都", "website": "https://www.lumine.ne.jp/kitasenju/"},
{"addr_full": "東京都立川市曙町2-1-1<br>ルミネ立川店 2F", "brand": "UNITED ARROWS", "city": "関東", "country": "Japan", "extras": {"brand": "UNITED ARROWS", "fascia": "ユナイテッドアローズ", "category": null, "edit_date": "2025-03-04 14:31:33", "lat_lon_source": "website"}, "lat": "139.414035266696", "lon": "35.6983922330285", "name": "ユナイテッドアローズ 立川店", "opening_hours": ["Weekday 10:00-21:00<br>Sat/Sun/National holiday 10:00-20:30"], "phone": ["050-8893-4155"], "postcode": "190-0012", "ref": "0180", "state": "東京都", "website": "https://www.lumine.ne.jp/tachikawa/"},
{"addr_full": "埼玉県さいたま市大宮区錦町630<br>ルミネ大宮店 ルミネ2 西口別館 2F", "brand": "UNITED ARROWS", "city": "関東", "country": "Japan", "extras": {"brand": "UNITED ARROWS", "fascia": "ユナイテッドアローズ", "category": null, "edit_date": "2025-03-04 14:31:33", "lat_lon_source": "website"}, "lat": "139.623677", "lon": "35.906327", "name": "ユナイテッドアローズ 大宮店", "opening_hours": ["Weekday/Sat 10:00-21:00<br>Sun/National holiday 10:00-20:30"], "phone": ["048-650-7270"], "postcode": "330-0853", "ref": "0190", "state": "埼玉県", "website": "https://www.lumine.ne.jp/omiya/"},
{"addr_full": "千葉県柏市末広町1-1<br>柏髙島屋ステーションモール 新館 専門店4F", "brand": "UNITED ARROWS", "city": "関東", "country": "Japan", "extras": {"brand": "UNITED ARROWS", "fascia": "ユナイテッドアローズ", "category": null, "edit_date": "2025-03-04 14:31:33", "lat_lon_source": "website"}, "lat": "139.969600583537", "lon": "35.8621154401389", "name": "ユナイテッドアローズ 柏店", "opening_hours": {"Mon": "10:00-21:00", "Tue": "10:00-21:00", "Wed": "10:00-21:00", "Thur": "10:00-21:00", "Fri": "10:00-21:00", "Sat": "10:00-21:00", "Sun": "10:00-21:00"}, "phone": ["04-7148-2332"], "postcode": "277-8550", "ref": "0160", "state": "千葉県", "website": "https://www.takashimaya.co.jp/kashiwa/stemo/"},
{"addr_full": "神奈川県横浜市西区高島2-16-1 ルミネ横浜 B1F", "brand": "UNITED ARROWS", "city": "関東", "country": "Japan", "extras": {"brand": "UNITED ARROWS", "fascia": "ユナイテッドアローズ", "category": null, "edit_date": "2025-03-04 14:31:33", "lat_lon_source": "website"}, "lat": "139.622798", "lon": "35.46516156", "name": "ユナイテッドアローズ 横浜店", "opening_hours": ["Weekday 10:00-21:00<br>Sat/Sun/National holiday 10:00-20:30"], "phone": ["050-8890-9495", "050-8890-9496"], "postcode": "220-0011", "ref": "0170", "state": "神奈川県", "website": "https://www.lumine.ne.jp/yokohama/"},
{"addr_full": "神奈川県横浜市西区高島2-18-1 <br>そごう横浜店 4F", "brand": "UNITED ARROWS", "city": "関東", "country": "Japan", "extras": {"brand": "UNITED ARROWS", "fascia": "ユナイテッドアローズ", "category": null, "edit_date": "2025-03-04 14:31:33", "lat_lon_source": "website"}, "lat": "139.625129997371", "lon": "35.4655008787857", "name": "ユナイテッドアローズ そごう横浜 ウィメンズストア", "opening_hours": {"Mon": "10:00-20:00", "Tue": "10:00-20:00", "Wed": "10:00-20:00", "Thur": "10:00-20:00", "Fri": "10:00-20:00", "Sat": "10:00-20:00", "Sun": "10:00-20:00"}, "phone": ["045-450-1172"], "postcode": "220-8510", "ref": "0177", "state": "神奈川県", "website": "https://www.sogo-seibu.jp/yokohama/"},
{"addr_full": "北海道札幌市中央区南1条西3丁目<br>札幌パルコ 1・2F", "brand": "UNITED ARROWS", "city": "北海道・東北", "country": "Japan", "extras": {"brand": "UNITED ARROWS", "fascia": "ユナイテッドアローズ", "category": null, "edit_date": "2025-03-04 14:31:33", "lat_lon_source": "website"}, "lat": "141.352892225863", "lon": "43.0588590480682", "name": "ユナイテッドアローズ 札幌店", "opening_hours": {"Mon": "10:00-20:00", "Tue": "10:00-20:00", "Wed": "10:00-20:00", "Thur": "10:00-20:00", "Fri": "10:00-20:00", "Sat": "10:00-20:00", "Sun": "10:00-20:00"}, "phone": ["011-218-6001", "011-218-5577"], "postcode": "060-8502", "ref": "0303", "state": "北海道", "website": "https://sapporo.parco.jp/"},
{"addr_full": "北海道旭川市1条通8-108 <br>フィール旭川 1F", "brand": "UNITED ARROWS", "city": "北海道・東北", "country": "Japan", "extras": {"brand": "UNITED ARROWS", "fascia": "ユナイテッドアローズ", "category": null, "edit_date": "2025-03-04 14:31:33", "lat_lon_source": "website"}, "lat": "142.360021773303", "lon": "43.7656899449832", "name": "ユナイテッドアローズ 旭川店", "opening_hours": {"Mon": "10:00-19:30", "Tue": "10:00-19:30", "Wed": "10:00-19:30", "Thur": "10:00-19:30", "Fri": "10:00-19:30", "Sat": "10:00-19:30", "Sun": "10:00-19:30"}, "phone": [], "postcode": "070-0031", "ref": "0305", "state": "北海道", "website": "https://www.feeeal.com/"},
{"addr_full": "宮城県仙台市青葉区中央1-1-1 <br>エスパル仙台本館 2F", "brand": "UNITED ARROWS", "city": "北海道・東北", "country": "Japan", "extras": {"brand": "UNITED ARROWS", "fascia": "ユナイテッドアローズ", "category": null, "edit_date": "2025-03-04 14:31:33", "lat_lon_source": "website"}, "lat": "140.881841373532", "lon": "38.2595512329477", "name": "ユナイテッドアローズ 仙台店", "opening_hours": ["10:00～21:00"], "phone": ["050-8893-4183", "050-8893-4184"], "postcode": "980-8477", "ref": "0310", "state": "宮城県", "website": "https://www.s-pal.jp/sendai/"},
{"addr_full": "新潟県新潟市中央区八千代2-1-2<br>万代シテイビルボードプレイス 1F", "brand": "UNITED ARROWS", "city": "北陸・東海", "country": "Japan", "extras": {"brand": "UNITED ARROWS", "fascia": "ユナイテッドアローズ", "category": null, "edit_date": "2025-03-04 14:31:33", "lat_lon_source": "website"}, "lat": "139.0537727", "lon": "37.9160428", "name": "ユナイテッドアローズ 新潟店", "opening_hours": ["Weekday 11:00-20:00<br>Sat/Sun/National holiday 10:00-20:00"], "phone": ["025-240-4606"], "postcode": "950-0909", "ref": "0322", "state": "新潟県", "website": "https://www.bandai-bp.com/"},
{"addr_full": "石川県金沢市香林坊2-1-1 <br>香林坊東急スクエア 1F", "brand": "UNITED ARROWS", "city": "北陸・東海", "country": "Japan", "extras": {"brand": "UNITED ARROWS", "fascia": "ユナイテッドアローズ", "category": null, "edit_date": "2025-03-04 14:31:33", "lat_lon_source": "website"}, "lat": "136.653405064899", "lon": "36.5623232338844", "name": "ユナイテッドアローズ 金沢店", "opening_hours": {"Mon": "10:00-20:00", "Tue": "10:00-20:00", "Wed": "10:00-20:00", "Thur": "10:00-20:00", "Fri": "10:00-20:00", "Sat": "10:00-20:00", "Sun": "10:00-20:00"}, "phone": ["076-222-5140"], "postcode": "920-0961", "ref": "0324", "state": "石川県", "website": "https://www.korinbo-tokyu-square.com/"},
{"addr_full": "愛知県名古屋市中区栄3-6-1<br>ラシック 2F", "brand": "UNITED ARROWS", "city": "北陸・東海", "country": "Japan", "extras": {"brand": "UNITED ARROWS", "fascia": "ユナイテッドアローズ", "category": null, "edit_date": "2025-03-04 14:31:33", "lat_lon_source": "website"}, "lat": "136.907442947016", "lon": "35.167387158771", "name": "ユナイテッドアローズ 名古屋店", "opening_hours": {"Mon": "11:00-21:00", "Tue": "11:00-21:00", "Wed": "11:00-21:00", "Thur": "11:00-21:00", "Fri": "11:00-21:00", "Sat": "11:00-21:00", "Sun": "11:00-21:00"}, "phone": ["052-265-1580", "052-265-1582"], "postcode": "460-0008", "ref": "0330", "state": "愛知県", "website": "https://www.lachic.jp/nagoya.html"},
{"addr_full": "愛知県名古屋市中村区名駅1-1-3 <br>タカシマヤ ゲートタワーモール 2F", "brand": "UNITED ARROWS", "city": "北陸・東海", "country": "Japan", "extras": {"brand": "UNITED ARROWS", "fascia": "ユナイテッドアローズ", "category": null, "edit_date": "2025-03-04 14:31:33", "lat_lon_source": "website"}, "lat": "136.883190693089", "lon": "35.1719298940778", "name": "ユナイテッドアローズ 名古屋駅店", "opening_hours": {"Mon": "10:00-21:00", "Tue": "10:00-21:00", "Wed": "10:00-21:00", "Thur": "10:00-21:00", "Fri": "10:00-21:00", "Sat": "10:00-21:00", "Sun": "10:00-21:00"}, "phone": ["052-589-8259", "052-589-8261"], "postcode": "450-6602", "ref": "0336", "state": "愛知県", "website": "https://www.jr-tgm.com/"},
{"addr_full": "京都府京都市下京区寺町通四条下ル貞安前之町605番地<br>藤井大丸　1F・2F", "brand": "UNITED ARROWS", "city": "関西", "country": "Japan", "extras": {"brand": "UNITED ARROWS", "fascia": "ユナイテッドアローズ", "category": null, "edit_date": "2025-03-04 14:31:33", "lat_lon_source": "website"}, "lat": "135.76650182562", "lon": "35.0034076691514", "name": "ユナイテッドアローズ 京都店", "opening_hours": ["10:00 - 21:00"], "phone": ["075-223-0833", "075-253-6953"], "postcode": "600-8031", "ref": "0260", "state": "京都府", "website": "https://www.fujiidaimaru.co.jp/"},
{"addr_full": "大阪府大阪市中央区心斎橋筋1-8-3<br>心斎橋パルコ 2F", "brand": "UNITED ARROWS", "city": "関西", "country": "Japan", "extras": {"brand": "UNITED ARROWS", "fascia": "ユナイテッドアローズ", "category": null, "edit_date": "2025-03-04 14:31:33", "lat_lon_source": "website"}, "lat": "135.50096", "lon": "34.67386", "name": "ユナイテッドアローズ 心斎橋店", "opening_hours": ["10:00-21:00<br><br><font color=\"red\">※The store hours are changed as follows.<br>12:00～20:00</font>"], "phone": ["06-6241-6695", "06-6241-6696"], "postcode": "542-0085", "ref": "0215", "state": "大阪府", "website": "https://shinsaibashi.parco.jp/"},
{"addr_full": "大阪府大阪市北区梅田3-1-3<br> ルクア 1F", "brand": "UNITED ARROWS", "city": "関西", "country": "Japan", "extras": {"brand": "UNITED ARROWS", "fascia": "ユナイテッドアローズ", "category": null, "edit_date": "2025-03-04 14:31:33", "lat_lon_source": "website"}, "lat": "135.495722754376", "lon": "34.7031294490786", "name": "ユナイテッドアローズ ルクア大阪 ウィメンズストア", "opening_hours": {"Mon": "10:30-20:30", "Tue": "10:30-20:30", "Wed": "10:30-20:30", "Thur": "10:30-20:30", "Fri": "10:30-20:30", "Sat": "10:30-20:30", "Sun": "10:30-20:30"}, "phone": ["050-8893-4192"], "postcode": "530-8217", "ref": "0223", "state": "大阪府", "website": "https://www.lucua.jp/"},
{"addr_full": "大阪府大阪市浪速区難波中2-10-70 <br>なんばパークス 2F", "brand": "UNITED ARROWS", "city": "関西", "country": "Japan", "extras": {"brand": "UNITED ARROWS", "fascia": "ユナイテッドアローズ", "category": null, "edit_date": "2025-03-04 14:31:33", "lat_lon_source": "website"}, "lat": "135.502137068642", "lon": "34.6618073266911", "name": "ユナイテッドアローズ なんば店", "opening_hours": {"Mon": "11:00-21:00", "Tue": "11:00-21:00", "Wed": "11:00-21:00", "Thur": "11:00-21:00", "Fri": "11:00-21:00", "Sat": "11:00-21:00", "Sun": "11:00-21:00"}, "phone": ["050-8893-4198"], "postcode": "556-0011", "ref": "0231", "state": "大阪府", "website": "https://nambaparks.com/"},
{"addr_full": "大阪府大阪市北区大深町4-20 <br>グランフロント大阪 ショップ＆レストラン 南館 1F", "brand": "UNITED ARROWS", "city": "関西", "country": "Japan", "extras": {"brand": "UNITED ARROWS", "fascia": "ユナイテッドアローズ", "category": null, "edit_date": "2025-03-04 14:31:33", "lat_lon_source": "website"}, "lat": "135.494661774711", "lon": "34.7041296751883", "name": "ユナイテッドアローズ 大阪 メンズストア", "opening_hours": {"Mon": "10:00-21:00", "Tue": "10:00-21:00", "Wed": "10:00-21:00", "Thur": "10:00-21:00", "Fri": "10:00-21:00", "Sat": "10:00-21:00", "Sun": "10:00-21:00"}, "phone": ["06-6372-7293"], "postcode": "530-0011", "ref": "0235", "state": "大阪府", "website": "https://www.grandfront-osaka.jp/"},
{"addr_full": "兵庫県神戸市中央区明石町40<br>大丸神戸店 3F", "brand": "UNITED ARROWS", "city": "関西", "country": "Japan", "extras": {"brand": "UNITED ARROWS", "fascia": "ユナイテッドアローズ", "category": null, "edit_date": "2025-03-04 14:31:33", "lat_lon_source": "website"}, "lat": "135.190136578931", "lon": "34.688583419395", "name": "ユナイテッドアローズ 大丸神戸 ウィメンズストア", "opening_hours": {"Mon": "10:00-20:00", "Tue": "10:00-20:00", "Wed": "10:00-20:00", "Thur": "10:00-20:00", "Fri": "10:00-20:00", "Sat": "10:00-20:00", "Sun": "10:00-20:00"}, "phone": ["078-335-2081"], "postcode": "650-0037", "ref": "0203", "state": "兵庫県", "website": "https://www.daimaru.co.jp/kobe/"},
{"addr_full": "兵庫県神戸市中央区明石町40 <br>大丸神戸店 6F", "brand": "UNITED ARROWS", "city": "関西", "country": "Japan", "extras": {"brand": "UNITED ARROWS", "fascia": "ユナイテッドアローズ", "category": null, "edit_date": "2025-03-04 14:31:33", "lat_lon_source": "website"}, "lat": "135.190300096723", "lon": "34.6889198803512", "name": "ユナイテッドアローズ 大丸神戸 メンズストア", "opening_hours": ["10:00～20:00"], "phone": ["078-325-3930"], "postcode": "650-0037", "ref": "0205", "state": "兵庫県", "website": "http://www.daimaru.co.jp/kobe/"},
{"addr_full": "兵庫県神戸市中央区雲井通7-1-1 <br>ミント神戸 2F", "brand": "UNITED ARROWS", "city": "関西", "country": "Japan", "extras": {"brand": "UNITED ARROWS", "fascia": "ユナイテッドアローズ", "category": null, "edit_date": "2025-03-04 14:31:33", "lat_lon_source": "website"}, "lat": "135.196139912065", "lon": "34.6945872843736", "name": "ユナイテッドアローズ 神戸三宮店", "opening_hours": {"Mon": "11:00-21:00", "Tue": "11:00-21:00", "Wed": "11:00-21:00", "Thur": "11:00-21:00", "Fri": "11:00-21:00", "Sat": "11:00-21:00", "Sun": "11:00-21:00"}, "phone": ["078-265-0870", "078-265-1447"], "postcode": "651-0096", "ref": "0206", "state": "兵庫県", "website": "http://www.mint-kobe.jp/"},
{"addr_full": "広島県広島市中区新天地2-1<br>広島パルコ 新館 B1・1F", "brand": "UNITED ARROWS", "city": "中国・四国・九州", "country": "Japan", "extras": {"brand": "UNITED ARROWS", "fascia": "ユナイテッドアローズ", "category": null, "edit_date": "2025-03-04 14:31:33", "lat_lon_source": "website"}, "lat": "132.462672537821", "lon": "34.3919837597886", "name": "ユナイテッドアローズ 広島店", "opening_hours": {"Mon": "10:00-20:30", "Tue": "10:00-20:30", "Wed": "10:00-20:30", "Thur": "10:00-20:30", "Fri": "10:00-20:30", "Sat": "10:00-20:30", "Sun": "10:00-20:30"}, "phone": ["082-542-2401", "082-542-2411"], "postcode": "730-0034", "ref": "0360", "state": "広島県", "website": "https://hiroshima.parco.jp/"},
{"addr_full": "広島県広島市南区松原町2-37  ミナモア 2F", "brand": "UNITED ARROWS", "city": "中国・四国・九州", "country": "Japan", "extras": {"brand": "UNITED ARROWS", "fascia": "ユナイテッドアローズ", "category": null, "edit_date": "2025-03-04 14:31:33", "lat_lon_source": "website"}, "lat": "132.47528633068293", "lon": "34.39746815976217", "name": "ユナイテッドアローズ 広島 ウィメンズストア（2025年3月24日オープン予定）", "opening_hours": [""], "phone": [], "postcode": "732-0822 ", "ref": "0361", "state": "広島県", "website": "https://www.minamoa.jp/"},
{"addr_full": "福岡県福岡市中央区天神2-10-3<br>VIORO B1・1F", "brand": "UNITED ARROWS", "city": "中国・四国・九州", "country": "Japan", "extras": {"brand": "UNITED ARROWS", "fascia": "ユナイテッドアローズ", "category": null, "edit_date": "2025-03-04 14:31:33", "lat_lon_source": "website"}, "lat": "130.3983935", "lon": "33.5896797", "name": "ユナイテッドアローズ 福岡店", "opening_hours": {"Mon": "11:00-21:00", "Tue": "11:00-21:00", "Wed": "11:00-21:00", "Thur": "11:00-21:00", "Fri": "11:00-21:00", "Sat": "11:00-21:00", "Sun": "11:00-21:00"}, "phone": ["092-716-3322"], "postcode": "810-0001", "ref": "0370", "state": "福岡県", "website": "https://vioro.jp/"},
{"addr_full": "福岡県福岡市博多区博多駅中央街1-1 アミュプラザ博多 3F", "brand": "UNITED ARROWS", "city": "中国・四国・九州", "country": "Japan", "extras": {"brand": "UNITED ARROWS", "fascia": "ユナイテッドアローズ", "category": null, "edit_date": "2025-03-04 14:31:33", "lat_lon_source": "website"}, "lat": "130.4204315", "lon": "33.5902747399633", "name": "ユナイテッドアローズ アミュプラザ博多 ウィメンズストア", "opening_hours": {"Mon": "10:00-20:00", "Tue": "10:00-20:00", "Wed": "10:00-20:00", "Thur": "10:00-20:00", "Fri": "10:00-20:00", "Sat": "10:00-20:00", "Sun": "10:00-20:00"}, "phone": ["092-408-8125"], "postcode": "812-0012", "ref": "0371", "state": "福岡県", "website": "https://www.jrhakatacity.com/"},
{"addr_full": "熊本県熊本市中央区手取本町6番1号 <br>鶴屋百貨店東館 1F", "brand": "UNITED ARROWS", "city": "中国・四国・九州", "country": "Japan", "extras": {"brand": "UNITED ARROWS", "fascia": "ユナイテッドアローズ", "category": null, "edit_date": "2025-03-04 14:31:33", "lat_lon_source": "website"}, "lat": "130.712176", "lon": "32.801999", "name": "ユナイテッドアローズ 熊本店", "opening_hours": ["Mon-Thu/Sun/National holiday 10:00-19:00<br>Fri/Sat 10:00-19:30"], "phone": ["050-8893-4178"], "postcode": "860-8586", "ref": "0384", "state": "熊本県", "website": "https://www.tsuruya-dept.co.jp/"},
{"addr_full": "大分県大分市府内町3-7-26<br>Bガレージビル", "brand": "UNITED ARROWS", "city": "中国・四国・九州", "country": "Japan", "extras": {"brand": "UNITED ARROWS", "fascia": "ユナイテッドアローズ", "category": null, "edit_date": "2025-03-04 14:31:33", "lat_lon_source": "website"}, "lat": "131.6115829", "lon": "33.237383", "name": "ユナイテッドアローズ 大分店", "opening_hours": {"Mon": "11:00-20:00", "Tue": "11:00-20:00", "Wed": "11:00-20:00", "Thur": "11:00-20:00", "Fri": "11:00-20:00", "Sat": "11:00-20:00", "Sun": "11:00-20:00"}, "phone": ["097-537-1526"], "postcode": "870-0021", "ref": "0375", "state": "大分県", "website": ""},
{"addr_full": "台北市大安區仁愛路四段71巷30號及32號1樓", "brand": "UNITED ARROWS", "city": "海外", "country": "Japan", "extras": {"brand": "UNITED ARROWS", "fascia": "ユナイテッドアローズ", "category": null, "edit_date": "2025-03-04 14:31:33", "lat_lon_source": "website"}, "lat": "121.54721", "lon": "25.04038", "name": "ユナイテッドアローズ 台北大安店", "opening_hours": ["Weekday 12:00-21:30<br>Sat/Sun/National holiday 11:00-21:30"], "phone": [], "postcode": "", "ref": "0010", "state": "台湾", "website": "https://store.united-arrows.tw/"},
{"addr_full": "台北市信義區忠孝東路五段68號 微風信義 3F", "brand": "UNITED ARROWS", "city": "海外", "country": "Japan", "extras": {"brand": "UNITED ARROWS", "fascia": "ユナイテッドアローズ", "category": null, "edit_date": "2025-03-04 14:31:33", "lat_lon_source": "website"}, "lat": "121.566896", "lon": "25.040504", "name": "ユナイテッドアローズ 台北微風信義店", "opening_hours": ["Sunday-Wednesday 11:00-21:30<br>Thursday-Saturday 11:00-22:00"], "phone": [], "postcode": "", "ref": "0000", "state": "台湾", "website": "https://store.united-arrows.tw/"},
{"addr_full": "台北市信義區松智路17號 微風南山 3F", "brand": "UNITED ARROWS", "city": "海外", "country": "Japan", "extras": {"brand": "UNITED ARROWS", "fascia": "ユナイテッドアローズ", "category": null, "edit_date": "2025-03-04 14:31:33", "lat_lon_source": "website"}, "lat": "121.566522", "lon": "25.034631", "name": "ユナイテッドアローズ 台北微風南山 ウィメンズストア", "opening_hours": ["Sun-Wed 11:00-21:30<br>Thu-Sat/the day before national holiday 11:00-22:00"], "phone": [], "postcode": "", "ref": "0000", "state": "台湾", "website": "https://store.united-arrows.tw/"},
{"addr_full": "上海市南京西路静安嘉里中心南区1楼S1-02，03商铺，2楼S2-02，03商铺", "brand": "UNITED ARROWS", "city": "海外", "country": "Japan", "extras": {"brand": "UNITED ARROWS", "fascia": "ユナイテッドアローズ", "category": null, "edit_date": "2025-03-04 14:31:33", "lat_lon_source": "website"}, "lat": "121.44917868105026", "lon": "31.223162643336398", "name": "ユナイテッドアローズ 上海静安嘉里中心店", "opening_hours": ["10:00 - 22:00"], "phone": ["021-6041-0225", "021-6041-0029"], "postcode": "", "ref": "0000", "state": "中国本土", "website": "https://www.jingankerrycentre.com/"},
{"addr_full": "628 Sukhumvit Road, Khlong Tan, Khlong Toei, Bangkok 10110 MF", "brand": "UNITED ARROWS", "city": "海外", "country": "Japan", "extras": {"brand": "UNITED ARROWS", "fascia": "ユナイテッドアローズ", "category": null, "edit_date": "2025-03-04 14:31:33", "lat_lon_source": "website"}, "lat": "100.565902498109", "lon": "13.7321729191555", "name": "ユナイテッドアローズ エムスフィア（バンコク）", "opening_hours": ["10:00 - 22:00"], "phone": [], "postcode": "", "ref": "0000", "state": "タイ", "website": "https://www.emsphere.co.th/"},
{"addr_full": "東京都千代田区丸の内2-4-1 <br>丸ビル 2F", "brand": "BEAUTY&YOUTH UNITED ARROWS", "city": "関東", "country": "Japan", "extras": {"brand": "BEAUTY&YOUTH UNITED ARROWS", "fascia": "ビューティー&ユース ユナイテッドアローズ", "category": null, "edit_date": "2025-03-04 14:31:33", "lat_lon_source": "website"}, "lat": "139.763511671145", "lon": "35.681123444548", "name": "ビューティー＆ユース ユナイテッドアローズ 丸の内店", "opening_hours": ["Weekday/Sat 11:00-21:00<br>Sun/National holiday 11:00-20:00"], "phone": ["03-6212-1500", "03-6212-1501"], "postcode": "100-6302", "ref": "0144", "state": "東京都", "website": "https://www.marunouchi.com/"},
{"addr_full": "東京都新宿区新宿3-38-1<br>ルミネエスト新宿 B2F", "brand": "BEAUTY&YOUTH UNITED ARROWS", "city": "関東", "country": "Japan", "extras": {"brand": "BEAUTY&YOUTH UNITED ARROWS", "fascia": "ビューティー&ユース ユナイテッドアローズ", "category": null, "edit_date": "2025-03-04 14:31:33", "lat_lon_source": "website"}, "lat": "139.7011442", "lon": "35.6913237", "name": "ビューティー＆ユース ユナイテッドアローズ 新宿ウィメンズストア", "opening_hours": ["Weekday 11:00-21:30<br>Sat/Sun/National holiday 10:30-21:30"], "phone": ["03-5367-2290"], "postcode": "160-0022", "ref": "0133", "state": "東京都", "website": "https://www.lumine.ne.jp/est/"},
{"addr_full": "東京都墨田区押上1-1-2 <br>東京スカイツリータウン・ソラマチ 2F", "brand": "BEAUTY&YOUTH UNITED ARROWS", "city": "関東", "country": "Japan", "extras": {"brand": "BEAUTY&YOUTH UNITED ARROWS", "fascia": "ビューティー&ユース ユナイテッドアローズ", "category": null, "edit_date": "2025-03-04 14:31:33", "lat_lon_source": "website"}, "lat": "139.812681678961", "lon": "35.7105439846474", "name": "ビューティー＆ユース ユナイテッドアローズ 東京スカイツリータウン・ソラマチ店", "opening_hours": {"Mon": "10:00-21:00", "Tue": "10:00-21:00", "Wed": "10:00-21:00", "Thur": "10:00-21:00", "Fri": "10:00-21:00", "Sat": "10:00-21:00", "Sun": "10:00-21:00"}, "phone": ["050-8893-4206", "050-8893-4207"], "postcode": "131-0045", "ref": "0147", "state": "東京都", "website": "https://www.tokyo-solamachi.jp/"},
{"addr_full": "東京都江東区青海1-1-10 <br>ダイバーシティ東京 プラザ 3F 31200", "brand": "BEAUTY&YOUTH UNITED ARROWS", "city": "関東", "country": "Japan", "extras": {"brand": "BEAUTY&YOUTH UNITED ARROWS", "fascia": "ビューティー&ユース ユナイテッドアローズ", "category": null, "edit_date": "2025-03-04 14:31:33", "lat_lon_source": "website"}, "lat": "139.775775161816", "lon": "35.6253459527667", "name": "ビューティー＆ユース ユナイテッドアローズ お台場店", "opening_hours": {"Mon": "10:00-21:00", "Tue": "10:00-21:00", "Wed": "10:00-21:00", "Thur": "10:00-21:00", "Fri": "10:00-21:00", "Sat": "10:00-21:00", "Sun": "10:00-21:00"}, "phone": ["03-3527-6615"], "postcode": "135-0064", "ref": "0158", "state": "東京都", "website": "https://mitsui-shopping-park.com/divercity-tokyo/"},
{"addr_full": "東京都足立区千住旭町42-2<br>ルミネ北千住 2F<br><br><font color=\"red\">※ 改装に伴い、2025年1月20日(月)から4F仮店舗区画にて仮店舗営業いたします</font>", "brand": "BEAUTY&YOUTH UNITED ARROWS", "city": "関東", "country": "Japan", "extras": {"brand": "BEAUTY&YOUTH UNITED ARROWS", "fascia": "ビューティー&ユース ユナイテッドアローズ", "category": null, "edit_date": "2025-03-04 14:31:33", "lat_lon_source": "website"}, "lat": "139.805364205859", "lon": "35.7511768392857", "name": "ビューティー＆ユース ユナイテッドアローズ 北千住店", "opening_hours": {"Mon": "10:00-20:30", "Tue": "10:00-20:30", "Wed": "10:00-20:30", "Thur": "10:00-20:30", "Fri": "10:00-20:30", "Sat": "10:00-20:30", "Sun": "10:00-20:30"}, "phone": ["050-8892-0792"], "postcode": "120-0026", "ref": "0146", "state": "東京都", "website": "https://www.lumine.ne.jp/kitasenju/"},
{"addr_full": "東京都武蔵野市吉祥寺本町1-11-5<br>コピス吉祥寺 A館 1F", "brand": "BEAUTY&YOUTH UNITED ARROWS", "city": "関東", "country": "Japan", "extras": {"brand": "BEAUTY&YOUTH UNITED ARROWS", "fascia": "ビューティー&ユース ユナイテッドアローズ", "category": null, "edit_date": "2025-03-04 14:31:33", "lat_lon_source": "website"}, "lat": "139.579438055652", "lon": "35.7046362634565", "name": "ビューティー＆ユース ユナイテッドアローズ 吉祥寺店", "opening_hours": {"Mon": "10:00-21:00", "Tue": "10:00-21:00", "Wed": "10:00-21:00", "Thur": "10:00-21:00", "Fri": "10:00-21:00", "Sat": "10:00-21:00", "Sun": "10:00-21:00"}, "phone": [], "postcode": "180-0004", "ref": "0183", "state": "東京都", "website": "https://www.coppice.jp/"},
{"addr_full": "東京都町田市原町田6-1-11<br>ルミネ町田店 3F", "brand": "BEAUTY&YOUTH UNITED ARROWS", "city": "関東", "country": "Japan", "extras": {"brand": "BEAUTY&YOUTH UNITED ARROWS", "fascia": "ビューティー&ユース ユナイテッドアローズ", "category": null, "edit_date": "2025-03-04 14:31:33", "lat_lon_source": "website"}, "lat": "139.4461155", "lon": "35.54206547", "name": "ビューティー＆ユース ユナイテッドアローズ 町田店", "opening_hours": ["Weekday 10:00-21:00<br>Sat/Sun/National holiday 10:00-20:30"], "phone": ["042-710-2597"], "postcode": "194-0013", "ref": "0185", "state": "東京都", "website": "https://www.lumine.ne.jp/machida/"},
{"addr_full": "埼玉県さいたま市大宮区錦町630<br>ルミネ大宮店 ルミネ2 西口別館 2F", "brand": "BEAUTY&YOUTH UNITED ARROWS", "city": "関東", "country": "Japan", "extras": {"brand": "BEAUTY&YOUTH UNITED ARROWS", "fascia": "ビューティー&ユース ユナイテッドアローズ", "category": null, "edit_date": "2025-03-04 14:31:33", "lat_lon_source": "website"}, "lat": "139.623715", "lon": "35.906041", "name": "ビューティー＆ユース ユナイテッドアローズ 大宮店", "opening_hours": ["Weekday/Sat 10:00-21:00<br>Sun/National holiday 10:00-20:30"], "phone": ["048-650-3127"], "postcode": "330-0853", "ref": "0195", "state": "埼玉県", "website": "https://www.lumine.ne.jp/omiya/"},
{"addr_full": "埼玉県富士見市山室1-1313<br>ららぽーと富士見 2F", "brand": "BEAUTY&YOUTH UNITED ARROWS", "city": "関東", "country": "Japan", "extras": {"brand": "BEAUTY&YOUTH UNITED ARROWS", "fascia": "ビューティー&ユース ユナイテッドアローズ", "category": null, "edit_date": "2025-03-04 14:31:33", "lat_lon_source": "website"}, "lat": "139.547809486319", "lon": "35.8594276287733", "name": "ビューティー＆ユース ユナイテッドアローズ 富士見店", "opening_hours": {"Mon": "10:00-21:00", "Tue": "10:00-21:00", "Wed": "10:00-21:00", "Thur": "10:00-21:00", "Fri": "10:00-21:00", "Sat": "10:00-21:00", "Sun": "10:00-21:00"}, "phone": ["049-268-1050", "049-268-1051"], "postcode": "354-8560", "ref": "0196", "state": "埼玉県", "website": "https://mitsui-shopping-park.com/lalaport/fujimi/"},
{"addr_full": "埼玉県さいたま市浦和区東高砂町11-1 浦和パルコ 1F", "brand": "BEAUTY&YOUTH UNITED ARROWS", "city": "関東", "country": "Japan", "extras": {"brand": "BEAUTY&YOUTH UNITED ARROWS", "fascia": "ビューティー&ユース ユナイテッドアローズ", "category": null, "edit_date": "2025-03-04 14:31:33", "lat_lon_source": "website"}, "lat": "139.658958753166", "lon": "35.8588041393763", "name": "ビューティー＆ユース ユナイテッドアローズ 浦和店", "opening_hours": {"Mon": "10:00-21:00", "Tue": "10:00-21:00", "Wed": "10:00-21:00", "Thur": "10:00-21:00", "Fri": "10:00-21:00", "Sat": "10:00-21:00", "Sun": "10:00-21:00"}, "phone": ["048-811-1170"], "postcode": "330-0055", "ref": "0197", "state": "埼玉県", "website": "https://urawa.parco.jp/"},
{"addr_full": "埼玉県越谷市レイクタウン4-2-2<br>イオンレイクタウン kaze 2F", "brand": "BEAUTY&YOUTH UNITED ARROWS", "city": "関東", "country": "Japan", "extras": {"brand": "BEAUTY&YOUTH UNITED ARROWS", "fascia": "ビューティー&ユース ユナイテッドアローズ", "category": null, "edit_date": "2025-03-04 14:31:33", "lat_lon_source": "website"}, "lat": "139.824279367404", "lon": "35.8770899616169", "name": "ビューティー＆ユース ユナイテッドアローズ 越谷店", "opening_hours": ["10:00 - 21:00"], "phone": ["050-8893-3349"], "postcode": "343-0828", "ref": "0198", "state": "埼玉県", "website": "https://laketownkaze-aeonmall.com/"},
{"addr_full": "千葉県柏市末広町1-1<br>柏高島屋ステーションモール S館 専門店3F", "brand": "BEAUTY&YOUTH UNITED ARROWS", "city": "関東", "country": "Japan", "extras": {"brand": "BEAUTY&YOUTH UNITED ARROWS", "fascia": "ビューティー&ユース ユナイテッドアローズ", "category": null, "edit_date": "2025-03-04 14:31:33", "lat_lon_source": "website"}, "lat": "139.970296165624", "lon": "35.8624170747092", "name": "ビューティー＆ユース ユナイテッドアローズ 柏店", "opening_hours": {"Mon": "10:00-21:00", "Tue": "10:00-21:00", "Wed": "10:00-21:00", "Thur": "10:00-21:00", "Fri": "10:00-21:00", "Sat": "10:00-21:00", "Sun": "10:00-21:00"}, "phone": ["04-7141-7230"], "postcode": "277-8550", "ref": "0162", "state": "千葉県", "website": "https://www.takashimaya.co.jp/kashiwa/stemo/"},
{"addr_full": "千葉県船橋市浜町2-1-1<br>ららぽーとTOKYO-BAY 南館 2F", "brand": "BEAUTY&YOUTH UNITED ARROWS", "city": "関東", "country": "Japan", "extras": {"brand": "BEAUTY&YOUTH UNITED ARROWS", "fascia": "ビューティー&ユース ユナイテッドアローズ", "category": null, "edit_date": "2025-03-04 14:31:33", "lat_lon_source": "website"}, "lat": "139.991015663323", "lon": "35.6853391369334", "name": "ビューティー＆ユース ユナイテッドアローズ 船橋店", "opening_hours": ["Mon-Thu 10:00-20:00<br>Fri/Sat/Sun/National holiday 10:00-21:00"], "phone": ["047-495-1961"], "postcode": "273-8530", "ref": "0165", "state": "千葉県", "website": "https://mitsui-shopping-park.com/lalaport/tokyo-bay/"},
{"addr_full": "千葉県千葉市中央区新千葉1-1-1 <br>ペリエ千葉 4F", "brand": "BEAUTY&YOUTH UNITED ARROWS", "city": "関東", "country": "Japan", "extras": {"brand": "BEAUTY&YOUTH UNITED ARROWS", "fascia": "ビューティー&ユース ユナイテッドアローズ", "category": null, "edit_date": "2025-03-04 14:31:33", "lat_lon_source": "website"}, "lat": "140.113694453178", "lon": "35.6126351362249", "name": "ビューティー＆ユース ユナイテッドアローズ 千葉店", "opening_hours": ["Mon 10:30-21:00 <br>Thu-Sat 10:00-21:00 <br>Sun/National holiday  10:00-20:30"], "phone": ["043-202-5720"], "postcode": "260-0031", "ref": "0166", "state": "千葉県", "website": "https://www.perie.co.jp/chiba/"},
{"addr_full": "神奈川県横浜市青葉区美しが丘1-1-2<br>たまプラーザ テラス ゲートプラザ 1F", "brand": "BEAUTY&YOUTH UNITED ARROWS", "city": "関東", "country": "Japan", "extras": {"brand": "BEAUTY&YOUTH UNITED ARROWS", "fascia": "ビューティー&ユース ユナイテッドアローズ", "category": null, "edit_date": "2025-03-04 14:31:33", "lat_lon_source": "website"}, "lat": "139.5578829", "lon": "35.5776377", "name": "ビューティー＆ユース ユナイテッドアローズ たまプラーザウィメンズストア", "opening_hours": {"Mon": "10:00-20:00", "Tue": "10:00-20:00", "Wed": "10:00-20:00", "Thur": "10:00-20:00", "Fri": "10:00-20:00", "Sat": "10:00-20:00", "Sun": "10:00-20:00"}, "phone": ["045-905-0787"], "postcode": "225-8535", "ref": "0156", "state": "神奈川県", "website": "https://www.tamaplaza-terrace.com/"},
{"addr_full": "神奈川県川崎市幸区堀川町72-1 <br>ラゾーナ川崎プラザ 2F #25110", "brand": "BEAUTY&YOUTH UNITED ARROWS", "city": "関東", "country": "Japan", "extras": {"brand": "BEAUTY&YOUTH UNITED ARROWS", "fascia": "ビューティー&ユース ユナイテッドアローズ", "category": null, "edit_date": "2025-03-04 14:31:33", "lat_lon_source": "website"}, "lat": "139.695426827789", "lon": "35.5325111448111", "name": "ビューティー＆ユース ユナイテッドアローズ 川崎店", "opening_hours": {"Mon": "10:00-21:00", "Tue": "10:00-21:00", "Wed": "10:00-21:00", "Thur": "10:00-21:00", "Fri": "10:00-21:00", "Sat": "10:00-21:00", "Sun": "10:00-21:00"}, "phone": ["050-8893-4210"], "postcode": "212-8576", "ref": "0173", "state": "神奈川県", "website": "https://mitsui-shopping-park.com/lazona-kawasaki/"},
{"addr_full": "神奈川県川崎市中原区新丸子東3-1135-1 グランツリー武蔵小杉 1F", "brand": "BEAUTY&YOUTH UNITED ARROWS", "city": "関東", "country": "Japan", "extras": {"brand": "BEAUTY&YOUTH UNITED ARROWS", "fascia": "ビューティー&ユース ユナイテッドアローズ", "category": null, "edit_date": "2025-03-04 14:31:33", "lat_lon_source": "website"}, "lat": "139.660465327758", "lon": "35.5740062825611", "name": "ビューティー＆ユース ユナイテッドアローズ 武蔵小杉店", "opening_hours": {"Mon": "10:00-21:00", "Tue": "10:00-21:00", "Wed": "10:00-21:00", "Thur": "10:00-21:00", "Fri": "10:00-21:00", "Sat": "10:00-21:00", "Sun": "10:00-21:00"}, "phone": ["044-431-0515"], "postcode": "211-0004", "ref": "0174", "state": "神奈川県", "website": "https://grand-tree.jp/"},
{"addr_full": "神奈川県横浜市西区みなとみらい3-5-1 <br>マークイズみなとみらい 1F", "brand": "BEAUTY&YOUTH UNITED ARROWS", "city": "関東", "country": "Japan", "extras": {"brand": "BEAUTY&YOUTH UNITED ARROWS", "fascia": "ビューティー&ユース ユナイテッドアローズ", "category": null, "edit_date": "2025-03-04 14:31:33", "lat_lon_source": "website"}, "lat": "139.63254456615", "lon": "35.4572695551715", "name": "ビューティー＆ユース ユナイテッドアローズ みなとみらい店", "opening_hours": ["Mon-Thu 10:00-20:00<br>Fri/Sat/Sun/National holiday/the day before national holiday 10:00-21:00"], "phone": ["050-8893-4211"], "postcode": "220-0012", "ref": "0176", "state": "神奈川県", "website": "https://www.mec-markis.jp/mm/"},
{"addr_full": "神奈川県藤沢市辻堂神台1-3-1 <br>テラスモール湘南 2F", "brand": "BEAUTY&YOUTH UNITED ARROWS", "city": "関東", "country": "Japan", "extras": {"brand": "BEAUTY&YOUTH UNITED ARROWS", "fascia": "ビューティー&ユース ユナイテッドアローズ", "category": null, "edit_date": "2025-03-04 14:31:33", "lat_lon_source": "website"}, "lat": "139.446263632908", "lon": "35.3379831324113", "name": "ビューティー＆ユース ユナイテッドアローズ 湘南店", "opening_hours": {"Mon": "10:00-21:00", "Tue": "10:00-21:00", "Wed": "10:00-21:00", "Thur": "10:00-21:00", "Fri": "10:00-21:00", "Sat": "10:00-21:00", "Sun": "10:00-21:00"}, "phone": [], "postcode": "251-0041", "ref": "0179", "state": "神奈川県", "website": "https://shonan.terracemall.com/"},
{"addr_full": "宮城県仙台市青葉区中央1-1-1 <br>エスパル仙台本館 2F", "brand": "BEAUTY&YOUTH UNITED ARROWS", "city": "北海道・東北", "country": "Japan", "extras": {"brand": "BEAUTY&YOUTH UNITED ARROWS", "fascia": "ビューティー&ユース ユナイテッドアローズ", "category": null, "edit_date": "2025-03-04 14:31:33", "lat_lon_source": "website"}, "lat": "140.881837235355", "lon": "38.2593826893466", "name": "ビューティー＆ユース ユナイテッドアローズ 仙台店", "opening_hours": {"Mon": "10:00-21:00", "Tue": "10:00-21:00", "Wed": "10:00-21:00", "Thur": "10:00-21:00", "Fri": "10:00-21:00", "Sat": "10:00-21:00", "Sun": "10:00-21:00"}, "phone": ["022-722-3457"], "postcode": "980-8477", "ref": "0315", "state": "宮城県", "website": "https://www.s-pal.jp/sendai/"},
{"addr_full": "石川県金沢市堀川新町3-1<br> 金沢フォーラス 1F", "brand": "BEAUTY&YOUTH UNITED ARROWS", "city": "北陸・東海", "country": "Japan", "extras": {"brand": "BEAUTY&YOUTH UNITED ARROWS", "fascia": "ビューティー&ユース ユナイテッドアローズ", "category": null, "edit_date": "2025-03-04 14:31:33", "lat_lon_source": "website"}, "lat": "136.649535038583", "lon": "36.5786682857433", "name": "ビューティー＆ユース ユナイテッドアローズ 金沢店", "opening_hours": {"Mon": "10:00-21:00", "Tue": "10:00-21:00", "Wed": "10:00-21:00", "Thur": "10:00-21:00", "Fri": "10:00-21:00", "Sat": "10:00-21:00", "Sun": "10:00-21:00"}, "phone": ["076-222-3955"], "postcode": "920-0849", "ref": "0325", "state": "石川県", "website": "https://www.forus.co.jp/kanazawa"},
{"addr_full": "静岡県静岡市葵区鷹匠1-1-1<br>新静岡セノバ 1F", "brand": "BEAUTY&YOUTH UNITED ARROWS", "city": "北陸・東海", "country": "Japan", "extras": {"brand": "BEAUTY&YOUTH UNITED ARROWS", "fascia": "ビューティー&ユース ユナイテッドアローズ", "category": null, "edit_date": "2025-03-04 14:31:33", "lat_lon_source": "website"}, "lat": "138.3869019", "lon": "34.97541422", "name": "ビューティー＆ユース ユナイテッドアローズ 静岡店", "opening_hours": {"Mon": "10:00-20:00", "Tue": "10:00-20:00", "Wed": "10:00-20:00", "Thur": "10:00-20:00", "Fri": "10:00-20:00", "Sat": "10:00-20:00", "Sun": "10:00-20:00"}, "phone": ["050-8893-4187", "050-8893-4186"], "postcode": "420-8508", "ref": "0340", "state": "静岡県", "website": "https://www.cenova.jp/"},
{"addr_full": "愛知県名古屋市中村区名駅1-1-3 <br>タカシマヤ ゲートタワーモール 4F", "brand": "BEAUTY&YOUTH UNITED ARROWS", "city": "北陸・東海", "country": "Japan", "extras": {"brand": "BEAUTY&YOUTH UNITED ARROWS", "fascia": "ビューティー&ユース ユナイテッドアローズ", "category": null, "edit_date": "2025-03-04 14:31:33", "lat_lon_source": "website"}, "lat": "136.882021364701", "lon": "35.1723386193891", "name": "ビューティー＆ユース ユナイテッドアローズ 名古屋駅店", "opening_hours": {"Mon": "10:00-21:00", "Tue": "10:00-21:00", "Wed": "10:00-21:00", "Thur": "10:00-21:00", "Fri": "10:00-21:00", "Sat": "10:00-21:00", "Sun": "10:00-21:00"}, "phone": ["052-589-8198", "052-589-8214"], "postcode": "450-6604", "ref": "0337", "state": "愛知県", "website": "https://www.jr-tgm.com/"},
{"addr_full": "京都府京都市下京区烏丸通塩小路下る東塩小路町902番地 京都ポルタ B1F", "brand": "BEAUTY&YOUTH UNITED ARROWS", "city": "関西", "country": "Japan", "extras": {"brand": "BEAUTY&YOUTH UNITED ARROWS", "fascia": "ビューティー&ユース ユナイテッドアローズ", "category": null, "edit_date": "2025-03-04 14:31:33", "lat_lon_source": "website"}, "lat": "135.759691757502", "lon": "34.9866351751817", "name": "ビューティー＆ユース ユナイテッドアローズ 京都ウィメンズストア", "opening_hours": {"Mon": "10:00-21:00", "Tue": "10:00-21:00", "Wed": "10:00-21:00", "Thur": "10:00-21:00", "Fri": "10:00-21:00", "Sat": "10:00-21:00", "Sun": "10:00-21:00"}, "phone": ["075-353-5361"], "postcode": "600-8216", "ref": "0256", "state": "京都府", "website": "https://www.porta.co.jp/"},
{"addr_full": "大阪府大阪市北区大深町4-20 <br>グランフロント大阪 ショップ＆レストラン 南館 3F<br><br><font color=\"red\">改装に伴い、下記の期間<u><a href=\"https://store-pre.united-arrows.co.jp/brand/glr/storelocator/gsb.html\">ユナイテッドアローズ グリーンレーベルリラクシング 阪急三番街店</a></u> 店内一部にて商品を展開いたします。<br>・2025年1月30日（木）～ 3月2日（日）</font>", "brand": "BEAUTY&YOUTH UNITED ARROWS", "city": "関西", "country": "Japan", "extras": {"brand": "BEAUTY&YOUTH UNITED ARROWS", "fascia": "ビューティー&ユース ユナイテッドアローズ", "category": null, "edit_date": "2025-03-04 14:31:33", "lat_lon_source": "website"}, "lat": "135.494596007767", "lon": "34.7039942689921", "name": "ビューティー＆ユース ユナイテッドアローズ 大阪店", "opening_hours": {"Mon": "10:00-21:00", "Tue": "10:00-21:00", "Wed": "10:00-21:00", "Thur": "10:00-21:00", "Fri": "10:00-21:00", "Sat": "10:00-21:00", "Sun": "10:00-21:00"}, "phone": ["050-8893-4193", "050-8893-4194"], "postcode": "530-0011", "ref": "0227", "state": "大阪府", "website": "https://www.gfo-sc.jp/"},
{"addr_full": "大阪府吹田市千里万博公園 2-1 <br>ららぽーとEXPOCITY 2F 20160", "brand": "BEAUTY&YOUTH UNITED ARROWS", "city": "関西", "country": "Japan", "extras": {"brand": "BEAUTY&YOUTH UNITED ARROWS", "fascia": "ビューティー&ユース ユナイテッドアローズ", "category": null, "edit_date": "2025-03-04 14:31:33", "lat_lon_source": "website"}, "lat": "135.535699802915", "lon": "34.8049070823392", "name": "ビューティー＆ユース ユナイテッドアローズ EXPOCITY店", "opening_hours": {"Mon": "10:00-21:00", "Tue": "10:00-21:00", "Wed": "10:00-21:00", "Thur": "10:00-21:00", "Fri": "10:00-21:00", "Sat": "10:00-21:00", "Sun": "10:00-21:00"}, "phone": ["06-4864-8285"], "postcode": "565-0826", "ref": "0229", "state": "大阪府", "website": "https://mitsui-shopping-park.com/lalaport/expocity/"},
{"addr_full": "大阪府大阪市中央区難波5-1-60 <br>なんばCITY本館 B1F", "brand": "BEAUTY&YOUTH UNITED ARROWS", "city": "関西", "country": "Japan", "extras": {"brand": "BEAUTY&YOUTH UNITED ARROWS", "fascia": "ビューティー&ユース ユナイテッドアローズ", "category": null, "edit_date": "2025-03-04 14:31:33", "lat_lon_source": "website"}, "lat": "135.501014405488", "lon": "34.6642390737047", "name": "ビューティー＆ユース ユナイテッドアローズ なんば店", "opening_hours": {"Mon": "10:00-21:00", "Tue": "10:00-21:00", "Wed": "10:00-21:00", "Thur": "10:00-21:00", "Fri": "10:00-21:00", "Sat": "10:00-21:00", "Sun": "10:00-21:00"}, "phone": ["050-8893-4197"], "postcode": "542-0076", "ref": "0230", "state": "大阪府", "website": "https://nambacity.com/"},
{"addr_full": "大阪府枚方市岡東町19-1 枚方モール 2F", "brand": "BEAUTY&YOUTH UNITED ARROWS", "city": "関西", "country": "Japan", "extras": {"brand": "BEAUTY&YOUTH UNITED ARROWS", "fascia": "ビューティー&ユース ユナイテッドアローズ", "category": null, "edit_date": "2025-03-04 14:31:33", "lat_lon_source": "website"}, "lat": "135.650148745707", "lon": "34.817361879933", "name": "ビューティー＆ユース ユナイテッドアローズ 枚方ウィメンズストア", "opening_hours": ["10:00 - 20:00"], "phone": ["050-8893-3340"], "postcode": "573-0032", "ref": "0237", "state": "大阪府", "website": "https://www.hirakata-mall.jp/"},
{"addr_full": "兵庫県西宮市高松町14-2 <br>阪急西宮ガーデンズ 2F", "brand": "BEAUTY&YOUTH UNITED ARROWS", "city": "関西", "country": "Japan", "extras": {"brand": "BEAUTY&YOUTH UNITED ARROWS", "fascia": "ビューティー&ユース ユナイテッドアローズ", "category": null, "edit_date": "2025-03-04 14:31:33", "lat_lon_source": "website"}, "lat": "135.359273806472", "lon": "34.7439654167966", "name": "ビューティー＆ユース ユナイテッドアローズ 西宮店", "opening_hours": {"Mon": "10:00-21:00", "Tue": "10:00-21:00", "Wed": "10:00-21:00", "Thur": "10:00-21:00", "Fri": "10:00-21:00", "Sat": "10:00-21:00", "Sun": "10:00-21:00"}, "phone": [], "postcode": "663-8204", "ref": "0240", "state": "兵庫県", "website": "http://nishinomiya-gardens.com/"},
{"addr_full": "岡山県岡山市北区駅元町一番街地下5号<br>岡山一番街", "brand": "BEAUTY&YOUTH UNITED ARROWS", "city": "中国・四国・九州", "country": "Japan", "extras": {"brand": "BEAUTY&YOUTH UNITED ARROWS", "fascia": "ビューティー&ユース ユナイテッドアローズ", "category": null, "edit_date": "2025-03-04 14:31:33", "lat_lon_source": "website"}, "lat": "133.91814436114", "lon": "34.665185506921", "name": "ビューティー＆ユース ユナイテッドアローズ 岡山店", "opening_hours": {"Mon": "10:00-20:00", "Tue": "10:00-20:00", "Wed": "10:00-20:00", "Thur": "10:00-20:00", "Fri": "10:00-20:00", "Sat": "10:00-20:00", "Sun": "10:00-20:00"}, "phone": ["086-235-4812"], "postcode": "700-0024", "ref": "0355", "state": "岡山県", "website": "https://sun-ste.com/okayama-ichibangai/"},
{"addr_full": "愛媛県松山市一番町3-2-1　<br>ANAクラウンプラザホテル松山 3F", "brand": "BEAUTY&YOUTH UNITED ARROWS", "city": "中国・四国・九州", "country": "Japan", "extras": {"brand": "BEAUTY&YOUTH UNITED ARROWS", "fascia": "ビューティー&ユース ユナイテッドアローズ", "category": null, "edit_date": "2025-03-04 14:31:33", "lat_lon_source": "website"}, "lat": "132.768399978904", "lon": "33.8408669181968", "name": "ビューティー＆ユース ユナイテッドアローズ 松山店", "opening_hours": {"Mon": "11:00-20:00", "Tue": "11:00-20:00", "Wed": "11:00-20:00", "Thur": "11:00-20:00", "Fri": "11:00-20:00", "Sat": "11:00-20:00", "Sun": "11:00-20:00"}, "phone": ["050-8893-4215"], "postcode": "790-0001", "ref": "0390", "state": "愛媛県", "website": "https://anacpmatsuyama.com/"},
{"addr_full": "福岡県福岡市中央区天神2-2-43<br> ソラリアプラザ 2F", "brand": "BEAUTY&YOUTH UNITED ARROWS", "city": "中国・四国・九州", "country": "Japan", "extras": {"brand": "BEAUTY&YOUTH UNITED ARROWS", "fascia": "ビューティー&ユース ユナイテッドアローズ", "category": null, "edit_date": "2025-03-04 14:31:33", "lat_lon_source": "website"}, "lat": "130.398673604648", "lon": "33.5892740548837", "name": "ビューティー＆ユース ユナイテッドアローズ 福岡店", "opening_hours": {"Mon": "10:00-20:30", "Tue": "10:00-20:30", "Wed": "10:00-20:30", "Thur": "10:00-20:30", "Fri": "10:00-20:30", "Sat": "10:00-20:30", "Sun": "10:00-20:30"}, "phone": ["050-8893-1893"], "postcode": "810-0001", "ref": "0373", "state": "福岡県", "website": "https://www.solariaplaza.com/"},
{"addr_full": "福岡県福岡市博多区那珂6-23-1 ららぽーと福岡 2F", "brand": "BEAUTY&YOUTH UNITED ARROWS", "city": "中国・四国・九州", "country": "Japan", "extras": {"brand": "BEAUTY&YOUTH UNITED ARROWS", "fascia": "ビューティー&ユース ユナイテッドアローズ", "category": null, "edit_date": "2025-03-04 14:31:33", "lat_lon_source": "website"}, "lat": "130.440355108977", "lon": "33.5652842079603", "name": "ビューティー＆ユース ユナイテッドアローズ ららぽーと福岡店", "opening_hours": ["10:00 - 21:00"], "phone": ["092-588-7025"], "postcode": "812-0893", "ref": "0380", "state": "福岡県", "website": "https://mitsui-shopping-park.com/lalaport/special/fukuoka/"},
{"addr_full": "福岡県北九州市小倉北区船場町1-1<br>小倉井筒屋　新館3F", "brand": "BEAUTY&YOUTH UNITED ARROWS", "city": "中国・四国・九州", "country": "Japan", "extras": {"brand": "BEAUTY&YOUTH UNITED ARROWS", "fascia": "ビューティー&ユース ユナイテッドアローズ", "category": null, "edit_date": "2025-03-04 14:31:33", "lat_lon_source": "website"}, "lat": "130.878117261115", "lon": "33.8839125534361", "name": "ビューティー＆ユース ユナイテッドアローズ 小倉店", "opening_hours": {"Mon": "10:00-19:00", "Tue": "10:00-19:00", "Wed": "10:00-19:00", "Thur": "10:00-19:00", "Fri": "10:00-19:00", "Sat": "10:00-19:00", "Sun": "10:00-19:00"}, "phone": ["093-512-0935"], "postcode": "802-8511", "ref": "0381", "state": "福岡県", "website": "https://www.izutsuya.co.jp/storelist/kokura/"},
{"addr_full": "長崎県長崎市尾上町1-1 アミュプラザ長崎 新館 1F", "brand": "BEAUTY&YOUTH UNITED ARROWS", "city": "中国・四国・九州", "country": "Japan", "extras": {"brand": "BEAUTY&YOUTH UNITED ARROWS", "fascia": "ビューティー&ユース ユナイテッドアローズ", "category": null, "edit_date": "2025-03-04 14:31:33", "lat_lon_source": "website"}, "lat": "129.869734386916", "lon": "32.7520153953704", "name": "ビューティー＆ユース ユナイテッドアローズ 長崎店", "opening_hours": {"Mon": "10:00-21:00", "Tue": "10:00-21:00", "Wed": "10:00-21:00", "Thur": "10:00-21:00", "Fri": "10:00-21:00", "Sat": "10:00-21:00", "Sun": "10:00-21:00"}, "phone": ["095-811-0215"], "postcode": "850-0058", "ref": "0394", "state": "長崎県", "website": "https://www.amu-n.co.jp/"},
{"addr_full": "熊本県熊本市西区春日3-15-26 アミュプラザくまもと 1F", "brand": "BEAUTY&YOUTH UNITED ARROWS", "city": "中国・四国・九州", "country": "Japan", "extras": {"brand": "BEAUTY&YOUTH UNITED ARROWS", "fascia": "ビューティー&ユース ユナイテッドアローズ", "category": null, "edit_date": "2025-03-04 14:31:33", "lat_lon_source": "website"}, "lat": "130.6884576", "lon": "32.7889245", "name": "ビューティー＆ユース ユナイテッドアローズ 熊本店", "opening_hours": ["10:00～20:00"], "phone": ["096-319-1118"], "postcode": "860-0047", "ref": "0385", "state": "熊本県", "website": "https://www.jrkumamotocity.com/"},
{"addr_full": "大分県大分市要町1番14号<br>アミュプラザおおいた1F", "brand": "BEAUTY&YOUTH UNITED ARROWS", "city": "中国・四国・九州", "country": "Japan", "extras": {"brand": "BEAUTY&YOUTH UNITED ARROWS", "fascia": "ビューティー&ユース ユナイテッドアローズ", "category": null, "edit_date": "2025-03-04 14:31:33", "lat_lon_source": "website"}, "lat": "131.606758548785", "lon": "33.2328662239707", "name": "ビューティー＆ユース ユナイテッドアローズ 大分店", "opening_hours": [""], "phone": ["097-513-1845", "097-513-1846"], "postcode": "870-0831", "ref": "0382", "state": "大分県", "website": "https://www.jroitacity.jp/"},
{"addr_full": "鹿児島県鹿児島市呉服町6-5<br>マルヤガーデンズ 1F", "brand": "BEAUTY&YOUTH UNITED ARROWS", "city": "中国・四国・九州", "country": "Japan", "extras": {"brand": "BEAUTY&YOUTH UNITED ARROWS", "fascia": "ビューティー&ユース ユナイテッドアローズ", "category": null, "edit_date": "2025-03-04 14:31:33", "lat_lon_source": "website"}, "lat": "130.556851755522", "lon": "31.5911328485527", "name": "ビューティー＆ユース ユナイテッドアローズ 鹿児島店", "opening_hours": {"Mon": "10:00-20:00", "Tue": "10:00-20:00", "Wed": "10:00-20:00", "Thur": "10:00-20:00", "Fri": "10:00-20:00", "Sat": "10:00-20:00", "Sun": "10:00-20:00"}, "phone": ["099-216-8887"], "postcode": "892-0826", "ref": "0395", "state": "鹿児島県", "website": "https://www.maruya-gardens.com/"},
{"addr_full": "東京都千代田区丸の内2-4-1 <br>丸ビル 3F", "brand": "UNITED ARROWS green label relaxing", "city": "関東", "country": "Japan", "extras": {"brand": "UNITED ARROWS green label relaxing", "fascia": "ユナイテッドアローズ グリーンレーベル リラクシング", "category": null, "edit_date": "2025-03-04 14:31:33", "lat_lon_source": "website"}, "lat": "139.763774", "lon": "35.681186", "name": "ユナイテッドアローズ グリーンレーベル リラクシング 丸の内店", "opening_hours": ["Weekday/Sat 11:00-21:00<br>Sun/National holiday 11:00-20:00"], "phone": ["050-8893-4161"], "postcode": "100-6303", "ref": "0520", "state": "東京都", "website": "https://www.marunouchi.com/building/marubiru/"},
{"addr_full": "東京都千代田区有楽町2-5-1<br>ルミネ有楽町店 ルミネ1 4F", "brand": "UNITED ARROWS green label relaxing", "city": "関東", "country": "Japan", "extras": {"brand": "UNITED ARROWS green label relaxing", "fascia": "ユナイテッドアローズ グリーンレーベル リラクシング", "category": null, "edit_date": "2025-03-04 14:31:33", "lat_lon_source": "website"}, "lat": "139.763438", "lon": "35.673546", "name": "ユナイテッドアローズ グリーンレーベル リラクシング  ルミネ有楽町店", "opening_hours": {"Mon": "11:00-21:00", "Tue": "11:00-21:00", "Wed": "11:00-21:00", "Thur": "11:00-21:00", "Fri": "11:00-21:00", "Sat": "11:00-21:00", "Sun": "11:00-21:00"}, "phone": ["03-5220-4680"], "postcode": "100-0006", "ref": "0524", "state": "東京都", "website": "https://www.lumine.ne.jp/yurakucho/"},
{"addr_full": "東京都中央区八重洲2-1 <br>ヤエチカ 外堀地下2番通り", "brand": "UNITED ARROWS green label relaxing", "city": "関東", "country": "Japan", "extras": {"brand": "UNITED ARROWS green label relaxing", "fascia": "ユナイテッドアローズ グリーンレーベル リラクシング", "category": null, "edit_date": "2025-03-04 14:31:33", "lat_lon_source": "website"}, "lat": "139.76911006792", "lon": "35.6805255403508", "name": "ユナイテッドアローズ グリーンレーベル リラクシング ヤエチカ店", "opening_hours": {"Mon": "10:00-20:00", "Tue": "10:00-20:00", "Wed": "10:00-20:00", "Thur": "10:00-20:00", "Fri": "10:00-20:00", "Sat": "10:00-20:00", "Sun": "10:00-20:00"}, "phone": ["03-3517-3310"], "postcode": "104-0028", "ref": "2200", "state": "東京都", "website": "https://www.yaechika.com/"},
{"addr_full": "東京都港区新橋2丁目 <br>東口地下街1号 ウィング新橋 B1F", "brand": "UNITED ARROWS green label relaxing", "city": "関東", "country": "Japan", "extras": {"brand": "UNITED ARROWS green label relaxing", "fascia": "ユナイテッドアローズ グリーンレーベル リラクシング", "category": null, "edit_date": "2025-03-04 14:31:33", "lat_lon_source": "website"}, "lat": "139.759019846631", "lon": "35.6662950909797", "name": "ユナイテッドアローズ グリーンレーベル リラクシング ウィング新橋店", "opening_hours": ["Weekday 10:00-22:00<br>Sat/Sun/National holiday 10:00-21:00"], "phone": ["03-3575-5585"], "postcode": "105-0004　", "ref": "2201", "state": "東京都", "website": "https://www.wing-net.ne.jp/shimbashi/"},
{"addr_full": "東京都新宿区新宿3-38-2<br> ルミネ新宿店 ルミネ2 5F", "brand": "UNITED ARROWS green label relaxing", "city": "関東", "country": "Japan", "extras": {"brand": "UNITED ARROWS green label relaxing", "fascia": "ユナイテッドアローズ グリーンレーベル リラクシング", "category": null, "edit_date": "2025-03-04 14:31:33", "lat_lon_source": "website"}, "lat": "139.701153952485", "lon": "35.6895295916452", "name": "ユナイテッドアローズ グリーンレーベル リラクシング ルミネ新宿店", "opening_hours": ["Weekday 11:00-21:30<br>Sat/Sun/National holiday 10:30-21:30"], "phone": ["03-3345-9655"], "postcode": "160-0022", "ref": "0500", "state": "東京都", "website": "https://www.lumine.ne.jp/shinjuku/"},
{"addr_full": "東京都台東区上野7-1-1 <br>アトレ上野店 1F", "brand": "UNITED ARROWS green label relaxing", "city": "関東", "country": "Japan", "extras": {"brand": "UNITED ARROWS green label relaxing", "fascia": "ユナイテッドアローズ グリーンレーベル リラクシング", "category": null, "edit_date": "2025-03-04 14:31:33", "lat_lon_source": "website"}, "lat": "139.775413865028", "lon": "35.7124222785288", "name": "ユナイテッドアローズ グリーンレーベル リラクシング アトレ上野店", "opening_hours": {"Mon": "10:00-21:00", "Tue": "10:00-21:00", "Wed": "10:00-21:00", "Thur": "10:00-21:00", "Fri": "10:00-21:00", "Sat": "10:00-21:00", "Sun": "10:00-21:00"}, "phone": ["03-5806-7361"], "postcode": "110-0005", "ref": "0526", "state": "東京都", "website": "https://www.atre.co.jp/store/ueno"},
{"addr_full": "東京都墨田区押上1-1-2 <br>東京スカイツリータウン・ソラマチ 3F", "brand": "UNITED ARROWS green label relaxing", "city": "関東", "country": "Japan", "extras": {"brand": "UNITED ARROWS green label relaxing", "fascia": "ユナイテッドアローズ グリーンレーベル リラクシング", "category": null, "edit_date": "2025-03-04 14:31:33", "lat_lon_source": "website"}, "lat": "139.812003067309", "lon": "35.7101091516015", "name": "ユナイテッドアローズ グリーンレーベル リラクシング 東京スカイツリータウン ソラマチ店", "opening_hours": {"Mon": "10:00-21:00", "Tue": "10:00-21:00", "Wed": "10:00-21:00", "Thur": "10:00-21:00", "Fri": "10:00-21:00", "Sat": "10:00-21:00", "Sun": "10:00-21:00"}, "phone": ["03-5619-1676"], "postcode": "131-0045", "ref": "0528", "state": "東京都", "website": "https://www.tokyo-solamachi.jp/"},
{"addr_full": "東京都墨田区錦糸1-2-47 <br>テルミナ2ラ・ガール 1F", "brand": "UNITED ARROWS green label relaxing", "city": "関東", "country": "Japan", "extras": {"brand": "UNITED ARROWS green label relaxing", "fascia": "ユナイテッドアローズ グリーンレーベル リラクシング", "category": null, "edit_date": "2025-03-04 14:31:33", "lat_lon_source": "website"}, "lat": "139.813973", "lon": "35.69715", "name": "ユナイテッドアローズ グリーンレーベル リラクシング ウィメンズストア 錦糸町テルミナ店", "opening_hours": {"Mon": "10:00-21:00", "Tue": "10:00-21:00", "Wed": "10:00-21:00", "Thur": "10:00-21:00", "Fri": "10:00-21:00", "Sat": "10:00-21:00", "Sun": "10:00-21:00"}, "phone": ["03-5637-910"], "postcode": "130-0013", "ref": "2251", "state": "東京都", "website": "https://www.termina.info/"},
{"addr_full": "東京都江東区豊洲2-4-9<br>アーバンドックららぽーと豊洲1 10910", "brand": "UNITED ARROWS green label relaxing", "city": "関東", "country": "Japan", "extras": {"brand": "UNITED ARROWS green label relaxing", "fascia": "ユナイテッドアローズ グリーンレーベル リラクシング", "category": null, "edit_date": "2025-03-04 14:31:33", "lat_lon_source": "website"}, "lat": "139.792890886916", "lon": "35.655077206284", "name": "ユナイテッドアローズ グリーンレーベル リラクシング ららぽーと豊洲店", "opening_hours": {"Mon": "10:00-21:00", "Tue": "10:00-21:00", "Wed": "10:00-21:00", "Thur": "10:00-21:00", "Fri": "10:00-21:00", "Sat": "10:00-21:00", "Sun": "10:00-21:00"}, "phone": ["03-5547-3391"], "postcode": "135-8614", "ref": "0527", "state": "東京都", "website": "https://mitsui-shopping-park.com/lalaport/toyosu/"},
{"addr_full": "東京都江東区亀戸6-31-6 カメイドクロック 1F", "brand": "UNITED ARROWS green label relaxing", "city": "関東", "country": "Japan", "extras": {"brand": "UNITED ARROWS green label relaxing", "fascia": "ユナイテッドアローズ グリーンレーベル リラクシング", "category": null, "edit_date": "2025-03-04 14:31:33", "lat_lon_source": "website"}, "lat": "139.829356237248", "lon": "35.6962493393361", "name": "ユナイテッドアローズ グリーンレーベル リラクシング カメイドクロック店", "opening_hours": ["10:00 - 21:00"], "phone": ["03-5609-7488"], "postcode": "136-0071", "ref": "0531", "state": "東京都", "website": "https://www.kameidoclock.jp/"},
{"addr_full": "東京都品川区大井1-2-1 アトレ大井町 2F", "brand": "UNITED ARROWS green label relaxing", "city": "関東", "country": "Japan", "extras": {"brand": "UNITED ARROWS green label relaxing", "fascia": "ユナイテッドアローズ グリーンレーベル リラクシング", "category": null, "edit_date": "2025-03-04 14:31:33", "lat_lon_source": "website"}, "lat": "139.734816039361", "lon": "35.606362984775", "name": "ユナイテッドアローズ グリーンレーベル リラクシング アトレ大井町店", "opening_hours": {"Mon": "10:00-21:00", "Tue": "10:00-21:00", "Wed": "10:00-21:00", "Thur": "10:00-21:00", "Fri": "10:00-21:00", "Sat": "10:00-21:00", "Sun": "10:00-21:00"}, "phone": ["03-6451-8031"], "postcode": "140-0014", "ref": "0522", "state": "東京都", "website": "https://www.atre.co.jp/oimachi/"},
{"addr_full": "東京都世田谷区奥沢5-25-13", "brand": "UNITED ARROWS green label relaxing", "city": "関東", "country": "Japan", "extras": {"brand": "UNITED ARROWS green label relaxing", "fascia": "ユナイテッドアローズ グリーンレーベル リラクシング", "category": null, "edit_date": "2025-03-04 14:31:33", "lat_lon_source": "website"}, "lat": "139.67042056362", "lon": "35.6069958745687", "name": "ユナイテッドアローズ グリーンレーベル リラクシング 自由が丘店", "opening_hours": {"Mon": "11:00-20:00", "Tue": "11:00-20:00", "Wed": "11:00-20:00", "Thur": "11:00-20:00", "Fri": "11:00-20:00", "Sat": "11:00-20:00", "Sun": "11:00-20:00"}, "phone": ["03-5731-8531"], "postcode": "158-0083", "ref": "0501", "state": "東京都", "website": "https://www.instagram.com/ua_greenlabel/"},
{"addr_full": "東京都世田谷区玉川2-21-1<br>二子玉川ライズ・ショッピングセンター・タウンフロント 3F", "brand": "UNITED ARROWS green label relaxing", "city": "関東", "country": "Japan", "extras": {"brand": "UNITED ARROWS green label relaxing", "fascia": "ユナイテッドアローズ グリーンレーベル リラクシング", "category": null, "edit_date": "2025-03-04 14:31:33", "lat_lon_source": "website"}, "lat": "139.628650301847", "lon": "35.6126568228215", "name": "ユナイテッドアローズ グリーンレーベル リラクシング 二子玉川ライズ店", "opening_hours": {"Mon": "10:00-21:00", "Tue": "10:00-21:00", "Wed": "10:00-21:00", "Thur": "10:00-21:00", "Fri": "10:00-21:00", "Sat": "10:00-21:00", "Sun": "10:00-21:00"}, "phone": ["03-5797-5340"], "postcode": "158-0094", "ref": "0513", "state": "東京都", "website": "https://www.rise.sc/"},
{"addr_full": "東京都豊島区西池袋1-11-1 <br>ルミネ池袋 6F", "brand": "UNITED ARROWS green label relaxing", "city": "関東", "country": "Japan", "extras": {"brand": "UNITED ARROWS green label relaxing", "fascia": "ユナイテッドアローズ グリーンレーベル リラクシング", "category": null, "edit_date": "2025-03-04 14:31:33", "lat_lon_source": "website"}, "lat": "139.709367851894", "lon": "35.7292042425655", "name": "ユナイテッドアローズ グリーンレーベル リラクシング ルミネ池袋店", "opening_hours": ["Weekday 11:00-21:30<br>Sat/Sun/National holiday 11:00-21:00"], "phone": ["03-5956-5133"], "postcode": "171-0021", "ref": "0523", "state": "東京都", "website": "https://www.lumine.ne.jp/ikebukuro/"},
{"addr_full": "東京都練馬区光が丘5-1-1 <br>光が丘IMA イマミセ 1F", "brand": "UNITED ARROWS green label relaxing", "city": "関東", "country": "Japan", "extras": {"brand": "UNITED ARROWS green label relaxing", "fascia": "ユナイテッドアローズ グリーンレーベル リラクシング", "category": null, "edit_date": "2025-03-04 14:31:33", "lat_lon_source": "website"}, "lat": "139.628556778971", "lon": "35.7591221803803", "name": "ユナイテッドアローズ グリーンレーベル リラクシング 光が丘IMA店", "opening_hours": {"Mon": "10:00-21:00", "Tue": "10:00-21:00", "Wed": "10:00-21:00", "Thur": "10:00-21:00", "Fri": "10:00-21:00", "Sat": "10:00-21:00", "Sun": "10:00-21:00"}, "phone": ["03-6909-8602"], "postcode": "179-0072", "ref": "0539", "state": "東京都", "website": "https://www.ima-hikarigaoka.jp/"},
{"addr_full": "東京都足立区千住旭町42-2<br>ルミネ北千住 4F", "brand": "UNITED ARROWS green label relaxing", "city": "関東", "country": "Japan", "extras": {"brand": "UNITED ARROWS green label relaxing", "fascia": "ユナイテッドアローズ グリーンレーベル リラクシング", "category": null, "edit_date": "2025-03-04 14:31:33", "lat_lon_source": "website"}, "lat": "139.804978052486", "lon": "35.7501278945179", "name": "ユナイテッドアローズ グリーンレーベル リラクシング ルミネ北千住店", "opening_hours": {"Mon": "10:00-20:30", "Tue": "10:00-20:30", "Wed": "10:00-20:30", "Thur": "10:00-20:30", "Fri": "10:00-20:30", "Sat": "10:00-20:30", "Sun": "10:00-20:30"}, "phone": ["03-5813-0447"], "postcode": "120-0026", "ref": "0530", "state": "東京都", "website": "https://www.lumine.ne.jp/kitasenju/"},
{"addr_full": "東京都八王子市旭町1-1 <br>セレオ八王子 北館 2F", "brand": "UNITED ARROWS green label relaxing", "city": "関東", "country": "Japan", "extras": {"brand": "UNITED ARROWS green label relaxing", "fascia": "ユナイテッドアローズ グリーンレーベル リラクシング", "category": null, "edit_date": "2025-03-04 14:31:33", "lat_lon_source": "website"}, "lat": "139.339159049538", "lon": "35.656103821522194", "name": "ユナイテッドアローズ グリーンレーベル リラクシング セレオ八王子店", "opening_hours": {"Mon": "10:00-21:00", "Tue": "10:00-21:00", "Wed": "10:00-21:00", "Thur": "10:00-21:00", "Fri": "10:00-21:00", "Sat": "10:00-21:00", "Sun": "10:00-21:00"}, "phone": ["042-686-3261"], "postcode": "192-0083", "ref": "0534", "state": "東京都", "website": "https://www.jrccd.co.jp/celeo/hachioji/"},
{"addr_full": "東京都立川市曙町2-1-1<br>ルミネ立川店 3F<br>", "brand": "UNITED ARROWS green label relaxing", "city": "関東", "country": "Japan", "extras": {"brand": "UNITED ARROWS green label relaxing", "fascia": "ユナイテッドアローズ グリーンレーベル リラクシング", "category": null, "edit_date": "2025-03-04 14:31:33", "lat_lon_source": "website"}, "lat": "139.413163288516", "lon": "35.6985091063876", "name": "ユナイテッドアローズ グリーンレーベル リラクシング ルミネ立川店", "opening_hours": ["Weekday 10:00-21:00<br>Sat/Sun/National holiday 10:00-20:30"], "phone": ["050-8893-4163"], "postcode": "190-0012", "ref": "0535", "state": "東京都", "website": "https://www.lumine.ne.jp/tachikawa/"},
{"addr_full": "東京都立川市泉町935-1 <br>ららぽーと立川立飛 2F 23900", "brand": "UNITED ARROWS green label relaxing", "city": "関東", "country": "Japan", "extras": {"brand": "UNITED ARROWS green label relaxing", "fascia": "ユナイテッドアローズ グリーンレーベル リラクシング", "category": null, "edit_date": "2025-03-04 14:31:33", "lat_lon_source": "website"}, "lat": "139.417472796757", "lon": "35.7129897290503", "name": "ユナイテッドアローズ グリーンレーベル リラクシング ららぽーと立川立飛店", "opening_hours": {"Mon": "10:00-21:00", "Tue": "10:00-21:00", "Wed": "10:00-21:00", "Thur": "10:00-21:00", "Fri": "10:00-21:00", "Sat": "10:00-21:00", "Sun": "10:00-21:00"}, "phone": ["042-540-0021"], "postcode": "190-0015", "ref": "0536", "state": "東京都", "website": "https://mitsui-shopping-park.com/lalaport/tachikawa/"},
{"addr_full": "東京都武蔵野市吉祥寺本町1-11-5<br>コピス吉祥寺 B館 1F", "brand": "UNITED ARROWS green label relaxing", "city": "関東", "country": "Japan", "extras": {"brand": "UNITED ARROWS green label relaxing", "fascia": "ユナイテッドアローズ グリーンレーベル リラクシング", "category": null, "edit_date": "2025-03-04 14:31:33", "lat_lon_source": "website"}, "lat": "139.579711017559", "lon": "35.7050065152016", "name": "ユナイテッドアローズ グリーンレーベル リラクシング コピス吉祥寺店", "opening_hours": {"Mon": "10:00-21:00", "Tue": "10:00-21:00", "Wed": "10:00-21:00", "Thur": "10:00-21:00", "Fri": "10:00-21:00", "Sat": "10:00-21:00", "Sun": "10:00-21:00"}, "phone": ["050-8893-4223"], "postcode": "180-0004", "ref": "0532", "state": "東京都", "website": "https://www.coppice.jp/"},
{"addr_full": "東京都調布市布田4-4-22 <br>トリエ京王調布 2F", "brand": "UNITED ARROWS green label relaxing", "city": "関東", "country": "Japan", "extras": {"brand": "UNITED ARROWS green label relaxing", "fascia": "ユナイテッドアローズ グリーンレーベル リラクシング", "category": null, "edit_date": "2025-03-04 14:31:33", "lat_lon_source": "website"}, "lat": "139.545072843399", "lon": "35.6517209842047", "name": "ユナイテッドアローズ グリーンレーベル リラクシング 調布店", "opening_hours": {"Mon": "10:00-21:00", "Tue": "10:00-21:00", "Wed": "10:00-21:00", "Thur": "10:00-21:00", "Fri": "10:00-21:00", "Sat": "10:00-21:00", "Sun": "10:00-21:00"}, "phone": ["042-443-5948"], "postcode": "182-0024", "ref": "0537", "state": "東京都", "website": "https://trie-keiochofu.jp/"},
{"addr_full": "東京都町田市原町田6-1-11<br> ルミネ町田店 6F", "brand": "UNITED ARROWS green label relaxing", "city": "関東", "country": "Japan", "extras": {"brand": "UNITED ARROWS green label relaxing", "fascia": "ユナイテッドアローズ グリーンレーベル リラクシング", "category": null, "edit_date": "2025-03-04 14:31:33", "lat_lon_source": "website"}, "lat": "139.4460946", "lon": "35.54204016", "name": "ユナイテッドアローズ グリーンレーベル リラクシング  ルミネ町田店", "opening_hours": ["Weekday 10:00-21:00<br>Sat/Sun/National holiday 10:00-20:30"], "phone": ["050-8893-4157"], "postcode": "194-0013", "ref": "0510", "state": "東京都", "website": "https://www.lumine.ne.jp/machida/"},
{"addr_full": "茨城県水戸市宮町1-1-1  <br>水戸駅ビル エクセル本館 2Ｆプラムストリート", "brand": "UNITED ARROWS green label relaxing", "city": "関東", "country": "Japan", "extras": {"brand": "UNITED ARROWS green label relaxing", "fascia": "ユナイテッドアローズ グリーンレーベル リラクシング", "category": null, "edit_date": "2025-03-04 14:31:33", "lat_lon_source": "website"}, "lat": "140.475610667331", "lon": "36.3710586514692", "name": "ユナイテッドアローズ グリーンレーベル リラクシング 水戸エクセル店", "opening_hours": {"Mon": "10:00-20:00", "Tue": "10:00-20:00", "Wed": "10:00-20:00", "Thur": "10:00-20:00", "Fri": "10:00-20:00", "Sat": "10:00-20:00", "Sun": "10:00-20:00"}, "phone": ["029-302-3035"], "postcode": "310-0015", "ref": "0575", "state": "茨城県", "website": "https://www.excel-mito.com/"},
{"addr_full": "群馬県高崎市八島町222  <br>高崎モントレー コンコースF", "brand": "UNITED ARROWS green label relaxing", "city": "関東", "country": "Japan", "extras": {"brand": "UNITED ARROWS green label relaxing", "fascia": "ユナイテッドアローズ グリーンレーベル リラクシング", "category": null, "edit_date": "2025-03-04 14:31:33", "lat_lon_source": "website"}, "lat": "139.012092590031", "lon": "36.3224437375109", "name": "ユナイテッドアローズ グリーンレーベル リラクシング 高崎モントレー店", "opening_hours": {"Mon": "10:00-20:30", "Tue": "10:00-20:30", "Wed": "10:00-20:30", "Thur": "10:00-20:30", "Fri": "10:00-20:30", "Sat": "10:00-20:30", "Sun": "10:00-20:30"}, "phone": ["027-310-5100"], "postcode": "370-0849", "ref": "0576", "state": "群馬県", "website": "https://www.takasakitb.co.jp/t-montres/"},
{"addr_full": "埼玉県所沢市くすのき台1-14-5<br> グランエミオ所沢 2F", "brand": "UNITED ARROWS green label relaxing", "city": "関東", "country": "Japan", "extras": {"brand": "UNITED ARROWS green label relaxing", "fascia": "ユナイテッドアローズ グリーンレーベル リラクシング", "category": null, "edit_date": "2025-03-04 14:31:33", "lat_lon_source": "website"}, "lat": "139.474007843386", "lon": "35.786812628157", "name": "ユナイテッドアローズ グリーンレーベル リラクシング グランエミオ所沢店", "opening_hours": {"Mon": "10:00-21:00", "Tue": "10:00-21:00", "Wed": "10:00-21:00", "Thur": "10:00-21:00", "Fri": "10:00-21:00", "Sat": "10:00-21:00", "Sun": "10:00-21:00"}, "phone": ["04-2991-0205"], "postcode": "359-0037", "ref": "0538", "state": "埼玉県", "website": "https://www.ge-tokorozawa.com/"},
{"addr_full": "埼玉県さいたま市大宮区錦町630<br>ルミネ大宮2 3F", "brand": "UNITED ARROWS green label relaxing", "city": "関東", "country": "Japan", "extras": {"brand": "UNITED ARROWS green label relaxing", "fascia": "ユナイテッドアローズ グリーンレーベル リラクシング", "category": null, "edit_date": "2025-03-04 14:31:33", "lat_lon_source": "website"}, "lat": "139.62368204339", "lon": "35.9065034172327", "name": "ユナイテッドアローズ グリーンレーベル リラクシング ルミネ大宮店", "opening_hours": ["Weekday/Sat 10:00-21:00<br>Sun/National holiday 10:00-20:30"], "phone": ["048-640-7171"], "postcode": "330-0853", "ref": "0541", "state": "埼玉県", "website": "https://www.lumine.ne.jp/omiya/"},
{"addr_full": "埼玉県さいたま市大宮区吉敷町 4-263-1 コクーンシティ cocoon2 2F", "brand": "UNITED ARROWS green label relaxing", "city": "関東", "country": "Japan", "extras": {"brand": "UNITED ARROWS green label relaxing", "fascia": "ユナイテッドアローズ グリーンレーベル リラクシング", "category": null, "edit_date": "2025-03-04 14:31:33", "lat_lon_source": "website"}, "lat": "139.635910175951", "lon": "35.8958140377398", "name": "ユナイテッドアローズ グリーンレーベル リラクシング コクーンシティ さいたま新都心店", "opening_hours": ["10:00～21:00"], "phone": ["048-657-6681"], "postcode": "330-9559", "ref": "0547", "state": "埼玉県", "website": "https://www.cocooncity.jp/"},
{"addr_full": "埼玉県さいたま市浦和区東高砂町11-1<br>浦和パルコ1F", "brand": "UNITED ARROWS green label relaxing", "city": "関東", "country": "Japan", "extras": {"brand": "UNITED ARROWS green label relaxing", "fascia": "ユナイテッドアローズ グリーンレーベル リラクシング", "category": null, "edit_date": "2025-03-04 14:31:33", "lat_lon_source": "website"}, "lat": "139.658588737866", "lon": "35.8588666108337", "name": "ユナイテッドアローズ グリーンレーベル リラクシング 浦和パルコ店", "opening_hours": {"Mon": "10:00-21:00", "Tue": "10:00-21:00", "Wed": "10:00-21:00", "Thur": "10:00-21:00", "Fri": "10:00-21:00", "Sat": "10:00-21:00", "Sun": "10:00-21:00"}, "phone": ["048-871-2742"], "postcode": "330-0055", "ref": "0548", "state": "埼玉県", "website": "https://urawa.parco.jp/"},
{"addr_full": "埼玉県川越市脇田町105<br> アトレマルヒロ 2F", "brand": "UNITED ARROWS green label relaxing", "city": "関東", "country": "Japan", "extras": {"brand": "UNITED ARROWS green label relaxing", "fascia": "ユナイテッドアローズ グリーンレーベル リラクシング", "category": null, "edit_date": "2025-03-04 14:31:33", "lat_lon_source": "website"}, "lat": "139.483018314554", "lon": "35.9086806014971", "name": "ユナイテッドアローズ グリーンレーベル リラクシング 川越店", "opening_hours": {"Mon": "10:00-21:00", "Tue": "10:00-21:00", "Wed": "10:00-21:00", "Thur": "10:00-21:00", "Fri": "10:00-21:00", "Sat": "10:00-21:00", "Sun": "10:00-21:00"}, "phone": ["050-8893-4168"], "postcode": "350-1122", "ref": "0549", "state": "埼玉県", "website": "https://www.atre-kawagoe.com/"},
{"addr_full": "埼玉県越谷市レイクタウン4-2-2 イオンレイクタウン KAZE 2F", "brand": "UNITED ARROWS green label relaxing", "city": "関東", "country": "Japan", "extras": {"brand": "UNITED ARROWS green label relaxing", "fascia": "ユナイテッドアローズ グリーンレーベル リラクシング", "category": null, "edit_date": "2025-03-04 14:31:33", "lat_lon_source": "website"}, "lat": "139.825869583219", "lon": "35.8788418133854", "name": "ユナイテッドアローズ グリーンレーベル リラクシング 越谷レイクタウン店", "opening_hours": {"Mon": "10:00-21:00", "Tue": "10:00-21:00", "Wed": "10:00-21:00", "Thur": "10:00-21:00", "Fri": "10:00-21:00", "Sat": "10:00-21:00", "Sun": "10:00-21:00"}, "phone": ["048-990-5040"], "postcode": "343-0828", "ref": "0568", "state": "埼玉県", "website": "https://laketownkaze-aeonmall.com/"},
{"addr_full": "埼玉県富士見市山室1-1313<br>ららぽーと富士見 2F", "brand": "UNITED ARROWS green label relaxing", "city": "関東", "country": "Japan", "extras": {"brand": "UNITED ARROWS green label relaxing", "fascia": "ユナイテッドアローズ グリーンレーベル リラクシング", "category": null, "edit_date": "2025-03-04 14:31:33", "lat_lon_source": "website"}, "lat": "139.548045414553", "lon": "35.8592308704001", "name": "ユナイテッドアローズ グリーンレーベル リラクシング ららぽーと富士見店", "opening_hours": {"Mon": "10:00-21:00", "Tue": "10:00-21:00", "Wed": "10:00-21:00", "Thur": "10:00-21:00", "Fri": "10:00-21:00", "Sat": "10:00-21:00", "Sun": "10:00-21:00"}, "phone": ["049-268-0105"], "postcode": "354-8560", "ref": "0562", "state": "埼玉県", "website": "https://mitsui-shopping-park.com/lalaport/fujimi/"},
{"addr_full": "千葉県柏市若柴175 <br>ららぽーと柏の葉 2F", "brand": "UNITED ARROWS green label relaxing", "city": "関東", "country": "Japan", "extras": {"brand": "UNITED ARROWS green label relaxing", "fascia": "ユナイテッドアローズ グリーンレーベル リラクシング", "category": null, "edit_date": "2025-03-04 14:31:33", "lat_lon_source": "website"}, "lat": "139.951023367927", "lon": "35.8932856302415", "name": "ユナイテッドアローズ グリーンレーベル リラクシング ららぽーと柏の葉店", "opening_hours": {"Mon": "10:00-21:00", "Tue": "10:00-21:00", "Wed": "10:00-21:00", "Thur": "10:00-21:00", "Fri": "10:00-21:00", "Sat": "10:00-21:00", "Sun": "10:00-21:00"}, "phone": ["050-8893-4159"], "postcode": "277-8518", "ref": "0514", "state": "千葉県", "website": "https://mitsui-shopping-park.com/lalaport/kashiwa/"},
{"addr_full": "千葉県柏市末広町1-1<br>柏髙島屋ステーションモール S館 専門店6F", "brand": "UNITED ARROWS green label relaxing", "city": "関東", "country": "Japan", "extras": {"brand": "UNITED ARROWS green label relaxing", "fascia": "ユナイテッドアローズ グリーンレーベル リラクシング", "category": null, "edit_date": "2025-03-04 14:31:33", "lat_lon_source": "website"}, "lat": "139.970731202259", "lon": "35.8625483098259", "name": "ユナイテッドアローズ グリーンレーベル リラクシング 柏髙島屋ステーションモール店", "opening_hours": {"Mon": "10:00-21:00", "Tue": "10:00-21:00", "Wed": "10:00-21:00", "Thur": "10:00-21:00", "Fri": "10:00-21:00", "Sat": "10:00-21:00", "Sun": "10:00-21:00"}, "phone": ["050-8893-4160"], "postcode": "277-8550", "ref": "0515", "state": "千葉県", "website": "https://www.takashimaya.co.jp/kashiwa/stemo/"},
{"addr_full": "千葉県船橋市浜町2-1-1<br>ららぽーとTOKYO-BAY 南館 1F", "brand": "UNITED ARROWS green label relaxing", "city": "関東", "country": "Japan", "extras": {"brand": "UNITED ARROWS green label relaxing", "fascia": "ユナイテッドアローズ グリーンレーベル リラクシング", "category": null, "edit_date": "2025-03-04 14:31:33", "lat_lon_source": "website"}, "lat": "139.989424406664", "lon": "35.6860964805484", "name": "ユナイテッドアローズ グリーンレーベル リラクシング 船橋店　※こちらは、ららぽーとTOKYO-BAY店です", "opening_hours": ["Mon-Thu 10:00-20:00<br>Fri-Sun/National holiday 10:00-21:00"], "phone": ["050-8893-4156"], "postcode": "273-8530", "ref": "0517", "state": "千葉県", "website": "https://mitsui-shopping-park.com/lalaport/tokyo-bay/"},
{"addr_full": "千葉県千葉市中央区新千葉1-1-1 <br>ペリエ千葉 5F", "brand": "UNITED ARROWS green label relaxing", "city": "関東", "country": "Japan", "extras": {"brand": "UNITED ARROWS green label relaxing", "fascia": "ユナイテッドアローズ グリーンレーベル リラクシング", "category": null, "edit_date": "2025-03-04 14:31:33", "lat_lon_source": "website"}, "lat": "140.114582", "lon": "35.612435", "name": "ユナイテッドアローズ グリーンレーベル リラクシング ペリエ千葉店", "opening_hours": ["Mon 10:30-21:00 <br>Thu-Sat 10:00-21:00 <br>Sun/National holiday  10:00-20:30"], "phone": ["043-202-0044"], "postcode": "260-0031", "ref": "0542", "state": "千葉県", "website": "https://www.perie.co.jp/chiba/"},
{"addr_full": "千葉県船橋市本町7-1-1 <br>シャポー船橋 1F", "brand": "UNITED ARROWS green label relaxing", "city": "関東", "country": "Japan", "extras": {"brand": "UNITED ARROWS green label relaxing", "fascia": "ユナイテッドアローズ グリーンレーベル リラクシング", "category": null, "edit_date": "2025-03-04 14:31:33", "lat_lon_source": "website"}, "lat": "139.986018158356", "lon": "35.7017641588639", "name": "ユナイテッドアローズ グリーンレーベル リラクシング ウィメンズストア シャポー船橋店", "opening_hours": {"Mon": "10:00-21:00", "Tue": "10:00-21:00", "Wed": "10:00-21:00", "Thur": "10:00-21:00", "Fri": "10:00-21:00", "Sat": "10:00-21:00", "Sun": "10:00-21:00"}, "phone": ["047-460-0170"], "postcode": "273-0005", "ref": "2253", "state": "千葉県", "website": "https://shapo.jrtk.jp/funabashi/"},
{"addr_full": "神奈川県横浜市都筑区中川中央1-31-1<br>モザイクモール港北 1F", "brand": "UNITED ARROWS green label relaxing", "city": "関東", "country": "Japan", "extras": {"brand": "UNITED ARROWS green label relaxing", "fascia": "ユナイテッドアローズ グリーンレーベル リラクシング", "category": null, "edit_date": "2025-03-04 14:31:33", "lat_lon_source": "website"}, "lat": "139.578513342191", "lon": "35.5549860515209", "name": "ユナイテッドアローズ グリーンレーベル リラクシング  モザイクモール港北店", "opening_hours": {"Mon": "10:00-20:00", "Tue": "10:00-20:00", "Wed": "10:00-20:00", "Thur": "10:00-20:00", "Fri": "10:00-20:00", "Sat": "10:00-20:00", "Sun": "10:00-20:00"}, "phone": ["045-914-2929"], "postcode": "224-0003", "ref": "0511", "state": "神奈川県", "website": "https://www.mosaicmall.jp/"},
{"addr_full": "神奈川県横浜市青葉区美しが丘1-1-2<br>たまプラーザ テラス ゲートプラザ 2F", "brand": "UNITED ARROWS green label relaxing", "city": "関東", "country": "Japan", "extras": {"brand": "UNITED ARROWS green label relaxing", "fascia": "ユナイテッドアローズ グリーンレーベル リラクシング", "category": null, "edit_date": "2025-03-04 14:31:33", "lat_lon_source": "website"}, "lat": "139.558564378913", "lon": "35.5778286031232", "name": "ユナイテッドアローズ グリーンレーベル リラクシング たまプラーザテラス店", "opening_hours": {"Mon": "10:00-20:00", "Tue": "10:00-20:00", "Wed": "10:00-20:00", "Thur": "10:00-20:00", "Fri": "10:00-20:00", "Sat": "10:00-20:00", "Sun": "10:00-20:00"}, "phone": ["050-8893-4158"], "postcode": "225-8535", "ref": "0512", "state": "神奈川県", "website": "https://www.tamaplaza-terrace.com/"},
{"addr_full": "神奈川県横浜市青葉区青葉台2-1-1 <br>青葉台東急スクエア South-2 1F", "brand": "UNITED ARROWS green label relaxing", "city": "関東", "country": "Japan", "extras": {"brand": "UNITED ARROWS green label relaxing", "fascia": "ユナイテッドアローズ グリーンレーベル リラクシング", "category": null, "edit_date": "2025-03-04 14:31:33", "lat_lon_source": "website"}, "lat": "139.517051689399", "lon": "35.5427490001133", "name": "ユナイテッドアローズ グリーンレーベル リラクシング 青葉台東急スクエア店", "opening_hours": {"Mon": "10:00-21:00", "Tue": "10:00-21:00", "Wed": "10:00-21:00", "Thur": "10:00-21:00", "Fri": "10:00-21:00", "Sat": "10:00-21:00", "Sun": "10:00-21:00"}, "phone": ["045-985-5030"], "postcode": "227-8555", "ref": "0519", "state": "神奈川県", "website": "https://www.aobadai-square.com/"},
{"addr_full": "神奈川県横浜市西区高島2-16-1<br>ルミネ横浜 5F", "brand": "UNITED ARROWS green label relaxing", "city": "関東", "country": "Japan", "extras": {"brand": "UNITED ARROWS green label relaxing", "fascia": "ユナイテッドアローズ グリーンレーベル リラクシング", "category": null, "edit_date": "2025-03-04 14:31:33", "lat_lon_source": "website"}, "lat": "139.622808", "lon": "35.465388", "name": "ユナイテッドアローズ グリーンレーベル リラクシング ルミネ横浜店", "opening_hours": ["Weekday 10:00-21:00<br>Sat/Sun/National holiday 10:00-20:30"], "phone": ["050-8893-4164"], "postcode": "220-0011", "ref": "0540", "state": "神奈川県", "website": "https://www.lumine.ne.jp/yokohama/"},
{"addr_full": "神奈川県横浜市西区みなとみらい3-5-1<br>マークイズみなとみらい2F", "brand": "UNITED ARROWS green label relaxing", "city": "関東", "country": "Japan", "extras": {"brand": "UNITED ARROWS green label relaxing", "fascia": "ユナイテッドアローズ グリーンレーベル リラクシング", "category": null, "edit_date": "2025-03-04 14:31:33", "lat_lon_source": "website"}, "lat": "139.632386315828", "lon": "35.4571100654205", "name": "ユナイテッドアローズ グリーンレーベル リラクシング マークイズみなとみらい店", "opening_hours": [""], "phone": ["045-228-3262"], "postcode": "220-0012", "ref": "0543", "state": "神奈川県", "website": "https://www.mec-markis.jp/mm/"},
{"addr_full": "神奈川県川崎市幸区堀川町72-1 <br>ラゾーナ川崎プラザ 2F", "brand": "UNITED ARROWS green label relaxing", "city": "関東", "country": "Japan", "extras": {"brand": "UNITED ARROWS green label relaxing", "fascia": "ユナイテッドアローズ グリーンレーベル リラクシング", "category": null, "edit_date": "2025-03-04 14:31:33", "lat_lon_source": "website"}, "lat": "139.694884167903", "lon": "35.5328513273358", "name": "ユナイテッドアローズ グリーンレーベル リラクシング  ラゾーナ川崎プラザ店", "opening_hours": {"Mon": "10:00-21:00", "Tue": "10:00-21:00", "Wed": "10:00-21:00", "Thur": "10:00-21:00", "Fri": "10:00-21:00", "Sat": "10:00-21:00", "Sun": "10:00-21:00"}, "phone": ["044-520-0223"], "postcode": "212-8576", "ref": "0544", "state": "神奈川県", "website": "https://mitsui-shopping-park.com/lazona-kawasaki/"},
{"addr_full": "神奈川県横浜市都筑区池辺町4035-1<br>ららぽ-と横浜 1F #13010", "brand": "UNITED ARROWS green label relaxing", "city": "関東", "country": "Japan", "extras": {"brand": "UNITED ARROWS green label relaxing", "fascia": "ユナイテッドアローズ グリーンレーベル リラクシング", "category": null, "edit_date": "2025-03-04 14:31:33", "lat_lon_source": "website"}, "lat": "139.565875461168", "lon": "35.517632168227", "name": "ユナイテッドアローズ グリーンレーベル リラクシング ららぽーと横浜店", "opening_hours": {"Mon": "10:00-21:00", "Tue": "10:00-21:00", "Wed": "10:00-21:00", "Thur": "10:00-21:00", "Fri": "10:00-21:00", "Sat": "10:00-21:00", "Sun": "10:00-21:00"}, "phone": ["045-929-2389"], "postcode": "224-0053", "ref": "0545", "state": "神奈川県", "website": "https://mitsui-shopping-park.com/lalaport/yokohama/"},
{"addr_full": "神奈川県藤沢市辻堂神台1-3-1<br>テラスモール湘南 2F", "brand": "UNITED ARROWS green label relaxing", "city": "関東", "country": "Japan", "extras": {"brand": "UNITED ARROWS green label relaxing", "fascia": "ユナイテッドアローズ グリーンレーベル リラクシング", "category": null, "edit_date": "2025-03-04 14:31:33", "lat_lon_source": "website"}, "lat": "139.446680716404", "lon": "35.3383693176492", "name": "ユナイテッドアローズ グリーンレーベル リラクシング テラスモール湘南店", "opening_hours": {"Mon": "10:00-21:00", "Tue": "10:00-21:00", "Wed": "10:00-21:00", "Thur": "10:00-21:00", "Fri": "10:00-21:00", "Sat": "10:00-21:00", "Sun": "10:00-21:00"}, "phone": ["050-8893-4166"], "postcode": "251-0041", "ref": "0546", "state": "神奈川県", "website": "https://shonan.terracemall.com/"},
{"addr_full": "神奈川県鎌倉市大船1-4-1 <br>大船ルミネウィング 3F", "brand": "UNITED ARROWS green label relaxing", "city": "関東", "country": "Japan", "extras": {"brand": "UNITED ARROWS green label relaxing", "fascia": "ユナイテッドアローズ グリーンレーベル リラクシング", "category": null, "edit_date": "2025-03-04 14:31:33", "lat_lon_source": "website"}, "lat": "139.531458", "lon": "35.35275", "name": "ユナイテッドアローズ グリーンレーベル リラクシング  大船ルミネウィング店", "opening_hours": ["Weekday 10:00-21:00<br>Sat/Sun/National holiday 10:00-20:30"], "phone": ["050-8893-4170"], "postcode": "247-0056", "ref": "0560", "state": "神奈川県", "website": "https://www.lumine.ne.jp/luminewing/"},
{"addr_full": "神奈川県川崎市中原区新丸子東3-1302 <br>ららテラス 武蔵小杉 2F", "brand": "UNITED ARROWS green label relaxing", "city": "関東", "country": "Japan", "extras": {"brand": "UNITED ARROWS green label relaxing", "fascia": "ユナイテッドアローズ グリーンレーベル リラクシング", "category": null, "edit_date": "2025-03-04 14:31:33", "lat_lon_source": "website"}, "lat": "139.660083614539", "lon": "35.5751590068787", "name": "ユナイテッドアローズ グリーンレーベル リラクシング  武蔵小杉店", "opening_hours": {"Mon": "10:00-21:00", "Tue": "10:00-21:00", "Wed": "10:00-21:00", "Thur": "10:00-21:00", "Fri": "10:00-21:00", "Sat": "10:00-21:00", "Sun": "10:00-21:00"}, "phone": ["044-430-1571"], "postcode": "211-0004", "ref": "0561", "state": "神奈川県", "website": ""},
{"addr_full": "神奈川県海老名市扇町13-1 <br>ららぽーと海老名 2F", "brand": "UNITED ARROWS green label relaxing", "city": "関東", "country": "Japan", "extras": {"brand": "UNITED ARROWS green label relaxing", "fascia": "ユナイテッドアローズ グリーンレーベル リラクシング", "category": null, "edit_date": "2025-03-04 14:31:33", "lat_lon_source": "website"}, "lat": "139.389077414649", "lon": "35.4556950340794", "name": "ユナイテッドアローズ グリーンレーベル リラクシング ららぽーと海老名店", "opening_hours": {"Mon": "10:00-21:00", "Tue": "10:00-21:00", "Wed": "10:00-21:00", "Thur": "10:00-21:00", "Fri": "10:00-21:00", "Sat": "10:00-21:00", "Sun": "10:00-21:00"}, "phone": ["046-292-3931"], "postcode": "243-0482", "ref": "0563", "state": "神奈川県", "website": "https://mitsui-shopping-park.com/lalaport/ebina/"},
{"addr_full": "神奈川県横浜市港南区上大岡西1-6-1<br>ウィング上大岡 3F", "brand": "UNITED ARROWS green label relaxing", "city": "関東", "country": "Japan", "extras": {"brand": "UNITED ARROWS green label relaxing", "fascia": "ユナイテッドアローズ グリーンレーベル リラクシング", "category": null, "edit_date": "2025-03-04 14:31:33", "lat_lon_source": "website"}, "lat": "139.596055", "lon": "35.408101", "name": "ユナイテッドアローズ グリーンレーベル リラクシング ウィング上大岡店", "opening_hours": {"Mon": "10:00-20:00", "Tue": "10:00-20:00", "Wed": "10:00-20:00", "Thur": "10:00-20:00", "Fri": "10:00-20:00", "Sat": "10:00-20:00", "Sun": "10:00-20:00"}, "phone": ["045-840-2021"], "postcode": "233-8555", "ref": "0564", "state": "神奈川県", "website": "https://www.wing-net.ne.jp/kamiooka/"},
{"addr_full": "神奈川県横浜市泉区ゆめが丘31 ゆめが丘ソラトス 1 2F", "brand": "UNITED ARROWS green label relaxing", "city": "関東", "country": "Japan", "extras": {"brand": "UNITED ARROWS green label relaxing", "fascia": "ユナイテッドアローズ グリーンレーベル リラクシング", "category": null, "edit_date": "2025-03-04 14:31:33", "lat_lon_source": "website"}, "lat": "139.48297565326", "lon": "35.4054909313514", "name": "ユナイテッドアローズ グリーンレーベル リラクシング ゆめが丘ソラトス店", "opening_hours": {"Mon": "10:00-20:00", "Tue": "10:00-20:00", "Wed": "10:00-20:00", "Thur": "10:00-20:00", "Fri": "10:00-20:00", "Sat": "10:00-20:00", "Sun": "10:00-20:00"}, "phone": ["045-719-5401"], "postcode": "245-0019", "ref": "2210", "state": "神奈川県", "website": "https://www.yumegaoka-soratos.com/"},
{"addr_full": "神奈川県川崎市川崎区駅前本町26-1 <br>アトレ川崎 1F", "brand": "UNITED ARROWS green label relaxing", "city": "関東", "country": "Japan", "extras": {"brand": "UNITED ARROWS green label relaxing", "fascia": "ユナイテッドアローズ グリーンレーベル リラクシング", "category": null, "edit_date": "2025-03-04 14:31:33", "lat_lon_source": "website"}, "lat": "139.698005855633", "lon": "35.5310930574232", "name": "ユナイテッドアローズ グリーンレーベル リラクシング ウィメンズストア アトレ川崎店", "opening_hours": {"Mon": "10:00-21:00", "Tue": "10:00-21:00", "Wed": "10:00-21:00", "Thur": "10:00-21:00", "Fri": "10:00-21:00", "Sat": "10:00-21:00", "Sun": "10:00-21:00"}, "phone": ["044-221-8177"], "postcode": "210-0007", "ref": "2250", "state": "神奈川県", "website": "https://www.atre.co.jp/store/kawasaki"},
{"addr_full": "北海道札幌市中央区北5条西2・3丁目<br>札幌ステラプレイス イースト B1F", "brand": "UNITED ARROWS green label relaxing", "city": "北海道・東北", "country": "Japan", "extras": {"brand": "UNITED ARROWS green label relaxing", "fascia": "ユナイテッドアローズ グリーンレーベル リラクシング", "category": null, "edit_date": "2025-03-04 14:31:33", "lat_lon_source": "website"}, "lat": "141.351882397565", "lon": "43.0679838757444", "name": "ユナイテッドアローズ グリーンレーベル リラクシング 札幌ステラプレイス店", "opening_hours": {"Mon": "10:00-21:00", "Tue": "10:00-21:00", "Wed": "10:00-21:00", "Thur": "10:00-21:00", "Fri": "10:00-21:00", "Sat": "10:00-21:00", "Sun": "10:00-21:00"}, "phone": ["050-8889-0145"], "postcode": "060-0005", "ref": "0570", "state": "北海道", "website": "https://www.stellarplace.net/"},
{"addr_full": "青森県五所川原市大字唐笠柳字藤巻517-1 エルム 1F", "brand": "UNITED ARROWS green label relaxing", "city": "北海道・東北", "country": "Japan", "extras": {"brand": "UNITED ARROWS green label relaxing", "fascia": "ユナイテッドアローズ グリーンレーベル リラクシング", "category": null, "edit_date": "2025-03-04 14:31:33", "lat_lon_source": "website"}, "lat": "140.453907503067", "lon": "40.7983652719552", "name": "ユナイテッドアローズ グリーンレーベル リラクシング 青森ELM店", "opening_hours": {"Mon": "10:00-20:00", "Tue": "10:00-20:00", "Wed": "10:00-20:00", "Thur": "10:00-20:00", "Fri": "10:00-20:00", "Sat": "10:00-20:00", "Sun": "10:00-20:00"}, "phone": [], "postcode": "037-0004", "ref": "0577", "state": "青森県", "website": "https://elm-no-machi.jp/"},
{"addr_full": "岩手県盛岡市盛岡駅前通1-44 <br>フェザン 2F", "brand": "UNITED ARROWS green label relaxing", "city": "北海道・東北", "country": "Japan", "extras": {"brand": "UNITED ARROWS green label relaxing", "fascia": "ユナイテッドアローズ グリーンレーベル リラクシング", "category": null, "edit_date": "2025-03-04 14:31:33", "lat_lon_source": "website"}, "lat": "141.135560666832", "lon": "39.702778134857", "name": "ユナイテッドアローズ グリーンレーベル リラクシング 盛岡フェザン店", "opening_hours": {"Mon": "10:00-20:00", "Tue": "10:00-20:00", "Wed": "10:00-20:00", "Thur": "10:00-20:00", "Fri": "10:00-20:00", "Sat": "10:00-20:00", "Sun": "10:00-20:00"}, "phone": ["019-624-8909"], "postcode": "020-0034", "ref": "0574", "state": "岩手県", "website": "https://fesan-jp.com/"},
{"addr_full": "宮城県仙台市青葉区中央1-1-1 <br>エスパル仙台東館 3F", "brand": "UNITED ARROWS green label relaxing", "city": "北海道・東北", "country": "Japan", "extras": {"brand": "UNITED ARROWS green label relaxing", "fascia": "ユナイテッドアローズ グリーンレーベル リラクシング", "category": null, "edit_date": "2025-03-04 14:31:33", "lat_lon_source": "website"}, "lat": "140.882373217545", "lon": "38.2595878631319", "name": "ユナイテッドアローズ グリーンレーベル リラクシング エスパル仙台店", "opening_hours": {"Mon": "10:00-21:00", "Tue": "10:00-21:00", "Wed": "10:00-21:00", "Thur": "10:00-21:00", "Fri": "10:00-21:00", "Sat": "10:00-21:00", "Sun": "10:00-21:00"}, "phone": ["022-791-2131"], "postcode": "980-8487", "ref": "0571", "state": "宮城県", "website": "https://www.s-pal.jp/sendai/"},
{"addr_full": "新潟県新潟市中央区万代1-4-8 ラブラ2 2F", "brand": "UNITED ARROWS green label relaxing", "city": "北陸・東海", "country": "Japan", "extras": {"brand": "UNITED ARROWS green label relaxing", "fascia": "ユナイテッドアローズ グリーンレーベル リラクシング", "category": null, "edit_date": "2025-03-04 14:31:33", "lat_lon_source": "website"}, "lat": "139.056808", "lon": "37.916631", "name": "ユナイテッドアローズ グリーンレーベル リラクシング ラブラ2新潟店", "opening_hours": {"Mon": "10:00-20:00", "Tue": "10:00-20:00", "Wed": "10:00-20:00", "Thur": "10:00-20:00", "Fri": "10:00-20:00", "Sat": "10:00-20:00", "Sun": "10:00-20:00"}, "phone": ["025-290-5802"], "postcode": "950-0088", "ref": "0572", "state": "新潟県", "website": "https://mitsui-shopping-park.com/lovela-bandai/"},
{"addr_full": "石川県金沢市堀川新町3-1<br>金沢フォーラス 2F", "brand": "UNITED ARROWS green label relaxing", "city": "北陸・東海", "country": "Japan", "extras": {"brand": "UNITED ARROWS green label relaxing", "fascia": "ユナイテッドアローズ グリーンレーベル リラクシング", "category": null, "edit_date": "2025-03-04 14:31:33", "lat_lon_source": "website"}, "lat": "136.649150673409", "lon": "36.5788460118647", "name": "ユナイテッドアローズ グリーンレーベル リラクシング 金沢フォーラス店", "opening_hours": {"Mon": "10:00-21:00", "Tue": "10:00-21:00", "Wed": "10:00-21:00", "Thur": "10:00-21:00", "Fri": "10:00-21:00", "Sat": "10:00-21:00", "Sun": "10:00-21:00"}, "phone": ["076-231-8621"], "postcode": "920-0849", "ref": "0582", "state": "石川県", "website": "https://www.forus.co.jp/kanazawa"},
{"addr_full": "長野県長野市南千歳1-22-6 <br>MIDORI長野 2F", "brand": "UNITED ARROWS green label relaxing", "city": "北陸・東海", "country": "Japan", "extras": {"brand": "UNITED ARROWS green label relaxing", "fascia": "ユナイテッドアローズ グリーンレーベル リラクシング", "category": null, "edit_date": "2025-03-04 14:31:33", "lat_lon_source": "website"}, "lat": "138.188428115281", "lon": "36.6433043533301", "name": "ユナイテッドアローズ グリーンレーベル リラクシング 長野店", "opening_hours": {"Mon": "10:00-20:00", "Tue": "10:00-20:00", "Wed": "10:00-20:00", "Thur": "10:00-20:00", "Fri": "10:00-20:00", "Sat": "10:00-20:00", "Sun": "10:00-20:00"}, "phone": ["050-8893-4172"], "postcode": "380-8543", "ref": "0573", "state": "長野県", "website": "https://www.eki-midori.com/"},
{"addr_full": "静岡県静岡市葵区黒金町49<br>パルシェ1F", "brand": "UNITED ARROWS green label relaxing", "city": "北陸・東海", "country": "Japan", "extras": {"brand": "UNITED ARROWS green label relaxing", "fascia": "ユナイテッドアローズ グリーンレーベル リラクシング", "category": null, "edit_date": "2025-03-04 14:31:33", "lat_lon_source": "website"}, "lat": "138.388740367284", "lon": "34.972143364369", "name": "ユナイテッドアローズ グリーンレーベル リラクシング ウィメンズストア 静岡パルシェ店", "opening_hours": {"Mon": "10:00-20:00", "Tue": "10:00-20:00", "Wed": "10:00-20:00", "Thur": "10:00-20:00", "Fri": "10:00-20:00", "Sat": "10:00-20:00", "Sun": "10:00-20:00"}, "phone": ["054-275-0663"], "postcode": "420-0851", "ref": "0581", "state": "静岡県", "website": "https://www.parche.co.jp/"},
{"addr_full": "静岡県静岡市葵区鷹匠1-1-1<br>新静岡セノバ 2F", "brand": "UNITED ARROWS green label relaxing", "city": "北陸・東海", "country": "Japan", "extras": {"brand": "UNITED ARROWS green label relaxing", "fascia": "ユナイテッドアローズ グリーンレーベル リラクシング", "category": null, "edit_date": "2025-03-04 14:31:33", "lat_lon_source": "website"}, "lat": "138.386355202244", "lon": "34.9756036507719", "name": "ユナイテッドアローズ グリーンレーベル リラクシング 新静岡セノバ店", "opening_hours": {"Mon": "10:00-20:00", "Tue": "10:00-20:00", "Wed": "10:00-20:00", "Thur": "10:00-20:00", "Fri": "10:00-20:00", "Sat": "10:00-20:00", "Sun": "10:00-20:00"}, "phone": ["050-8893-4189"], "postcode": "420-8508", "ref": "0584", "state": "静岡県", "website": "https://www.cenova.jp/"},
{"addr_full": "静岡県浜松市中央区砂山町6-1 <br>メイワン 1F", "brand": "UNITED ARROWS green label relaxing", "city": "北陸・東海", "country": "Japan", "extras": {"brand": "UNITED ARROWS green label relaxing", "fascia": "ユナイテッドアローズ グリーンレーベル リラクシング", "category": null, "edit_date": "2025-03-04 14:31:33", "lat_lon_source": "website"}, "lat": "137.734449988024", "lon": "34.7042194161524", "name": "ユナイテッドアローズ グリーンレーベル リラクシング 浜松メイワン店", "opening_hours": {"Mon": "10:00-20:00", "Tue": "10:00-20:00", "Wed": "10:00-20:00", "Thur": "10:00-20:00", "Fri": "10:00-20:00", "Sat": "10:00-20:00", "Sun": "10:00-20:00"}, "phone": ["050-8893-4191"], "postcode": "430-0926", "ref": "0585", "state": "静岡県", "website": "https://www.may-one.co.jp/"},
{"addr_full": "愛知県愛知郡東郷町 東郷中央土地区画整理事業 62街区1・3 <br>ららぽーと愛知東郷 1F", "brand": "UNITED ARROWS green label relaxing", "city": "北陸・東海", "country": "Japan", "extras": {"brand": "UNITED ARROWS green label relaxing", "fascia": "ユナイテッドアローズ グリーンレーベル リラクシング", "category": null, "edit_date": "2025-03-04 14:31:33", "lat_lon_source": "website"}, "lat": "137.046656", "lon": "35.099035", "name": "ユナイテッドアローズ グリーンレーベル リラクシング ららぽーと愛知東郷店", "opening_hours": {"Mon": "10:00-21:00", "Tue": "10:00-21:00", "Wed": "10:00-21:00", "Thur": "10:00-21:00", "Fri": "10:00-21:00", "Sat": "10:00-21:00", "Sun": "10:00-21:00"}, "phone": [], "postcode": "470-0186", "ref": "0567", "state": "愛知県", "website": "https://mitsui-shopping-park.com/lalaport/togo/"},
{"addr_full": "愛知県名古屋市中区栄3-6-1 <br>ラシック 4F", "brand": "UNITED ARROWS green label relaxing", "city": "北陸・東海", "country": "Japan", "extras": {"brand": "UNITED ARROWS green label relaxing", "fascia": "ユナイテッドアローズ グリーンレーベル リラクシング", "category": null, "edit_date": "2025-03-04 14:31:33", "lat_lon_source": "website"}, "lat": "136.907383661156", "lon": "35.1675047322279", "name": "ユナイテッドアローズ グリーンレーベル リラクシング 名古屋ラシック店", "opening_hours": {"Mon": "11:00-21:00", "Tue": "11:00-21:00", "Wed": "11:00-21:00", "Thur": "11:00-21:00", "Fri": "11:00-21:00", "Sat": "11:00-21:00", "Sun": "11:00-21:00"}, "phone": ["050-8893-4153"], "postcode": "460-0008", "ref": "0580", "state": "愛知県", "website": "https://www.lachic.jp/nagoya.html"},
{"addr_full": "愛知県名古屋市千種区星が丘元町16-50<br>星が丘テラス EAST 1・2F", "brand": "UNITED ARROWS green label relaxing", "city": "北陸・東海", "country": "Japan", "extras": {"brand": "UNITED ARROWS green label relaxing", "fascia": "ユナイテッドアローズ グリーンレーベル リラクシング", "category": null, "edit_date": "2025-03-04 14:31:33", "lat_lon_source": "website"}, "lat": "136.985472", "lon": "35.161057", "name": "ユナイテッドアローズ グリーンレーベル リラクシング 星が丘テラス店", "opening_hours": {"Mon": "10:00-20:00", "Tue": "10:00-20:00", "Wed": "10:00-20:00", "Thur": "10:00-20:00", "Fri": "10:00-20:00", "Sat": "10:00-20:00", "Sun": "10:00-20:00"}, "phone": ["052-789-0851"], "postcode": "464-0802", "ref": "0583", "state": "愛知県", "website": "https://www.hoshigaoka-terrace.com/"},
{"addr_full": "愛知県名古屋市中村区名駅1-1-3 <br>タカシマヤ ゲートタワーモール 6F", "brand": "UNITED ARROWS green label relaxing", "city": "北陸・東海", "country": "Japan", "extras": {"brand": "UNITED ARROWS green label relaxing", "fascia": "ユナイテッドアローズ グリーンレーベル リラクシング", "category": null, "edit_date": "2025-03-04 14:31:33", "lat_lon_source": "website"}, "lat": "136.882614015091", "lon": "35.1719463181382", "name": "ユナイテッドアローズ グリーンレーベル リラクシング 名古屋タカシマヤ ゲートタワーモール店", "opening_hours": {"Mon": "10:00-21:00", "Tue": "10:00-21:00", "Wed": "10:00-21:00", "Thur": "10:00-21:00", "Fri": "10:00-21:00", "Sat": "10:00-21:00", "Sun": "10:00-21:00"}, "phone": ["052-589-2156"], "postcode": "450-6606", "ref": "0586", "state": "愛知県", "website": "https://www.jr-tgm.com/"},
{"addr_full": "京都府京都市南区西九条鳥居口町1番地<br>イオンモールKYOTO 2F", "brand": "UNITED ARROWS green label relaxing", "city": "関西", "country": "Japan", "extras": {"brand": "UNITED ARROWS green label relaxing", "fascia": "ユナイテッドアローズ グリーンレーベル リラクシング", "category": null, "edit_date": "2025-03-04 14:31:33", "lat_lon_source": "website"}, "lat": "135.754993592963", "lon": "34.9824965545405", "name": "ユナイテッドアローズ グリーンレーベル リラクシング 京都店", "opening_hours": ["10:00-21:00<br><br>"], "phone": ["050-8893-4202"], "postcode": "601-8417", "ref": "0551", "state": "京都府", "website": "https://kyoto-aeonmall.com/"},
{"addr_full": "京都府京都市下京区烏丸通塩小路下る東塩小路町902番地 <br/>京都駅前地下街ポルタ", "brand": "UNITED ARROWS green label relaxing", "city": "関西", "country": "Japan", "extras": {"brand": "UNITED ARROWS green label relaxing", "fascia": "ユナイテッドアローズ グリーンレーベル リラクシング", "category": null, "edit_date": "2025-03-04 14:31:33", "lat_lon_source": "website"}, "lat": "135.758625999309", "lon": "34.9864626366805", "name": "ユナイテッドアローズ グリーンレーベル リラクシング ウィメンズストア 京都駅前地下街ポルタ店", "opening_hours": ["Weekday/Sun 10:00-20:30<br/>Fri/Sat 10:00-21:00 <br/>※Sunday the next day will be a holiday until 21:00"], "phone": ["075-354-7210"], "postcode": "600-8216", "ref": "2254", "state": "京都府", "website": "https://www.porta.co.jp/"},
{"addr_full": "大阪府大阪市北区大深町4-20 <br>グランフロント大阪 ショップ＆レストラン 南館 3F", "brand": "UNITED ARROWS green label relaxing", "city": "関西", "country": "Japan", "extras": {"brand": "UNITED ARROWS green label relaxing", "fascia": "ユナイテッドアローズ グリーンレーベル リラクシング", "category": null, "edit_date": "2025-03-04 14:31:33", "lat_lon_source": "website"}, "lat": "135.495229218812", "lon": "34.7041061689353", "name": "ユナイテッドアローズ グリーンレーベル リラクシング  グランフロント大阪店", "opening_hours": {"Mon": "10:00-21:00", "Tue": "10:00-21:00", "Wed": "10:00-21:00", "Thur": "10:00-21:00", "Fri": "10:00-21:00", "Sat": "10:00-21:00", "Sun": "10:00-21:00"}, "phone": ["06-6359-1303"], "postcode": "530-0011", "ref": "0550", "state": "大阪府", "website": "https://www.gfo-sc.jp/"},
{"addr_full": "大阪府大阪市浪速区難波中2-10-70<br>なんばパークス 3F", "brand": "UNITED ARROWS green label relaxing", "city": "関西", "country": "Japan", "extras": {"brand": "UNITED ARROWS green label relaxing", "fascia": "ユナイテッドアローズ グリーンレーベル リラクシング", "category": null, "edit_date": "2025-03-04 14:31:33", "lat_lon_source": "website"}, "lat": "135.501841019409", "lon": "34.6616005512905", "name": "ユナイテッドアローズ グリーンレーベル リラクシング なんばパークス店", "opening_hours": ["11:00～21:00"], "phone": ["06-6634-1265"], "postcode": "556-0011", "ref": "0552", "state": "大阪府", "website": "https://nambaparks.com/"},
{"addr_full": "大阪府大阪市北区芝田1-1-3 <br>阪急三番街 南館 B1F", "brand": "UNITED ARROWS green label relaxing", "city": "関西", "country": "Japan", "extras": {"brand": "UNITED ARROWS green label relaxing", "fascia": "ユナイテッドアローズ グリーンレーベル リラクシング", "category": null, "edit_date": "2025-03-04 14:31:33", "lat_lon_source": "website"}, "lat": "135.498452296723", "lon": "34.7048442207399", "name": "ユナイテッドアローズ グリーンレーベル リラクシング  阪急三番街店", "opening_hours": {"Mon": "10:00-21:00", "Tue": "10:00-21:00", "Wed": "10:00-21:00", "Thur": "10:00-21:00", "Fri": "10:00-21:00", "Sat": "10:00-21:00", "Sun": "10:00-21:00"}, "phone": ["050-8893-4203"], "postcode": "530-0012", "ref": "0553", "state": "大阪府", "website": "https://www.h-sanbangai.com/"},
{"addr_full": "大阪府枚方市楠葉花園町15-1 <br>くずはモール本館 ハナノモール 1F", "brand": "UNITED ARROWS green label relaxing", "city": "関西", "country": "Japan", "extras": {"brand": "UNITED ARROWS green label relaxing", "fascia": "ユナイテッドアローズ グリーンレーベル リラクシング", "category": null, "edit_date": "2025-03-04 14:31:33", "lat_lon_source": "website"}, "lat": "135.67649", "lon": "34.862218", "name": "ユナイテッドアローズ グリーンレーベル リラクシング くずはモール店", "opening_hours": {"Mon": "10:00-21:00", "Tue": "10:00-21:00", "Wed": "10:00-21:00", "Thur": "10:00-21:00", "Fri": "10:00-21:00", "Sat": "10:00-21:00", "Sun": "10:00-21:00"}, "phone": ["072-864-5360"], "postcode": "573-1121", "ref": "0554", "state": "大阪府", "website": "https://kuzuha-mall.com/"},
{"addr_full": "大阪府大阪市阿倍野区阿倍野筋1-6-1 <br>あべのキューズモール 2F", "brand": "UNITED ARROWS green label relaxing", "city": "関西", "country": "Japan", "extras": {"brand": "UNITED ARROWS green label relaxing", "fascia": "ユナイテッドアローズ グリーンレーベル リラクシング", "category": null, "edit_date": "2025-03-04 14:31:33", "lat_lon_source": "website"}, "lat": "135.511292614512", "lon": "34.6451313716716", "name": "ユナイテッドアローズ グリーンレーベル リラクシング あべのキューズモール店", "opening_hours": {"Mon": "10:00-21:00", "Tue": "10:00-21:00", "Wed": "10:00-21:00", "Thur": "10:00-21:00", "Fri": "10:00-21:00", "Sat": "10:00-21:00", "Sun": "10:00-21:00"}, "phone": ["06-4396-6180"], "postcode": "545-0052", "ref": "0555", "state": "大阪府", "website": "https://qs-mall.jp/abeno/"},
{"addr_full": "大阪府和泉市あゆみ野4-4-7 <br>ららぽーと和泉 3F 34100", "brand": "UNITED ARROWS green label relaxing", "city": "関西", "country": "Japan", "extras": {"brand": "UNITED ARROWS green label relaxing", "fascia": "ユナイテッドアローズ グリーンレーベル リラクシング", "category": null, "edit_date": "2025-03-04 14:31:33", "lat_lon_source": "website"}, "lat": "135.447797132297", "lon": "34.4370500645518", "name": "ユナイテッドアローズ グリーンレーベル リラクシング ららぽーと和泉店", "opening_hours": {"Mon": "10:00-21:00", "Tue": "10:00-21:00", "Wed": "10:00-21:00", "Thur": "10:00-21:00", "Fri": "10:00-21:00", "Sat": "10:00-21:00", "Sun": "10:00-21:00"}, "phone": [], "postcode": "594-1157", "ref": "0565", "state": "大阪府", "website": "https://mitsui-shopping-park.com/lalaport/izumi/"},
{"addr_full": "大阪府吹田市千里万博公園2-1 ららぽーとEXPOCITY 1F 10450", "brand": "UNITED ARROWS green label relaxing", "city": "関西", "country": "Japan", "extras": {"brand": "UNITED ARROWS green label relaxing", "fascia": "ユナイテッドアローズ グリーンレーベル リラクシング", "category": null, "edit_date": "2025-03-04 14:31:33", "lat_lon_source": "website"}, "lat": "135.534980958001", "lon": "34.8052365901899", "name": "ユナイテッドアローズ グリーンレーベル リラクシング ららぽーとEXPOCITY店", "opening_hours": {"Mon": "10:00-21:00", "Tue": "10:00-21:00", "Wed": "10:00-21:00", "Thur": "10:00-21:00", "Fri": "10:00-21:00", "Sat": "10:00-21:00", "Sun": "10:00-21:00"}, "phone": ["06-4864-8306"], "postcode": "565-0826", "ref": "0566", "state": "大阪府", "website": "https://mitsui-shopping-park.com/lalaport/expocity/"},
{"addr_full": "兵庫県西宮市高松町14-2-210<br>阪急西宮ガーデンズ 2F<br><br><font color=\"red\">※ 改装に伴い、2025年1月16日(木)から3Fウェルカムガーデンにて仮店舗営業いたします</font>", "brand": "UNITED ARROWS green label relaxing", "city": "関西", "country": "Japan", "extras": {"brand": "UNITED ARROWS green label relaxing", "fascia": "ユナイテッドアローズ グリーンレーベル リラクシング", "category": null, "edit_date": "2025-03-04 14:31:33", "lat_lon_source": "website"}, "lat": "135.359551227385", "lon": "34.7446615868125", "name": "ユナイテッドアローズ グリーンレーベル リラクシング 西宮ガーデンズ店", "opening_hours": {"Mon": "10:00-21:00", "Tue": "10:00-21:00", "Wed": "10:00-21:00", "Thur": "10:00-21:00", "Fri": "10:00-21:00", "Sat": "10:00-21:00", "Sun": "10:00-21:00"}, "phone": [], "postcode": "663-8204", "ref": "0556", "state": "兵庫県", "website": "https://nishinomiya-gardens.com/"},
{"addr_full": "兵庫県姫路市駅前町188-1 <br>ピオレ姫路 1F", "brand": "UNITED ARROWS green label relaxing", "city": "関西", "country": "Japan", "extras": {"brand": "UNITED ARROWS green label relaxing", "fascia": "ユナイテッドアローズ グリーンレーベル リラクシング", "category": null, "edit_date": "2025-03-04 14:31:33", "lat_lon_source": "website"}, "lat": "134.690980078936", "lon": "34.8274348151499", "name": "ユナイテッドアローズ グリーンレーベル リラクシング ピオレ姫路店", "opening_hours": {"Mon": "10:00-20:00", "Tue": "10:00-20:00", "Wed": "10:00-20:00", "Thur": "10:00-20:00", "Fri": "10:00-20:00", "Sat": "10:00-20:00", "Sun": "10:00-20:00"}, "phone": ["050-8893-4208"], "postcode": "670-0927", "ref": "0558", "state": "兵庫県", "website": "https://piole.jp/himeji/"},
{"addr_full": "岡山県岡山市北区駅元町一番街地下2号 岡山一番街", "brand": "UNITED ARROWS green label relaxing", "city": "中国・四国・九州", "country": "Japan", "extras": {"brand": "UNITED ARROWS green label relaxing", "fascia": "ユナイテッドアローズ グリーンレーベル リラクシング", "category": null, "edit_date": "2025-03-04 14:31:33", "lat_lon_source": "website"}, "lat": "133.918946637821", "lon": "34.665323109883", "name": "ユナイテッドアローズ グリーンレーベル リラクシング 岡山一番街店", "opening_hours": {"Mon": "10:00-20:00", "Tue": "10:00-20:00", "Wed": "10:00-20:00", "Thur": "10:00-20:00", "Fri": "10:00-20:00", "Sat": "10:00-20:00", "Sun": "10:00-20:00"}, "phone": ["050-8893-1926"], "postcode": "700-0024", "ref": "0593", "state": "岡山県", "website": "https://sun-ste.com/okayama-ichibangai/"},
{"addr_full": "広島県福山市三之丸町30-1<br>サンステーションテラス福山 1Ｆ", "brand": "UNITED ARROWS green label relaxing", "city": "中国・四国・九州", "country": "Japan", "extras": {"brand": "UNITED ARROWS green label relaxing", "fascia": "ユナイテッドアローズ グリーンレーベル リラクシング", "category": null, "edit_date": "2025-03-04 14:31:33", "lat_lon_source": "website"}, "lat": "133.362782385699", "lon": "34.489213709844", "name": "ユナイテッドアローズ グリーンレーベル リラクシング サンステーションテラス福山店", "opening_hours": {"Mon": "10:00-20:00", "Tue": "10:00-20:00", "Wed": "10:00-20:00", "Thur": "10:00-20:00", "Fri": "10:00-20:00", "Sat": "10:00-20:00", "Sun": "10:00-20:00"}, "phone": ["084-973-3900"], "postcode": "720-0066", "ref": "0587", "state": "広島県", "website": "https://sun-ste.com/fukuyama/"},
{"addr_full": "広島県広島市中区新天地2-1 <br>広島パルコ 新館 4F", "brand": "UNITED ARROWS green label relaxing", "city": "中国・四国・九州", "country": "Japan", "extras": {"brand": "UNITED ARROWS green label relaxing", "fascia": "ユナイテッドアローズ グリーンレーベル リラクシング", "category": null, "edit_date": "2025-03-04 14:31:33", "lat_lon_source": "website"}, "lat": "132.462668625548", "lon": "34.3920039131348", "name": "ユナイテッドアローズ グリーンレーベル リラクシング 広島パルコ店", "opening_hours": ["10:00～20:30"], "phone": ["082-545-8750"], "postcode": "730-0034", "ref": "0595", "state": "広島県", "website": "https://hiroshima.parco.jp/"},
{"addr_full": "香川県高松市丸亀町8-23<br>丸亀町グリーン 東館1F", "brand": "UNITED ARROWS green label relaxing", "city": "中国・四国・九州", "country": "Japan", "extras": {"brand": "UNITED ARROWS green label relaxing", "fascia": "ユナイテッドアローズ グリーンレーベル リラクシング", "category": null, "edit_date": "2025-03-04 14:31:33", "lat_lon_source": "website"}, "lat": "134.049792273398", "lon": "34.3419816709721", "name": "ユナイテッドアローズ グリーンレーベル リラクシング 高松店", "opening_hours": {"Mon": "11:00-20:00", "Tue": "11:00-20:00", "Wed": "11:00-20:00", "Thur": "11:00-20:00", "Fri": "11:00-20:00", "Sat": "11:00-20:00", "Sun": "11:00-20:00"}, "phone": ["050-8893-4216"], "postcode": "760-0029", "ref": "0588", "state": "香川県", "website": "https://mgreen.jp/"},
{"addr_full": "愛媛県伊予郡松前町筒井 850 <br>エミフル MASAKI 1F", "brand": "UNITED ARROWS green label relaxing", "city": "中国・四国・九州", "country": "Japan", "extras": {"brand": "UNITED ARROWS green label relaxing", "fascia": "ユナイテッドアローズ グリーンレーベル リラクシング", "category": null, "edit_date": "2025-03-04 14:31:33", "lat_lon_source": "website"}, "lat": "132.716270221219", "lon": "33.7901427141511", "name": "ユナイテッドアローズ グリーンレーベル リラクシング 松山エミフルMASAKI店", "opening_hours": {"Mon": "10:00-21:00", "Tue": "10:00-21:00", "Wed": "10:00-21:00", "Thur": "10:00-21:00", "Fri": "10:00-21:00", "Sat": "10:00-21:00", "Sun": "10:00-21:00"}, "phone": ["089-961-7080"], "postcode": "791-3120", "ref": "0589", "state": "愛媛県", "website": "https://emifull.jp/"},
{"addr_full": "福岡県福岡市博多区博多駅中央街1-1 <br>アミュプラザ博多 6F", "brand": "UNITED ARROWS green label relaxing", "city": "中国・四国・九州", "country": "Japan", "extras": {"brand": "UNITED ARROWS green label relaxing", "fascia": "ユナイテッドアローズ グリーンレーベル リラクシング", "category": null, "edit_date": "2025-03-04 14:31:33", "lat_lon_source": "website"}, "lat": "130.419924", "lon": "33.590545", "name": "ユナイテッドアローズ グリーンレーベル リラクシング アミュプラザ博多店", "opening_hours": {"Mon": "10:00-20:00", "Tue": "10:00-20:00", "Wed": "10:00-20:00", "Thur": "10:00-20:00", "Fri": "10:00-20:00", "Sat": "10:00-20:00", "Sun": "10:00-20:00"}, "phone": ["092-413-5362"], "postcode": "812-0012", "ref": "0590", "state": "福岡県", "website": "https://www.jrhakatacity.com/"},
{"addr_full": "福岡県北九州市小倉北区浅野1-1-1<br>アミュプラザ小倉 東館 3F", "brand": "UNITED ARROWS green label relaxing", "city": "中国・四国・九州", "country": "Japan", "extras": {"brand": "UNITED ARROWS green label relaxing", "fascia": "ユナイテッドアローズ グリーンレーベル リラクシング", "category": null, "edit_date": "2025-03-04 14:31:33", "lat_lon_source": "website"}, "lat": "130.882848471075", "lon": "33.886783051997", "name": "ユナイテッドアローズ グリーンレーベル リラクシング  アミュプラザ小倉店", "opening_hours": ["月～木 10:00～20:30<br>金・土・日 10:00～21:00<br>"], "phone": ["050-8893-4181"], "postcode": "802-0001", "ref": "0591", "state": "福岡県", "website": "http://www.amuplaza.jp/"},
{"addr_full": "福岡県福岡市博多区那珂6-23-1 ららぽーと福岡 2F", "brand": "UNITED ARROWS green label relaxing", "city": "中国・四国・九州", "country": "Japan", "extras": {"brand": "UNITED ARROWS green label relaxing", "fascia": "ユナイテッドアローズ グリーンレーベル リラクシング", "category": null, "edit_date": "2025-03-04 14:31:33", "lat_lon_source": "website"}, "lat": "130.440355108977", "lon": "33.5652842079603", "name": "ユナイテッドアローズ グリーンレーベル リラクシング ららぽーと福岡店", "opening_hours": ["10:00 - 21:00"], "phone": ["092-588-2030"], "postcode": "812-0893", "ref": "0598", "state": "福岡県", "website": "https://mitsui-shopping-park.com/lalaport/fukuoka/"},
{"addr_full": "長崎県長崎市尾上町1-1<br>アミュプラザ長崎 本館 2F", "brand": "UNITED ARROWS green label relaxing", "city": "中国・四国・九州", "country": "Japan", "extras": {"brand": "UNITED ARROWS green label relaxing", "fascia": "ユナイテッドアローズ グリーンレーベル リラクシング", "category": null, "edit_date": "2025-03-04 14:31:33", "lat_lon_source": "website"}, "lat": "129.870889", "lon": "32.751674", "name": "ユナイテッドアローズ グリーンレーベル リラクシング  アミュプラザ長崎店", "opening_hours": {"Mon": "10:00-21:00", "Tue": "10:00-21:00", "Wed": "10:00-21:00", "Thur": "10:00-21:00", "Fri": "10:00-21:00", "Sat": "10:00-21:00", "Sun": "10:00-21:00"}, "phone": ["095-818-7270"], "postcode": "850-0058", "ref": "0597", "state": "長崎県", "website": "https://amu-n.co.jp/"},
{"addr_full": "熊本県熊本市中央区上通町2-2 <br>鶴屋New-S 1F", "brand": "UNITED ARROWS green label relaxing", "city": "中国・四国・九州", "country": "Japan", "extras": {"brand": "UNITED ARROWS green label relaxing", "fascia": "ユナイテッドアローズ グリーンレーベル リラクシング", "category": null, "edit_date": "2025-03-04 14:31:33", "lat_lon_source": "website"}, "lat": "130.711086", "lon": "32.803407", "name": "ユナイテッドアローズ　グリーンレーベル リラクシング 熊本鶴屋New-S店", "opening_hours": {"Mon": "10:30-20:00", "Tue": "10:30-20:00", "Wed": "10:30-20:00", "Thur": "10:30-20:00", "Fri": "10:30-20:00", "Sat": "10:30-20:00", "Sun": "10:30-20:00"}, "phone": ["096-312-6201"], "postcode": "860-0845", "ref": "0592", "state": "熊本県", "website": "https://www.tsuruya-new-s.com/"},
{"addr_full": "大分県大分市要町1番14号<br>アミュプラザおおいた2F", "brand": "UNITED ARROWS green label relaxing", "city": "中国・四国・九州", "country": "Japan", "extras": {"brand": "UNITED ARROWS green label relaxing", "fascia": "ユナイテッドアローズ グリーンレーベル リラクシング", "category": null, "edit_date": "2025-03-04 14:31:33", "lat_lon_source": "website"}, "lat": "131.60761010772", "lon": "33.2330575311337", "name": "ユナイテッドアローズ グリーンレーベル リラクシング アミュプラザおおいた店", "opening_hours": ["Mon-Thu 10:00-20:30<br>Fri/Sat/Sun/National holiday 10:00-21:00"], "phone": ["097-513-2880"], "postcode": "870-0831", "ref": "0594", "state": "大分県", "website": "https://www.jroitacity.jp/"},
{"addr_full": "鹿児島県鹿児島市中央町1-1<br>アミュプラザ鹿児島 プレミアム館3F", "brand": "UNITED ARROWS green label relaxing", "city": "中国・四国・九州", "country": "Japan", "extras": {"brand": "UNITED ARROWS green label relaxing", "fascia": "ユナイテッドアローズ グリーンレーベル リラクシング", "category": null, "edit_date": "2025-03-04 14:31:33", "lat_lon_source": "website"}, "lat": "130.54264", "lon": "31.58464", "name": "ユナイテッドアローズ グリーンレーベル リラクシング  アミュプラザ鹿児島店", "opening_hours": ["10:00-21:00<br><br>"], "phone": ["050-8893-4177"], "postcode": "890-0053", "ref": "0596", "state": "鹿児島県", "website": "https://amu.jrkagoshimacity.com/"},
{"addr_full": "台北市信義區松智路17號 微風南山 4F", "brand": "UNITED ARROWS green label relaxing", "city": "海外", "country": "Japan", "extras": {"brand": "UNITED ARROWS green label relaxing", "fascia": "ユナイテッドアローズ グリーンレーベル リラクシング", "category": null, "edit_date": "2025-03-04 14:31:33", "lat_lon_source": "website"}, "lat": "121.566522", "lon": "25.034631", "name": "ユナイテッドアローズ グリーンレーベル リラクシング 台北微風南山店", "opening_hours": ["Sun-Wed 11:00-21:30<br>Thu-Sat/the day before national holiday 11:00-22:00"], "phone": ["02-2722-8581"], "postcode": "", "ref": "0000", "state": "台湾", "website": "https://store.united-arrows.tw/"},
{"addr_full": "東京都千代田区有楽町1-9-4<br>蚕糸会館 1F", "brand": "DRAWER", "city": "関東", "country": "Japan", "extras": {"brand": "DRAWER", "fascia": "ドゥロワー", "category": null, "edit_date": "2025-03-04 14:31:33", "lat_lon_source": "website"}, "lat": "139.760948", "lon": "35.675121", "name": "ドゥロワー 丸の内店", "opening_hours": {"Mon": "11:00-20:00", "Tue": "11:00-20:00", "Wed": "11:00-20:00", "Thur": "11:00-20:00", "Fri": "11:00-20:00", "Sat": "11:00-20:00", "Sun": "11:00-20:00"}, "phone": ["050-8893-4169"], "postcode": "100-0006", "ref": "0660", "state": "東京都", "website": "https://www.instagram.com/drawerofficial/"},
{"addr_full": "東京都中央区日本橋2-5-1<br>日本橋髙島屋S.C. 新館 2F", "brand": "DRAWER", "city": "関東", "country": "Japan", "extras": {"brand": "DRAWER", "fascia": "ドゥロワー", "category": null, "edit_date": "2025-03-04 14:31:33", "lat_lon_source": "website"}, "lat": "139.774119", "lon": "35.681218", "name": "ドゥロワー 日本橋店", "opening_hours": {"Mon": "10:30-20:00", "Tue": "10:30-20:00", "Wed": "10:30-20:00", "Thur": "10:30-20:00", "Fri": "10:30-20:00", "Sat": "10:30-20:00", "Sun": "10:30-20:00"}, "phone": ["03-6214-1553"], "postcode": "103-6102", "ref": "0124", "state": "東京都", "website": "https://www.takashimaya.co.jp/nihombashi/"},
{"addr_full": "東京都港区南青山5-12-4 1F", "brand": "DRAWER", "city": "関東", "country": "Japan", "extras": {"brand": "DRAWER", "fascia": "ドゥロワー", "category": null, "edit_date": "2025-03-04 14:31:33", "lat_lon_source": "website"}, "lat": "139.713305", "lon": "35.661467", "name": "ドゥロワー 青山店", "opening_hours": {"Mon": "12:00-20:00", "Tue": "12:00-20:00", "Wed": "12:00-20:00", "Thur": "12:00-20:00", "Fri": "12:00-20:00", "Sat": "12:00-20:00", "Sun": "12:00-20:00"}, "phone": ["050-8893-4196"], "postcode": "107-0062", "ref": "0114", "state": "東京都", "website": "https://www.instagram.com/drawerofficial/"},
{"addr_full": "東京都港区赤坂9-7-4 <br/>東京ミッドタウン ガレリア 1F", "brand": "DRAWER", "city": "関東", "country": "Japan", "extras": {"brand": "DRAWER", "fascia": "ドゥロワー", "category": null, "edit_date": "2025-03-04 14:31:33", "lat_lon_source": "website"}, "lat": "139.730332837903", "lon": "35.6662049396727", "name": "ドゥロワー 六本木店", "opening_hours": {"Mon": "11:00-21:00", "Tue": "11:00-21:00", "Wed": "11:00-21:00", "Thur": "11:00-21:00", "Fri": "11:00-21:00", "Sat": "11:00-21:00", "Sun": "11:00-21:00"}, "phone": ["03-5786-4844"], "postcode": "107-0052", "ref": "0663", "state": "東京都", "website": "https://www.tokyo-midtown.com/jp/"},
{"addr_full": "東京都世田谷区玉川3-17-1 玉川高島屋S・C 本館 1F", "brand": "DRAWER", "city": "関東", "country": "Japan", "extras": {"brand": "DRAWER", "fascia": "ドゥロワー", "category": null, "edit_date": "2025-03-04 14:31:33", "lat_lon_source": "website"}, "lat": "139.626310720081", "lon": "35.6140052194348", "name": "ドゥロワー 二子玉川店", "opening_hours": {"Mon": "10:00-20:00", "Tue": "10:00-20:00", "Wed": "10:00-20:00", "Thur": "10:00-20:00", "Fri": "10:00-20:00", "Sat": "10:00-20:00", "Sun": "10:00-20:00"}, "phone": ["03-5797-5780"], "postcode": "158-0094", "ref": "0664", "state": "東京都", "website": "https://www.takashimaya.co.jp/tamagawa/sc/"},
{"addr_full": "愛知県名古屋市中村区名駅4-7-1 <br>ミッドランドスクエア 3F", "brand": "DRAWER", "city": "北陸・東海", "country": "Japan", "extras": {"brand": "DRAWER", "fascia": "ドゥロワー", "category": null, "edit_date": "2025-03-04 14:31:33", "lat_lon_source": "website"}, "lat": "136.885069385694", "lon": "35.1696117316611", "name": "ドゥロワー 名古屋店", "opening_hours": {"Mon": "11:00-20:00", "Tue": "11:00-20:00", "Wed": "11:00-20:00", "Thur": "11:00-20:00", "Fri": "11:00-20:00", "Sat": "11:00-20:00", "Sun": "11:00-20:00"}, "phone": ["050-8893-4154"], "postcode": "450-0002", "ref": "0661", "state": "愛知県", "website": "https://www.midland-square.com/"},
{"addr_full": "大阪府大阪市中央区南船場4-12-8<br>関西心斎橋ビル 1F", "brand": "DRAWER", "city": "関西", "country": "Japan", "extras": {"brand": "DRAWER", "fascia": "ドゥロワー", "category": null, "edit_date": "2025-03-04 14:31:33", "lat_lon_source": "website"}, "lat": "135.498721", "lon": "34.675506", "name": "ドゥロワー 心斎橋店", "opening_hours": ["Weekday 12:00-20:00<br>Sat/Sun/National holiday 11:00-20:00"], "phone": ["06-6121-8847"], "postcode": "542-0081", "ref": "0224", "state": "大阪府", "website": "https://www.instagram.com/drawerofficial/"},
{"addr_full": "大阪府大阪市北区大深町4-20 <br>グランフロント大阪 ショップ＆レストラン 南館 1F", "brand": "DRAWER", "city": "関西", "country": "Japan", "extras": {"brand": "DRAWER", "fascia": "ドゥロワー", "category": null, "edit_date": "2025-03-04 14:31:33", "lat_lon_source": "website"}, "lat": "135.494790261141", "lon": "34.703911269034", "name": "ドゥロワー 梅田店", "opening_hours": {"Mon": "10:00-21:00", "Tue": "10:00-21:00", "Wed": "10:00-21:00", "Thur": "10:00-21:00", "Fri": "10:00-21:00", "Sat": "10:00-21:00", "Sun": "10:00-21:00"}, "phone": ["050-8893-4209"], "postcode": "530-0011", "ref": "0662", "state": "大阪府", "website": "https://www.gfo-sc.jp/"},
{"addr_full": "福岡県福岡市中央区天神2-4-15<br>プリオ天神ビル 1F", "brand": "DRAWER", "city": "中国・四国・九州", "country": "Japan", "extras": {"brand": "DRAWER", "fascia": "ドゥロワー", "category": null, "edit_date": "2025-03-04 14:31:33", "lat_lon_source": "website"}, "lat": "130.397484", "lon": "33.587171", "name": "ドゥロワー 福岡店", "opening_hours": ["Weekday 12:00-20:00<br>Sat/Sun/National holiday 11:00-20:00"], "phone": ["092-739-3900"], "postcode": "810-0001", "ref": "0374", "state": "福岡県", "website": "https://www.instagram.com/drawerofficial/"},
{"addr_full": "東京都中央区日本橋室町1-4-1 <br>日本橋三越本店 新館2F", "brand": "BLAMINK", "city": "関東", "country": "Japan", "extras": {"brand": "BLAMINK", "fascia": "ブラミンク", "category": null, "edit_date": "2025-03-04 14:31:33", "lat_lon_source": "website"}, "lat": "139.774226", "lon": "35.68504", "name": "ブラミンク 日本橋三越", "opening_hours": {"Mon": "10:00-19:00", "Tue": "10:00-19:00", "Wed": "10:00-19:00", "Thur": "10:00-19:00", "Fri": "10:00-19:00", "Sat": "10:00-19:00", "Sun": "10:00-19:00"}, "phone": ["03-3548-8660"], "postcode": "103-8001", "ref": "9501", "state": "東京都", "website": "https://www.mitsukoshi.mistore.jp/nihombashi.html"},
{"addr_full": "東京都港区南青山6-3-16", "brand": "BLAMINK", "city": "関東", "country": "Japan", "extras": {"brand": "BLAMINK", "fascia": "ブラミンク", "category": null, "edit_date": "2025-03-04 14:31:33", "lat_lon_source": "website"}, "lat": "139.716265", "lon": "35.660963", "name": "ブラミンク トーキョー", "opening_hours": ["Mon-Fri 12:00-20:00<br>Sat/Sun/National holiday 11:00-20:00"], "phone": ["03-5774-9899"], "postcode": "107-0062", "ref": "9500", "state": "東京都", "website": "https://www.instagram.com/blamink.official/"},
{"addr_full": "大阪府大阪市北区角田町8番7号<br>阪急うめだ本店 6F", "brand": "BLAMINK", "city": "関西", "country": "Japan", "extras": {"brand": "BLAMINK", "fascia": "ブラミンク", "category": null, "edit_date": "2025-03-04 14:31:33", "lat_lon_source": "website"}, "lat": "135.498279677122", "lon": "34.7031270507122", "name": "ブラミンク 梅田阪急", "opening_hours": ["Mon-Thu/Sun 10:00-20:00<br>Fri/Sat holiday 10:00-21:00"], "phone": ["06-6313-7292"], "postcode": "530-8350", "ref": "9503", "state": "大阪府", "website": "https://www.hankyu-dept.co.jp/"},
{"addr_full": "東京都港区南青山3-14-17", "brand": "H BEAUTY＆YOUTH", "city": "関東", "country": "Japan", "extras": {"brand": "H BEAUTY＆YOUTH", "fascia": "エイチ ビューティー＆ユース", "category": null, "edit_date": "2025-03-04 14:31:33", "lat_lon_source": "website"}, "lat": "139.714737", "lon": "35.664787", "name": "エイチ ビューティー＆ユース", "opening_hours": {"Mon": "11:00-20:00", "Tue": "11:00-20:00", "Wed": "11:00-20:00", "Thur": "11:00-20:00", "Fri": "11:00-20:00", "Sat": "11:00-20:00", "Sun": "11:00-20:00"}, "phone": ["050-8890-9491"], "postcode": "107-0062", "ref": "2100", "state": "東京都", "website": "https://www.instagram.com/h_beautyandyouth"},
{"addr_full": "東京都渋谷区神宮前3-28-1 ユナイテッドアローズ 原宿本店 メンズ館 1F", "brand": "UNITED ARROWS & SONS", "city": "関東", "country": "Japan", "extras": {"brand": "UNITED ARROWS & SONS", "fascia": "ユナイテッドアローズ＆サンズ", "category": null, "edit_date": "2025-03-04 14:31:33", "lat_lon_source": "website"}, "lat": "139.709483571555", "lon": "35.6720428429159", "name": "ユナイテッドアローズ＆サンズ", "opening_hours": [""], "phone": [], "postcode": "150-0001", "ref": "100_sons", "state": "東京都", "website": "https://www.instagram.com/unitedarrowsandsons/"},
{"addr_full": "東京都港区南青山3-14-17 B1", "brand": "6（ROKU）", "city": "関東", "country": "Japan", "extras": {"brand": "6（ROKU）", "fascia": "ロク", "category": null, "edit_date": "2025-03-04 14:31:33", "lat_lon_source": "website"}, "lat": "139.714641496755", "lon": "35.6648083952784", "name": "ロク アオヤマ", "opening_hours": [""], "phone": ["03-5413-6615"], "postcode": "107-0062", "ref": "0116", "state": "東京都", "website": "https://www.instagram.com/6______roku/"},
{"addr_full": "東京都新宿区新宿4-1-6 <br>NEWoMan SHINJUKU M2F", "brand": "6（ROKU）", "city": "関東", "country": "Japan", "extras": {"brand": "6（ROKU）", "fascia": "ロク", "category": null, "edit_date": "2025-03-04 14:31:33", "lat_lon_source": "website"}, "lat": "139.701976071787", "lon": "35.6886218105389", "name": "ロク シンジュク", "opening_hours": ["Weekday 11:00-21:30<br>Sat/Sun/National holiday 11:00-21:00"], "phone": ["03-5361-6130"], "postcode": "160-0022", "ref": "0143", "state": "東京都", "website": "https://www.newoman.jp/"},
{"addr_full": "愛知県名古屋市中区栄3-6-1 <br>ラシック 2F", "brand": "6（ROKU）", "city": "北陸・東海", "country": "Japan", "extras": {"brand": "6（ROKU）", "fascia": "ロク", "category": null, "edit_date": "2025-03-04 14:31:33", "lat_lon_source": "website"}, "lat": "136.907580853741", "lon": "35.1674289498756", "name": "ロク ナゴヤ", "opening_hours": {"Mon": "11:00-21:00", "Tue": "11:00-21:00", "Wed": "11:00-21:00", "Thur": "11:00-21:00", "Fri": "11:00-21:00", "Sat": "11:00-21:00", "Sun": "11:00-21:00"}, "phone": ["052-249-3766"], "postcode": "460-0008", "ref": "0333", "state": "愛知県", "website": "https://www.lachic.jp/nagoya.html"},
{"addr_full": "大阪府大阪市北区梅田3-1-3 <br>ルクア 2F", "brand": "6（ROKU）", "city": "関西", "country": "Japan", "extras": {"brand": "6（ROKU）", "fascia": "ロク", "category": null, "edit_date": "2025-03-04 14:31:33", "lat_lon_source": "website"}, "lat": "135.495774125502", "lon": "34.7030354031638", "name": "ロク オオサカ", "opening_hours": {"Mon": "10:30-20:30", "Tue": "10:30-20:30", "Wed": "10:30-20:30", "Thur": "10:30-20:30", "Fri": "10:30-20:30", "Sat": "10:30-20:30", "Sun": "10:30-20:30"}, "phone": ["06-6341-7701"], "postcode": "530-8217", "ref": "0236", "state": "大阪府", "website": "https://www.lucua.jp/"},
{"addr_full": "東京都新宿区新宿3-38-2<br>ルミネ新宿 ルミネ2 2F", "brand": "ATTISESSION", "city": "関東", "country": "Japan", "extras": {"brand": "ATTISESSION", "fascia": "アティセッション", "category": null, "edit_date": "2025-03-04 14:31:33", "lat_lon_source": "website"}, "lat": "139.701085267471", "lon": "35.6899100349223", "name": "ATTISESSION 新宿店", "opening_hours": ["11:00 - 21:00"], "phone": ["050-8893-3324"], "postcode": "160-0022", "ref": "0131", "state": "東京都", "website": "https://www.lumine.ne.jp/shinjuku/"},
{"addr_full": "大阪府大阪市北区梅田3-1-3 ルクア 2F", "brand": "ATTISESSION", "city": "関西", "country": "Japan", "extras": {"brand": "ATTISESSION", "fascia": "アティセッション", "category": null, "edit_date": "2025-03-04 14:31:33", "lat_lon_source": "website"}, "lat": "135.4952297012451", "lon": "34.70288878139613", "name": "ATTISESSION 大阪店", "opening_hours": ["10:30 - 20:30"], "phone": ["050-8893-9251"], "postcode": "530-8217", "ref": "0226", "state": "大阪府", "website": "https://www.lucua.jp/"},
{"addr_full": "東京都千代田区有楽町2-5-1 ルミネ有楽町店 ルミネ2 4F", "brand": "STEVEN ALAN", "city": "関東", "country": "Japan", "extras": {"brand": "STEVEN ALAN", "fascia": "スティーブン アラン", "category": null, "edit_date": "2025-03-04 14:31:33", "lat_lon_source": "website"}, "lat": "139.7634665724513", "lon": "35.673500149497585", "name": "スティーブン アラン ユウラクチョウ（2025年3月10日オープン予定）", "opening_hours": ["Weekday 11:00-21:00<br>"], "phone": [], "postcode": "100-0006", "ref": "0148", "state": "東京都", "website": "https://www.lumine.ne.jp/yurakucho/"},
{"addr_full": "東京都新宿区新宿3-38-2 <br>ルミネ新宿店 ルミネ2 3F", "brand": "STEVEN ALAN", "city": "関東", "country": "Japan", "extras": {"brand": "STEVEN ALAN", "fascia": "スティーブン アラン", "category": null, "edit_date": "2025-03-04 14:31:33", "lat_lon_source": "website"}, "lat": "139.701237", "lon": "35.6894861754321", "name": "スティーブン アラン シンジュク", "opening_hours": ["Weekday 11:00-21:30<br>Sat/Sun/National holiday 10:30-21:30"], "phone": ["03-5321-9970"], "postcode": "160-0022", "ref": "0138", "state": "東京都", "website": "https://www.lumine.ne.jp/shinjuku/"},
{"addr_full": "東京都世田谷区玉川2-21-1 <br>二子玉川ライズ S.C. タウンフロント 2F", "brand": "STEVEN ALAN", "city": "関東", "country": "Japan", "extras": {"brand": "STEVEN ALAN", "fascia": "スティーブン アラン", "category": null, "edit_date": "2025-03-04 14:31:33", "lat_lon_source": "website"}, "lat": "139.628717296753", "lon": "35.6121877492193", "name": "スティーブン アラン フタコタマガワ", "opening_hours": {"Mon": "10:00-21:00", "Tue": "10:00-21:00", "Wed": "10:00-21:00", "Thur": "10:00-21:00", "Fri": "10:00-21:00", "Sat": "10:00-21:00", "Sun": "10:00-21:00"}, "phone": ["03-5491-7511"], "postcode": "158-0094", "ref": "0153", "state": "東京都", "website": "https://www.rise.sc/"},
{"addr_full": "神奈川県横浜市西区南幸1-1-1<br/>NEWoMan YOKOHAMA 6F", "brand": "STEVEN ALAN", "city": "関東", "country": "Japan", "extras": {"brand": "STEVEN ALAN", "fascia": "スティーブン アラン", "category": null, "edit_date": "2025-03-04 14:31:33", "lat_lon_source": "website"}, "lat": "139.623013426196", "lon": "35.4671561875256", "name": "スティーブン アラン ヨコハマ", "opening_hours": ["Weekday 11:00-20:00<br>Sat/Sun/National holiday 11:00-19:00"], "phone": ["045-290-0081"], "postcode": "220-0005", "ref": "0178", "state": "神奈川県", "website": "https://www.newoman.jp/yokohama/"},
{"addr_full": "大阪府大阪市北区大深町4-20 <br>グランフロント大阪 ショップ＆レストラン 南館 3F", "brand": "STEVEN ALAN", "city": "関西", "country": "Japan", "extras": {"brand": "STEVEN ALAN", "fascia": "スティーブン アラン", "category": null, "edit_date": "2025-03-04 14:31:33", "lat_lon_source": "website"}, "lat": "135.494501546373", "lon": "34.7041017347547", "name": "スティーブン アラン オオサカ", "opening_hours": {"Mon": "10:00-21:00", "Tue": "10:00-21:00", "Wed": "10:00-21:00", "Thur": "10:00-21:00", "Fri": "10:00-21:00", "Sat": "10:00-21:00", "Sun": "10:00-21:00"}, "phone": ["06-6359-3883"], "postcode": "530-0011", "ref": "0228", "state": "大阪府", "website": "https://www.gfo-sc.jp/"},
{"addr_full": "東京都港区南青山5-10-5 1F", "brand": "conte", "city": "関東", "country": "Japan", "extras": {"brand": "conte", "fascia": "コンテ", "category": null, "edit_date": "2025-03-04 14:31:33", "lat_lon_source": "website"}, "lat": "139.711450359242", "lon": "35.6626226691575", "name": "conte 青山店", "opening_hours": ["Weekday 12:00-20:00<br>Sat/Sun/National holiday 11:00-19:00"], "phone": ["050-8893-3341"], "postcode": "107-0062", "ref": "2700", "state": "東京都", "website": "https://www.instagram.com/conte__official0906/"},
{"addr_full": "東京都新宿区西新宿1-1-5<br>ルミネ新宿 ルミネ1 2F", "brand": "conte", "city": "関東", "country": "Japan", "extras": {"brand": "conte", "fascia": "コンテ", "category": null, "edit_date": "2025-03-04 14:31:33", "lat_lon_source": "website"}, "lat": "139.69929025532", "lon": "35.6892044465497", "name": "conte 新宿店", "opening_hours": ["11:00 - 21:00"], "phone": ["050-8893-3350"], "postcode": "160-0023", "ref": "2701", "state": "東京都", "website": "https://www.lumine.ne.jp/shinjuku/"},
{"addr_full": "東京都新宿区新宿4-1-6 <br>NEWoMan SHINJUKU 2F<br>", "brand": "ASTRAET", "city": "関東", "country": "Japan", "extras": {"brand": "ASTRAET", "fascia": "アストラット", "category": null, "edit_date": "2025-03-04 14:31:33", "lat_lon_source": "website"}, "lat": "139.702060859976", "lon": "35.688645071005", "name": "アストラット 新宿店", "opening_hours": ["Weekday 11:00-21:30<br>Sat/Sun/National holiday 11:00-21:00"], "phone": ["03-5366-6560"], "postcode": "160-0022", "ref": "1301", "state": "東京都", "website": "https://www.newoman.jp/"},
{"addr_full": "東京都千代田区有楽町2-5-1<br>ルミネ有楽町店 ルミネ1 3F", "brand": "ODETTE E ODILE", "city": "関東", "country": "Japan", "extras": {"brand": "ODETTE E ODILE", "fascia": "オデット エ オディール", "category": null, "edit_date": "2025-03-04 14:31:33", "lat_lon_source": "website"}, "lat": "139.762922932338", "lon": "35.6734896983217", "name": "オデット エ オディール ルミネ有楽町店", "opening_hours": {"Mon": "11:00-21:00", "Tue": "11:00-21:00", "Wed": "11:00-21:00", "Thur": "11:00-21:00", "Fri": "11:00-21:00", "Sat": "11:00-21:00", "Sun": "11:00-21:00"}, "phone": ["050-8893-4171"], "postcode": "100-0006", "ref": "0616", "state": "東京都", "website": "https://www.lumine.ne.jp/yurakucho/"},
{"addr_full": "東京都新宿区西新宿1-1-5<br>ルミネ新宿 ルミネ1 3F<br>", "brand": "ODETTE E ODILE", "city": "関東", "country": "Japan", "extras": {"brand": "ODETTE E ODILE", "fascia": "オデット エ オディール", "category": null, "edit_date": "2025-03-04 14:31:33", "lat_lon_source": "website"}, "lat": "139.699273", "lon": "35.689143", "name": "オデット エ オディール 新宿店", "opening_hours": ["Weekday 11:00-21:30<br>Sat/Sun/National holiday 10:30-21:30"], "phone": ["050-8893-4165"], "postcode": "160-0023", "ref": "0600", "state": "東京都", "website": "https://www.lumine.ne.jp/shinjuku/"},
{"addr_full": "東京都新宿区新宿3丁目14-1　伊勢丹新宿本店本館2階婦人靴", "brand": "ODETTE E ODILE", "city": "関東", "country": "Japan", "extras": {"brand": "ODETTE E ODILE", "fascia": "オデット エ オディール", "category": null, "edit_date": "2025-03-04 14:31:33", "lat_lon_source": "website"}, "lat": "139.704693926816", "lon": "35.6917442566243", "name": "オデット エ オディール 新宿伊勢丹店", "opening_hours": ["10:00～20:00"], "phone": ["03-3352-1111"], "postcode": "160-0022", "ref": "0602", "state": "東京都", "website": "https://www.mistore.jp/store/shinjuku.html"},
{"addr_full": "東京都渋谷区渋谷2-21-1 <br>渋谷ヒカリエ ShinQs 3F", "brand": "ODETTE E ODILE", "city": "関東", "country": "Japan", "extras": {"brand": "ODETTE E ODILE", "fascia": "オデット エ オディール", "category": null, "edit_date": "2025-03-04 14:31:33", "lat_lon_source": "website"}, "lat": "139.703718456263", "lon": "35.6590052103973", "name": "オデット エ オディール 渋谷シンクス店", "opening_hours": {"Mon": "10:00-21:00", "Tue": "10:00-21:00", "Wed": "10:00-21:00", "Thur": "10:00-21:00", "Fri": "10:00-21:00", "Sat": "10:00-21:00", "Sun": "10:00-21:00"}, "phone": ["050-8893-4167"], "postcode": "150-8509", "ref": "0606", "state": "東京都", "website": "https://www.tokyu-dept.co.jp/shinqs/"},
{"addr_full": "神奈川県横浜市西区高島2-16-1<br>ルミネ横浜 3F", "brand": "ODETTE E ODILE", "city": "関東", "country": "Japan", "extras": {"brand": "ODETTE E ODILE", "fascia": "オデット エ オディール", "category": null, "edit_date": "2025-03-04 14:31:33", "lat_lon_source": "website"}, "lat": "139.622744", "lon": "35.465205", "name": "オデット エ オディール 横浜店", "opening_hours": ["Weekday 10:00-21:00<br>Sat/Sun/National holiday 10:00-20:30"], "phone": ["045-444-0650"], "postcode": "220-0011", "ref": "0610", "state": "神奈川県", "website": "https://www.lumine.ne.jp/yokohama/"},
{"addr_full": "北海道札幌市中央区北5条西2・3丁目<br>札幌ステラプレイス／センター 2F", "brand": "ODETTE E ODILE", "city": "北海道・東北", "country": "Japan", "extras": {"brand": "ODETTE E ODILE", "fascia": "オデット エ オディール", "category": null, "edit_date": "2025-03-04 14:31:33", "lat_lon_source": "website"}, "lat": "141.351380614924", "lon": "43.067997560574", "name": "オデット エ オディール 札幌店", "opening_hours": {"Mon": "10:00-21:00", "Tue": "10:00-21:00", "Wed": "10:00-21:00", "Thur": "10:00-21:00", "Fri": "10:00-21:00", "Sat": "10:00-21:00", "Sun": "10:00-21:00"}, "phone": ["050-8893-4175"], "postcode": "060-0005", "ref": "0621", "state": "北海道", "website": "https://www.stellarplace.net/"},
{"addr_full": "愛知県名古屋市中村区名駅1-1-3 <br>タカシマヤ ゲートタワーモール 3F", "brand": "ODETTE E ODILE", "city": "北陸・東海", "country": "Japan", "extras": {"brand": "ODETTE E ODILE", "fascia": "オデット エ オディール", "category": null, "edit_date": "2025-03-04 14:31:33", "lat_lon_source": "website"}, "lat": "136.88253146961", "lon": "35.1724016118182", "name": "オデット エ オディール 名古屋タカシマヤ ゲートタワーモール店", "opening_hours": {"Mon": "10:00-21:00", "Tue": "10:00-21:00", "Wed": "10:00-21:00", "Thur": "10:00-21:00", "Fri": "10:00-21:00", "Sat": "10:00-21:00", "Sun": "10:00-21:00"}, "phone": ["052-589-8187"], "postcode": "450-6603", "ref": "0620", "state": "愛知県", "website": "https://www.jr-tgm.com/"},
{"addr_full": "東京都港区北青山3-6-12 東京メトロ表参道駅構内 Echika表参道", "brand": "CITEN", "city": "関東", "country": "Japan", "extras": {"brand": "CITEN", "fascia": "シテン", "category": null, "edit_date": "2025-03-04 14:31:33", "lat_lon_source": "website"}, "lat": "139.711867262498", "lon": "35.6655178459107", "name": "シテン ユナイテッドアローズ Echika表参道リミテッドストア", "opening_hours": ["WEEKDAY/SATURDAY 10:00-21:00<br>SUNDAY/HOLIDAY 10:00-20:00"], "phone": ["070-1442-1059"], "postcode": "107-0061", "ref": "1050", "state": "東京都", "website": "https://www.echika-echikafit.com/omotesando"},
{"addr_full": "東京都新宿区新宿3-38-2 ルミネ新宿 ルミネ2 4F", "brand": "CITEN", "city": "関東", "country": "Japan", "extras": {"brand": "CITEN", "fascia": "シテン", "category": null, "edit_date": "2025-03-04 14:31:33", "lat_lon_source": "website"}, "lat": "139.701040734099", "lon": "35.6896671266236", "name": "シテン ユナイテッドアローズ 新宿ストア", "opening_hours": {"Mon": "11:00-21:00", "Tue": "11:00-21:00", "Wed": "11:00-21:00", "Thur": "11:00-21:00", "Fri": "11:00-21:00", "Sat": "11:00-21:00", "Sun": "11:00-21:00"}, "phone": ["03-5325-5015"], "postcode": "160-0022", "ref": "2570", "state": "東京都", "website": "https://www.lumine.ne.jp/shinjuku/"},
{"addr_full": "東京都江東区青海1-1-10 ダイバーシティ東京 プラザ 3F", "brand": "CITEN", "city": "関東", "country": "Japan", "extras": {"brand": "CITEN", "fascia": "シテン", "category": null, "edit_date": "2025-03-04 14:31:33", "lat_lon_source": "website"}, "lat": "139.775899620856", "lon": "35.6253687382526", "name": "シテン ユナイテッドアローズ お台場リミテッドストア", "opening_hours": ["WEEKDAY 11:00-20:00WEEKEND/HOLYDAY 10:00-21:00。"], "phone": ["070-1270-2537"], "postcode": "135-0064", "ref": "1051", "state": "東京都", "website": "https://mitsui-shopping-park.com/divercity-tokyo/"},
{"addr_full": "東京都豊島区西池袋1-11-1 ルミネ池袋 6F", "brand": "CITEN", "city": "関東", "country": "Japan", "extras": {"brand": "CITEN", "fascia": "シテン", "category": null, "edit_date": "2025-03-04 14:31:33", "lat_lon_source": "website"}, "lat": "139.70968973068327", "lon": "35.72912021688148", "name": "シテン ユナイテッドアローズ ルミネ池袋店（2025年3月5日オープン予定）", "opening_hours": ["WEEKDAY 11:00 - 21:00"], "phone": ["050-8893-9256"], "postcode": "171-0021", "ref": "2571", "state": "東京都", "website": "https://www.lumine.ne.jp/ikebukuro/"},
{"addr_full": "東京都立川市泉町935-1 ららぽーと立川立飛 2F", "brand": "CITEN", "city": "関東", "country": "Japan", "extras": {"brand": "CITEN", "fascia": "シテン", "category": null, "edit_date": "2025-03-04 14:31:33", "lat_lon_source": "website"}, "lat": "139.41853961754", "lon": "35.7135702434787", "name": "シテン ユナイテッドアローズ 立川立飛店", "opening_hours": ["weekday 10:00-20:00weekend / holiday 10:00-21:00"], "phone": ["042-540-3165"], "postcode": "190-0015", "ref": "2501", "state": "東京都", "website": "https://mitsui-shopping-park.com/lalaport/tachikawa/"},
{"addr_full": "埼玉県富士見市山室1-1313 ららぽーと富士見 1F", "brand": "CITEN", "city": "関東", "country": "Japan", "extras": {"brand": "CITEN", "fascia": "シテン", "category": null, "edit_date": "2025-03-04 14:31:33", "lat_lon_source": "website"}, "lat": "139.548567272829", "lon": "35.8600011203271", "name": "シテン ユナイテッドアローズ 富士見店", "opening_hours": ["10:00～21:00"], "phone": ["049-268-3500"], "postcode": "354-8560", "ref": "2505", "state": "埼玉県", "website": "https://mitsui-shopping-park.com/lalaport/fujimi/"},
{"addr_full": "埼玉県所沢市東住吉10-1 エミテラス所沢 2F", "brand": "CITEN", "city": "関東", "country": "Japan", "extras": {"brand": "CITEN", "fascia": "シテン", "category": null, "edit_date": "2025-03-04 14:31:33", "lat_lon_source": "website"}, "lat": "139.470999114119", "lon": "35.7854182608217", "name": "シテン ユナイテッドアローズ 所沢店", "opening_hours": ["10:00 - 21:00"], "phone": ["050-8893-3339"], "postcode": "359-1124", "ref": "2506", "state": "埼玉県", "website": "https://et-ge-tokorozawa.com/emiterrace/"},
{"addr_full": "千葉県柏市若柴175 ららぽーと柏の葉 2F", "brand": "CITEN", "city": "関東", "country": "Japan", "extras": {"brand": "CITEN", "fascia": "シテン", "category": null, "edit_date": "2025-03-04 14:31:33", "lat_lon_source": "website"}, "lat": "139.950759932904", "lon": "35.8934106478491", "name": "シテン ユナイテッドアローズ 柏の葉店", "opening_hours": {"Mon": "10:00-21:00", "Tue": "10:00-21:00", "Wed": "10:00-21:00", "Thur": "10:00-21:00", "Fri": "10:00-21:00", "Sat": "10:00-21:00", "Sun": "10:00-21:00"}, "phone": ["04-7131-1530"], "postcode": "277-8518", "ref": "2504", "state": "千葉県", "website": "https://mitsui-shopping-park.com/lalaport/kashiwa/"},
{"addr_full": "千葉県船橋市浜町2-1-1 ららぽーとTOKYO-BAY 北館 1F", "brand": "CITEN", "city": "関東", "country": "Japan", "extras": {"brand": "CITEN", "fascia": "シテン", "category": null, "edit_date": "2025-03-04 14:31:33", "lat_lon_source": "website"}, "lat": "139.98936201263", "lon": "35.6866535368078", "name": "シテン ユナイテッドアローズ 船橋リミテッドストア", "opening_hours": ["WEEKDAY 10:00～20:00<br>WEEKEND/HOLIDAY 10:00～21:00"], "phone": ["047-420-8111"], "postcode": "273-8530", "ref": "2507", "state": "千葉県", "website": "https://mitsui-shopping-park.com/lalaport/tokyo-bay/"},
{"addr_full": "神奈川県平塚市天沼10-1 ららぽ-と湘南平塚 2F", "brand": "CITEN", "city": "関東", "country": "Japan", "extras": {"brand": "CITEN", "fascia": "シテン", "category": null, "edit_date": "2025-03-04 14:31:33", "lat_lon_source": "website"}, "lat": "139.355100248893", "lon": "35.3368868397555", "name": "シテン ユナイテッドアローズ 湘南平塚店", "opening_hours": {"Mon": "10:00-21:00", "Tue": "10:00-21:00", "Wed": "10:00-21:00", "Thur": "10:00-21:00", "Fri": "10:00-21:00", "Sat": "10:00-21:00", "Sun": "10:00-21:00"}, "phone": [], "postcode": "254-8510", "ref": "2502", "state": "神奈川県", "website": "https://mitsui-shopping-park.com/lalaport/hiratsuka/"},
{"addr_full": "神奈川県海老名市扇町13-1 ららぽーと海老名 2F", "brand": "CITEN", "city": "関東", "country": "Japan", "extras": {"brand": "CITEN", "fascia": "シテン", "category": null, "edit_date": "2025-03-04 14:31:33", "lat_lon_source": "website"}, "lat": "139.389317754917", "lon": "35.4557039139981", "name": "シテン ユナイテッドアローズ 海老名店", "opening_hours": ["weekday 10:00-20:00weekend / holiday 10:00-21:00"], "phone": ["046-236-0125"], "postcode": "243-0482", "ref": "2503", "state": "神奈川県", "website": "https://mitsui-shopping-park.com/lalaport/ebina/"},
{"addr_full": "神奈川県横浜市西区高島2-16-1 ルミネ横浜 5F        ", "brand": "CITEN", "city": "関東", "country": "Japan", "extras": {"brand": "CITEN", "fascia": "シテン", "category": null, "edit_date": "2025-03-04 14:31:33", "lat_lon_source": "website"}, "lat": "139.62292088325503", "lon": "35.46556265277576", "name": "シテン ユナイテッドアローズ ルミネ横浜店（2025年3月6日オープン予定）", "opening_hours": ["weekday 10:00-21:00<br>weekend / holiday 10:00-20:30"], "phone": [], "postcode": "220-0011", "ref": "2572", "state": "神奈川県", "website": "https://www.lumine.ne.jp/yokohama/"},
{"addr_full": "神奈川県藤沢市鵠沼海岸1-2-17", "brand": "California General Store", "city": "関東", "country": "Japan", "extras": {"brand": "California General Store", "fascia": "カリフォルニア ジェネラルストア", "category": null, "edit_date": "2025-03-04 14:31:33", "lat_lon_source": "website"}, "lat": "139.476636226396", "lon": "35.3139676207378", "name": "カリフォルニア ジェネラルストア", "opening_hours": ["10:00 - 18:00"], "phone": [], "postcode": "251-0037", "ref": "2150", "state": "神奈川県", "website": "https://www.instagram.com/california_general_store/"},
{"addr_full": "東京都八王子市南大沢1-600<br>三井アウトレットパーク 多摩南大沢 ＃159", "brand": "UNITED ARROWS OUTLET", "city": "関東", "country": "Japan", "extras": {"brand": "UNITED ARROWS OUTLET", "fascia": "ユナイテッドアローズ アウトレット", "category": null, "edit_date": "2025-03-04 14:31:33", "lat_lon_source": "website"}, "lat": "139.376994725406", "lon": "35.6144420534156", "name": "ユナイテッドアローズ アウトレット 南大沢店", "opening_hours": {"Mon": "10:00-20:00", "Tue": "10:00-20:00", "Wed": "10:00-20:00", "Thur": "10:00-20:00", "Fri": "10:00-20:00", "Sat": "10:00-20:00", "Sun": "10:00-20:00"}, "phone": ["042-670-5026"], "postcode": "192-0364", "ref": "0720", "state": "東京都", "website": "https://mitsui-shopping-park.com/mop/tama/"},
{"addr_full": "東京都町田市鶴間3-4-1 <br>グランベリーパーク I103", "brand": "UNITED ARROWS OUTLET", "city": "関東", "country": "Japan", "extras": {"brand": "UNITED ARROWS OUTLET", "fascia": "ユナイテッドアローズ アウトレット", "category": null, "edit_date": "2025-03-04 14:31:33", "lat_lon_source": "website"}, "lat": "139.470997566152", "lon": "35.51030819071", "name": "ユナイテッドアローズ アウトレット 南町田店", "opening_hours": {"Mon": "10:00-20:00", "Tue": "10:00-20:00", "Wed": "10:00-20:00", "Thur": "10:00-20:00", "Fri": "10:00-20:00", "Sat": "10:00-20:00", "Sun": "10:00-20:00"}, "phone": ["042-788-1530"], "postcode": "194-8589", "ref": "0725", "state": "東京都", "website": "https://gbp.minamimachida-grandberrypark.com/"},
{"addr_full": "栃木県佐野市越名町2058<br>佐野プレミアム・アウトレット 735", "brand": "UNITED ARROWS OUTLET", "city": "関東", "country": "Japan", "extras": {"brand": "UNITED ARROWS OUTLET", "fascia": "ユナイテッドアローズ アウトレット", "category": null, "edit_date": "2025-03-04 14:31:33", "lat_lon_source": "website"}, "lat": "139.604240061194", "lon": "36.2934679475443", "name": "ユナイテッドアローズ アウトレット 佐野店", "opening_hours": {"Mon": "10:00-20:00", "Tue": "10:00-20:00", "Wed": "10:00-20:00", "Thur": "10:00-20:00", "Fri": "10:00-20:00", "Sat": "10:00-20:00", "Sun": "10:00-20:00"}, "phone": [], "postcode": "327-0822", "ref": "0730", "state": "栃木県", "website": "https://www.premiumoutlets.co.jp/sano/"},
{"addr_full": "埼玉県入間市宮寺3169-1<br>三井アウトレットパーク 入間 1F 1170区画", "brand": "UNITED ARROWS OUTLET", "city": "関東", "country": "Japan", "extras": {"brand": "UNITED ARROWS OUTLET", "fascia": "ユナイテッドアローズ アウトレット", "category": null, "edit_date": "2025-03-04 14:31:33", "lat_lon_source": "website"}, "lat": "139.380295677776", "lon": "35.8099138419928", "name": "ユナイテッドアローズ アウトレット シュー ストック 入間店", "opening_hours": {"Mon": "10:00-20:00", "Tue": "10:00-20:00", "Wed": "10:00-20:00", "Thur": "10:00-20:00", "Fri": "10:00-20:00", "Sat": "10:00-20:00", "Sun": "10:00-20:00"}, "phone": ["04-2934-1070"], "postcode": "358-8515", "ref": "0714", "state": "埼玉県", "website": "https://mitsui-shopping-park.com/mop/iruma/"},
{"addr_full": "埼玉県入間市宮寺3169-1 <br>三井アウトレットパーク 入間 1F 1108区画", "brand": "UNITED ARROWS OUTLET", "city": "関東", "country": "Japan", "extras": {"brand": "UNITED ARROWS OUTLET", "fascia": "ユナイテッドアローズ アウトレット", "category": null, "edit_date": "2025-03-04 14:31:33", "lat_lon_source": "website"}, "lat": "139.380035584426", "lon": "35.8095761514244", "name": "ユナイテッドアローズ アウトレット 入間店", "opening_hours": {"Mon": "10:00-20:00", "Tue": "10:00-20:00", "Wed": "10:00-20:00", "Thur": "10:00-20:00", "Fri": "10:00-20:00", "Sat": "10:00-20:00", "Sun": "10:00-20:00"}, "phone": ["04-2935-1781"], "postcode": "358-8515", "ref": "0715", "state": "埼玉県", "website": "https://mitsui-shopping-park.com/mop/iruma/"},
{"addr_full": "埼玉県越谷市レイクタウン4-1-1 <br>レイクタウンアウトレット 1F", "brand": "UNITED ARROWS OUTLET", "city": "関東", "country": "Japan", "extras": {"brand": "UNITED ARROWS OUTLET", "fascia": "ユナイテッドアローズ アウトレット", "category": null, "edit_date": "2025-03-04 14:31:33", "lat_lon_source": "website"}, "lat": "139.825019214633", "lon": "35.88077147328", "name": "ユナイテッドアローズ アウトレット 越谷店", "opening_hours": {"Mon": "10:00-20:00", "Tue": "10:00-20:00", "Wed": "10:00-20:00", "Thur": "10:00-20:00", "Fri": "10:00-20:00", "Sat": "10:00-20:00", "Sun": "10:00-20:00"}, "phone": ["050-8886-8944"], "postcode": "343-0828", "ref": "0716", "state": "埼玉県", "website": "https://laketown-outlet.jp/"},
{"addr_full": "埼玉県深谷市花園1番地 ふかや花園プレミアム・アウトレット 2240区", "brand": "UNITED ARROWS OUTLET", "city": "関東", "country": "Japan", "extras": {"brand": "UNITED ARROWS OUTLET", "fascia": "ユナイテッドアローズ アウトレット", "category": null, "edit_date": "2025-03-04 14:31:33", "lat_lon_source": "website"}, "lat": "139.249427803718", "lon": "36.1331184317079", "name": "ユナイテッドアローズ アウトレット ふかや花園店", "opening_hours": ["10:00～20:00"], "phone": ["048-584-7588"], "postcode": "369-1248", "ref": "0718", "state": "埼玉県", "website": "https://www.premiumoutlets.co.jp/fukayahanazono/"},
{"addr_full": "千葉県千葉市美浜区ひび野2-8<br>三井アウトレットパーク 幕張 3060", "brand": "UNITED ARROWS OUTLET", "city": "関東", "country": "Japan", "extras": {"brand": "UNITED ARROWS OUTLET", "fascia": "ユナイテッドアローズ アウトレット", "category": null, "edit_date": "2025-03-04 14:31:33", "lat_lon_source": "website"}, "lat": "140.041736612584", "lon": "35.6466171151622", "name": "ユナイテッドアローズ アウトレット 幕張店", "opening_hours": {"Mon": "10:00-20:00", "Tue": "10:00-20:00", "Wed": "10:00-20:00", "Thur": "10:00-20:00", "Fri": "10:00-20:00", "Sat": "10:00-20:00", "Sun": "10:00-20:00"}, "phone": ["043-213-3670"], "postcode": "261-0021", "ref": "0710", "state": "千葉県", "website": "https://mitsui-shopping-park.com/mop/makuhari/"},
{"addr_full": "千葉県木更津市金田東3-1-1 <br>三井アウトレットパーク 木更津 1F", "brand": "UNITED ARROWS OUTLET", "city": "関東", "country": "Japan", "extras": {"brand": "UNITED ARROWS OUTLET", "fascia": "ユナイテッドアローズ アウトレット", "category": null, "edit_date": "2025-03-04 14:31:33", "lat_lon_source": "website"}, "lat": "139.937462147715", "lon": "35.4343599782889", "name": "ユナイテッドアローズ アウトレット 木更津店", "opening_hours": {"Mon": "10:00-20:00", "Tue": "10:00-20:00", "Wed": "10:00-20:00", "Thur": "10:00-20:00", "Fri": "10:00-20:00", "Sat": "10:00-20:00", "Sun": "10:00-20:00"}, "phone": ["050-8893-4173"], "postcode": "292-0009", "ref": "0711", "state": "千葉県", "website": "https://mitsui-shopping-park.com/mop/kisarazu/"},
{"addr_full": "千葉県印旛郡酒々井町飯積2-4-1 <br> 酒々井プレミアム・アウトレット 1500区", "brand": "UNITED ARROWS OUTLET", "city": "関東", "country": "Japan", "extras": {"brand": "UNITED ARROWS OUTLET", "fascia": "ユナイテッドアローズ アウトレット", "category": null, "edit_date": "2025-03-04 14:31:33", "lat_lon_source": "website"}, "lat": "140.293560262985", "lon": "35.7142197656646", "name": "ユナイテッドアローズ アウトレット 酒々井店", "opening_hours": ["Stores of goods 10:00～20:00／Restaurant 11:00～20:00"], "phone": ["050-8893-4174"], "postcode": "285-0912", "ref": "0712", "state": "千葉県", "website": "https://www.premiumoutlets.co.jp/shisui/"},
{"addr_full": "神奈川県横浜市金沢区白帆5-2<br>三井アウトレットパーク 横浜ベイサイド Aブロック 2F 11140", "brand": "UNITED ARROWS OUTLET", "city": "関東", "country": "Japan", "extras": {"brand": "UNITED ARROWS OUTLET", "fascia": "ユナイテッドアローズ アウトレット", "category": null, "edit_date": "2025-03-04 14:31:33", "lat_lon_source": "website"}, "lat": "139.646335", "lon": "35.379956", "name": "ユナイテッドアローズ アウトレット 横浜店", "opening_hours": {"Mon": "10:00-20:00", "Tue": "10:00-20:00", "Wed": "10:00-20:00", "Thur": "10:00-20:00", "Fri": "10:00-20:00", "Sat": "10:00-20:00", "Sun": "10:00-20:00"}, "phone": ["045-773-8770"], "postcode": "236-8666", "ref": "0700", "state": "神奈川県", "website": "https://mitsui-shopping-park.com/mop/yokohama/"},
{"addr_full": "北海道北広島市大曲幸町3-7-6<br>三井アウトレットパーク 札幌北広島", "brand": "UNITED ARROWS OUTLET", "city": "北海道・東北", "country": "Japan", "extras": {"brand": "UNITED ARROWS OUTLET", "fascia": "ユナイテッドアローズ アウトレット", "category": null, "edit_date": "2025-03-04 14:31:33", "lat_lon_source": "website"}, "lat": "141.471030416031", "lon": "42.9715362641362", "name": "ユナイテッドアローズ アウトレット 札幌北広島店", "opening_hours": {"Mon": "10:00-20:00", "Tue": "10:00-20:00", "Wed": "10:00-20:00", "Thur": "10:00-20:00", "Fri": "10:00-20:00", "Sat": "10:00-20:00", "Sun": "10:00-20:00"}, "phone": ["050-8893-4176"], "postcode": "061-1278", "ref": "0795", "state": "北海道", "website": "https://mitsui-shopping-park.com/mop/sapporo/"},
{"addr_full": "宮城県仙台市泉区寺岡6-1<br>仙台泉プレミアム･アウトレット 1100", "brand": "UNITED ARROWS OUTLET", "city": "北海道・東北", "country": "Japan", "extras": {"brand": "UNITED ARROWS OUTLET", "fascia": "ユナイテッドアローズ アウトレット", "category": null, "edit_date": "2025-03-04 14:31:33", "lat_lon_source": "website"}, "lat": "140.837259", "lon": "38.341546", "name": "ユナイテッドアローズ アウトレット 仙台店", "opening_hours": {"Mon": "10:00-20:00", "Tue": "10:00-20:00", "Wed": "10:00-20:00", "Thur": "10:00-20:00", "Fri": "10:00-20:00", "Sat": "10:00-20:00", "Sun": "10:00-20:00"}, "phone": ["050-8893-4182"], "postcode": "981-3204", "ref": "0780", "state": "宮城県", "website": "https://www.premiumoutlets.co.jp/sendaiizumi/"},
{"addr_full": "宮城県仙台市宮城野区中野3-7-2 <br>三井アウトレットパーク 仙台港 1170", "brand": "UNITED ARROWS OUTLET", "city": "北海道・東北", "country": "Japan", "extras": {"brand": "UNITED ARROWS OUTLET", "fascia": "ユナイテッドアローズ アウトレット", "category": null, "edit_date": "2025-03-04 14:31:33", "lat_lon_source": "website"}, "lat": "140.989016032874", "lon": "38.2748861159924", "name": "ユナイテッドアローズ アウトレット 仙台港店", "opening_hours": ["10:00-20:00<!--仙台港店 ストアブログ：<a href=\"http://store.united-arrows.co.jp/shop/olt/blog/stores/osk/\" target=\"_blank\">http://store.united-arrows.co.jp/shop/olt/blog/stores/osk/</a>-->"], "phone": ["022-388-5005"], "postcode": "983-0013", "ref": "0785", "state": "宮城県", "website": "https://mitsui-shopping-park.com/mop/sendai/"},
{"addr_full": "富山県小矢部市西中野972-1 <br>三井アウトレットパーク 北陸小矢部 1F", "brand": "UNITED ARROWS OUTLET", "city": "北陸・東海", "country": "Japan", "extras": {"brand": "UNITED ARROWS OUTLET", "fascia": "ユナイテッドアローズ アウトレット", "category": null, "edit_date": "2025-03-04 14:31:33", "lat_lon_source": "website"}, "lat": "136.8811691", "lon": "36.6891072", "name": "ユナイテッドアローズ アウトレット 北陸小矢部店", "opening_hours": {"Mon": "10:00-20:00", "Tue": "10:00-20:00", "Wed": "10:00-20:00", "Thur": "10:00-20:00", "Fri": "10:00-20:00", "Sat": "10:00-20:00", "Sun": "10:00-20:00"}, "phone": ["050-8893-4222"], "postcode": "932-8538", "ref": "0755", "state": "富山県", "website": "https://mitsui-shopping-park.com/mop/oyabe/"},
{"addr_full": "長野県北佐久郡軽井沢町軽井沢<br>軽井沢・プリンスショッピングプラザ・ニューイースト ガーデンモール NEG20", "brand": "UNITED ARROWS OUTLET", "city": "北陸・東海", "country": "Japan", "extras": {"brand": "UNITED ARROWS OUTLET", "fascia": "ユナイテッドアローズ アウトレット", "category": null, "edit_date": "2025-03-04 14:31:33", "lat_lon_source": "website"}, "lat": "138.636731996328", "lon": "36.339914280818", "name": "ユナイテッドアローズ アウトレット 軽井沢店", "opening_hours": ["<!--Weekday -->10:00-19:00<br><!--Sat/Sun/National holiday 10:00-20:00<br/>-->"], "phone": ["050-8886-8951"], "postcode": "389-0102", "ref": "0750", "state": "長野県", "website": "https://www.karuizawa-psp.jp/"},
{"addr_full": "岐阜県土岐市土岐ヶ丘1-2 2420区", "brand": "UNITED ARROWS OUTLET", "city": "北陸・東海", "country": "Japan", "extras": {"brand": "UNITED ARROWS OUTLET", "fascia": "ユナイテッドアローズ アウトレット", "category": null, "edit_date": "2025-03-04 14:31:33", "lat_lon_source": "website"}, "lat": "137.164304881411", "lon": "35.3400767479356", "name": "ユナイテッドアローズ アウトレット 土岐店", "opening_hours": {"Mon": "10:00-20:00", "Tue": "10:00-20:00", "Wed": "10:00-20:00", "Thur": "10:00-20:00", "Fri": "10:00-20:00", "Sat": "10:00-20:00", "Sun": "10:00-20:00"}, "phone": [], "postcode": "509-5127", "ref": "0741", "state": "岐阜県", "website": "https://www.premiumoutlets.co.jp/toki/"},
{"addr_full": "静岡県御殿場市深沢1312 <br>御殿場プレミアム・アウトレット 2800区", "brand": "UNITED ARROWS OUTLET", "city": "北陸・東海", "country": "Japan", "extras": {"brand": "UNITED ARROWS OUTLET", "fascia": "ユナイテッドアローズ アウトレット", "category": null, "edit_date": "2025-03-04 14:31:33", "lat_lon_source": "website"}, "lat": "138.968665075137", "lon": "35.3070808952514", "name": "ユナイテッドアローズ アウトレット 御殿場店", "opening_hours": ["Mar.-Nov.  10:00-20:00<br>Dec.-Feb.  10:00-19:00"], "phone": ["050-8893-4179"], "postcode": "412-0023", "ref": "0705", "state": "静岡県", "website": "https://www.premiumoutlets.co.jp/gotemba/"},
{"addr_full": "三重県桑名市長島町浦安368<br>三井アウトレットパーク ジャズドリーム長島 1151", "brand": "UNITED ARROWS OUTLET", "city": "北陸・東海", "country": "Japan", "extras": {"brand": "UNITED ARROWS OUTLET", "fascia": "ユナイテッドアローズ アウトレット", "category": null, "edit_date": "2025-03-04 14:31:33", "lat_lon_source": "website"}, "lat": "136.726011587537", "lon": "35.0298593713187", "name": "ユナイテッドアローズ アウトレット 長島店", "opening_hours": {"Mon": "10:00-20:00", "Tue": "10:00-20:00", "Wed": "10:00-20:00", "Thur": "10:00-20:00", "Fri": "10:00-20:00", "Sat": "10:00-20:00", "Sun": "10:00-20:00"}, "phone": [], "postcode": "511-1135", "ref": "0740", "state": "三重県", "website": "https://mitsui-shopping-park.com/mop/nagashima/"},
{"addr_full": "滋賀県蒲生郡竜王町大字薬師字砂山1178-694<br>三井アウトレットパーク 滋賀竜王<br><br><font color=\"red\">※ 改装のため、2025年1月21日(火)から2F仮店舗区画にて仮店舗営業いたします</font>", "brand": "UNITED ARROWS OUTLET", "city": "関西", "country": "Japan", "extras": {"brand": "UNITED ARROWS OUTLET", "fascia": "ユナイテッドアローズ アウトレット", "category": null, "edit_date": "2025-03-04 14:31:33", "lat_lon_source": "website"}, "lat": "136.098662128113", "lon": "35.0583695069687", "name": "ユナイテッドアローズ アウトレット 竜王店", "opening_hours": {"Mon": "10:00-20:00", "Tue": "10:00-20:00", "Wed": "10:00-20:00", "Thur": "10:00-20:00", "Fri": "10:00-20:00", "Sat": "10:00-20:00", "Sun": "10:00-20:00"}, "phone": ["050-8893-4213"], "postcode": "520-2551", "ref": "0745", "state": "滋賀県", "website": "https://mitsui-shopping-park.com/mop/shiga/"},
{"addr_full": "大阪府泉佐野市りんくう往来南3-28<br>りんくうプレミアム・アウトレット シーサイドエリア2F 7200区画", "brand": "UNITED ARROWS OUTLET", "city": "関西", "country": "Japan", "extras": {"brand": "UNITED ARROWS OUTLET", "fascia": "ユナイテッドアローズ アウトレット", "category": null, "edit_date": "2025-03-04 14:31:33", "lat_lon_source": "website"}, "lat": "135.295336388354", "lon": "34.4079543382703", "name": "ユナイテッドアローズ アウトレット りんくう店", "opening_hours": {"Mon": "10:00-20:00", "Tue": "10:00-20:00", "Wed": "10:00-20:00", "Thur": "10:00-20:00", "Fri": "10:00-20:00", "Sat": "10:00-20:00", "Sun": "10:00-20:00"}, "phone": ["050-8893-4151"], "postcode": "598-8508", "ref": "0760", "state": "大阪府", "website": "https://www.premiumoutlets.co.jp/rinku/"},
{"addr_full": "大阪府門真市松生町1-11 三井アウトレットパーク大阪門真 2F 22500", "brand": "UNITED ARROWS OUTLET", "city": "関西", "country": "Japan", "extras": {"brand": "UNITED ARROWS OUTLET", "fascia": "ユナイテッドアローズ アウトレット", "category": null, "edit_date": "2025-03-04 14:31:33", "lat_lon_source": "website"}, "lat": "135.583471", "lon": "34.7312945", "name": "ユナイテッドアローズ アウトレット 門真店", "opening_hours": ["10:00～21:00"], "phone": ["06-6991-9340"], "postcode": "571-8620", "ref": "0765", "state": "大阪府", "website": "https://mitsui-shopping-park.com/lalaport-mop-kadoma/"},
{"addr_full": "兵庫県神戸市垂水区海岸通12－2 三井アウトレットパーク マリンピア神戸 1F 1190", "brand": "UNITED ARROWS OUTLET", "city": "関西", "country": "Japan", "extras": {"brand": "UNITED ARROWS OUTLET", "fascia": "ユナイテッドアローズ アウトレット", "category": null, "edit_date": "2025-03-04 14:31:33", "lat_lon_source": "website"}, "lat": "135.04907536414", "lon": "34.6261897355078", "name": "ユナイテッドアローズ アウトレット 神戸店", "opening_hours": ["10:00 - 20:00"], "phone": ["050-8893-3351"], "postcode": "655-0036", "ref": "0770", "state": "兵庫県", "website": "https://mitsui-shopping-park.com/mop/kobe"},
{"addr_full": "兵庫県神戸市北区上津台7-3 <br>神戸三田プレミアム・アウトレット 3030区", "brand": "UNITED ARROWS OUTLET", "city": "関西", "country": "Japan", "extras": {"brand": "UNITED ARROWS OUTLET", "fascia": "ユナイテッドアローズ アウトレット", "category": null, "edit_date": "2025-03-04 14:31:33", "lat_lon_source": "website"}, "lat": "135.190344425564", "lon": "34.8582541291506", "name": "ユナイテッドアローズ アウトレット 神戸三田店", "opening_hours": {"Mon": "10:00-20:00", "Tue": "10:00-20:00", "Wed": "10:00-20:00", "Thur": "10:00-20:00", "Fri": "10:00-20:00", "Sat": "10:00-20:00", "Sun": "10:00-20:00"}, "phone": ["050-8893-4152"], "postcode": "651-1515", "ref": "0775", "state": "兵庫県", "website": "http://www.premiumoutlets.co.jp/kobesanda/"},
{"addr_full": "岡山県倉敷市寿町12-3 <br>三井アウトレットパーク 倉敷 1F", "brand": "UNITED ARROWS OUTLET", "city": "中国・四国・九州", "country": "Japan", "extras": {"brand": "UNITED ARROWS OUTLET", "fascia": "ユナイテッドアローズ アウトレット", "category": null, "edit_date": "2025-03-04 14:31:33", "lat_lon_source": "website"}, "lat": "133.762569378929", "lon": "34.6037782583359", "name": "ユナイテッドアローズ アウトレット 倉敷店", "opening_hours": {"Mon": "10:00-20:00", "Tue": "10:00-20:00", "Wed": "10:00-20:00", "Thur": "10:00-20:00", "Fri": "10:00-20:00", "Sat": "10:00-20:00", "Sun": "10:00-20:00"}, "phone": ["086-430-4336"], "postcode": "710-0813", "ref": "0776", "state": "岡山県", "website": "https://mitsui-shopping-park.com/mop/kurashiki/"},
{"addr_full": "広島県広島市佐伯区石内東4丁目1-1 <br>ジ アウトレット広島 238区画", "brand": "UNITED ARROWS OUTLET", "city": "中国・四国・九州", "country": "Japan", "extras": {"brand": "UNITED ARROWS OUTLET", "fascia": "ユナイテッドアローズ アウトレット", "category": null, "edit_date": "2025-03-04 14:31:33", "lat_lon_source": "website"}, "lat": "132.397205785669", "lon": "34.4091428080594", "name": "ユナイテッドアローズ アウトレット 広島店", "opening_hours": {"Mon": "10:00-20:00", "Tue": "10:00-20:00", "Wed": "10:00-20:00", "Thur": "10:00-20:00", "Fri": "10:00-20:00", "Sat": "10:00-20:00", "Sun": "10:00-20:00"}, "phone": ["082-941-5300"], "postcode": "731-5196", "ref": "0777", "state": "広島県", "website": "http://the-outlets-hiroshima.com/"},
{"addr_full": "福岡県福岡市中央区地行浜2-2-1<br>MARK IS 福岡ももち 2F", "brand": "UNITED ARROWS OUTLET", "city": "中国・四国・九州", "country": "Japan", "extras": {"brand": "UNITED ARROWS OUTLET", "fascia": "ユナイテッドアローズ アウトレット", "category": null, "edit_date": "2025-03-04 14:31:33", "lat_lon_source": "website"}, "lat": "130.364561764359", "lon": "33.5929176839035", "name": "ユナイテッドアローズ アウトレット 福岡店", "opening_hours": {"Mon": "10:00-21:00", "Tue": "10:00-21:00", "Wed": "10:00-21:00", "Thur": "10:00-21:00", "Fri": "10:00-21:00", "Sat": "10:00-21:00", "Sun": "10:00-21:00"}, "phone": ["050-8893-3325"], "postcode": "810-8639", "ref": "0799", "state": "福岡県", "website": "https://www.mec-markis.jp/fukuoka-momochi/"},
{"addr_full": "佐賀県鳥栖市弥生が丘8-1 <br>鳥栖プレミアム・アウトレット  450", "brand": "UNITED ARROWS OUTLET", "city": "中国・四国・九州", "country": "Japan", "extras": {"brand": "UNITED ARROWS OUTLET", "fascia": "ユナイテッドアローズ アウトレット", "category": null, "edit_date": "2025-03-04 14:31:33", "lat_lon_source": "website"}, "lat": "130.511708127365", "lon": "33.4071368540249", "name": "ユナイテッドアローズ アウトレット 鳥栖店", "opening_hours": {"Mon": "10:00-20:00", "Tue": "10:00-20:00", "Wed": "10:00-20:00", "Thur": "10:00-20:00", "Fri": "10:00-20:00", "Sat": "10:00-20:00", "Sun": "10:00-20:00"}, "phone": [], "postcode": "841-0005", "ref": "0797", "state": "佐賀県", "website": "http://www.premiumoutlets.co.jp/tosu/"},
{"addr_full": "24448　新北市林口區文化三路一段356號 三井アウトレットパーク 台湾林口 1F 10390　（台湾）", "brand": "UNITED ARROWS OUTLET", "city": "海外", "country": "Japan", "extras": {"brand": "UNITED ARROWS OUTLET", "fascia": "ユナイテッドアローズ アウトレット", "category": null, "edit_date": "2025-03-04 14:31:33", "lat_lon_source": "website"}, "lat": "121.3636266", "lon": "25.07138969", "name": "ユナイテッドアローズ アウトレット 林口（台湾）店", "opening_hours": ["Sun-Thu 11:00-21:30<br>Fri Sat/National holiday/the day before national holiday 11:00-22:00"], "phone": [], "postcode": "", "ref": "0070", "state": "台湾", "website": ""}
]