[
﻿{"addr_full": "Dr. Dürrwanger-Straße 60, 86156 Augsburg", "brand": "Metro", "city": "Augsburg", "country": "Germany", "extras": {"brand": "Metro AG", "fascia": "Metro AG", "category": "Retail", "edit_date": "20250503", "lat_lon_source": "Third Party"}, "lat": 48.38465, "lon": 10.85727, "name": "METRO Augsburg", "opening_hours": {"Mon": "07:00-21:00", "Tue": "07:00-21:00", "Wed": "07:00-21:00", "Thu": "07:00-21:00", "Fri": "07:00-21:00", "Sat": "07:00-20:00"}, "phone": "082144030", "postcode": "86156", "ref": "", "state": null, "website": "https://www.metro.de/standorte/augsburg"},
﻿{"addr_full": "Nonnendammallee 135, 13599 Berlin", "brand": "Metro", "city": "Berlin", "country": "Germany", "extras": {"brand": "Metro AG", "fascia": "Metro AG", "category": "Retail", "edit_date": "20250503", "lat_lon_source": "Third Party"}, "lat": 52.5386917, "lon": 13.245977, "name": "METRO Berlin-Berolina", "opening_hours": {"Mon": "07:00-22:00", "Tue": "07:00-22:00", "Wed": "07:00-22:00", "Thu": "07:00-22:00", "Fri": "07:00-22:00", "Sat": "07:00-20:00"}, "phone": "030354820", "postcode": "13599", "ref": "", "state": null, "website": "https://www.metro.de/standorte/berlin-berolina"},
﻿{"addr_full": "An der Ostbahn 5, 10243 Berlin", "brand": "Metro", "city": "Berlin", "country": "Germany", "extras": {"brand": "Metro AG", "fascia": "Metro AG", "category": "Retail", "edit_date": "20250503", "lat_lon_source": "Third Party"}, "lat": 52.509136, "lon": 13.443832, "name": "METRO Berlin-Friedrichshain", "opening_hours": {"Mon": "07:00-22:00", "Tue": "07:00-22:00", "Wed": "07:00-22:00", "Thu": "07:00-22:00", "Fri": "07:00-22:00", "Sat": "07:00-20:00"}, "phone": "0302757120", "postcode": "10243", "ref": "", "state": null, "website": "https://www.metro.de/standorte/berlin-friedrichshain"},
﻿{"addr_full": "Buckower Chaussee 25-35, 12277 Berlin", "brand": "Metro", "city": "Berlin", "country": "Germany", "extras": {"brand": "Metro AG", "fascia": "Metro AG", "category": "Retail", "edit_date": "20250503", "lat_lon_source": "Third Party"}, "lat": 52.41289, "lon": 13.39062, "name": "METRO Berlin-Marienfelde", "opening_hours": {"Mon": "07:00-21:00", "Tue": "07:00-21:00", "Wed": "07:00-21:00", "Thu": "07:00-21:00", "Fri": "07:00-21:00", "Sat": "07:00-20:00"}, "phone": "030762800", "postcode": "12277", "ref": "", "state": null, "website": "https://www.metro.de/standorte/berlin-marienfelde"},
﻿{"addr_full": "Dieselstraße 13, 38122 Braunschweig", "brand": "Metro", "city": "Braunschweig", "country": "Germany", "extras": {"brand": "Metro AG", "fascia": "Metro AG", "category": "Retail", "edit_date": "20250503", "lat_lon_source": "Third Party"}, "lat": 52.21628, "lon": 10.49736, "name": "METRO Braunschweig", "opening_hours": {"Mon": "07:00-21:00", "Tue": "07:00-21:00", "Wed": "07:00-21:00", "Thu": "07:00-21:00", "Fri": "07:00-21:00", "Sat": "07:00-20:00"}, "phone": "053128800", "postcode": "38122", "ref": "", "state": null, "website": "https://www.metro.de/standorte/braunschweig"},
﻿{"addr_full": "Neuenlander Straße 111, 28201 Bremen", "brand": "Metro", "city": "Bremen", "country": "Germany", "extras": {"brand": "Metro AG", "fascia": "Metro AG", "category": "Retail", "edit_date": "20250503", "lat_lon_source": "Third Party"}, "lat": 53.05199, "lon": 8.80457, "name": "METRO Bremen", "opening_hours": {"Mon": "07:00-22:00", "Tue": "07:00-22:00", "Wed": "07:00-22:00", "Thu": "07:00-22:00", "Fri": "07:00-22:00", "Sat": "07:00-20:00"}, "phone": "042155940", "postcode": "28201", "ref": "", "state": null, "website": "https://www.metro.de/standorte/bremen"},
﻿{"addr_full": "Zusestraße 6, 85649 Brunnthal", "brand": "Metro", "city": "Brunnthal", "country": "Germany", "extras": {"brand": "Metro AG", "fascia": "Metro AG", "category": "Retail", "edit_date": "20250503", "lat_lon_source": "Third Party"}, "lat": 48.0387894, "lon": 11.6583578, "name": "METRO Brunnthal", "opening_hours": {"Mon": "07:00-22:00", "Tue": "07:00-22:00", "Wed": "07:00-22:00", "Thu": "07:00-22:00", "Fri": "07:00-22:00", "Sat": "07:00-20:00"}, "phone": "0892420790", "postcode": "85649", "ref": "", "state": null, "website": "https://www.metro.de/standorte/brunnthal"},
﻿{"addr_full": "Röhrsdorfer Allee 1, 09247 Chemnitz-Röhrsdorf", "brand": "Metro", "city": "Chemnitz-Röhrsdorf", "country": "Germany", "extras": {"brand": "Metro AG", "fascia": "Metro AG", "category": "Retail", "edit_date": "20250503", "lat_lon_source": "Third Party"}, "lat": 50.86416, "lon": 12.86062, "name": "METRO Chemnitz-Röhrsdorf", "opening_hours": {"Mon": "07:00-21:00", "Tue": "07:00-21:00", "Wed": "07:00-21:00", "Thu": "07:00-21:00", "Fri": "07:00-21:00", "Sat": "07:00-20:00"}, "phone": "037226030", "postcode": "09247", "ref": "", "state": null, "website": "https://www.metro.de/standorte/roehrsdorf"},
﻿{"addr_full": "Brackeler Straße 51, 44145 Dortmund", "brand": "Metro", "city": "Dortmund", "country": "Germany", "extras": {"brand": "Metro AG", "fascia": "Metro AG", "category": "Retail", "edit_date": "20250503", "lat_lon_source": "Third Party"}, "lat": 51.52393, "lon": 7.48932, "name": "METRO Dortmund-Mitte", "opening_hours": {"Mon": "07:00-22:00", "Tue": "07:00-22:00", "Wed": "07:00-22:00", "Thu": "07:00-22:00", "Fri": "07:00-22:00", "Sat": "07:00-20:00"}, "phone": "023198310", "postcode": "44145", "ref": "", "state": null, "website": "https://www.metro.de/standorte/dortmund-mitte"},
﻿{"addr_full": "Borussiastraße 101, 44149 Dortmund", "brand": "Metro", "city": "Dortmund", "country": "Germany", "extras": {"brand": "Metro AG", "fascia": "Metro AG", "category": "Retail", "edit_date": "20250503", "lat_lon_source": "Third Party"}, "lat": 51.494057, "lon": 7.373359, "name": "METRO Dortmund-Oespel", "opening_hours": {"Mon": "07:00-22:00", "Tue": "07:00-22:00", "Wed": "07:00-22:00", "Thu": "07:00-22:00", "Fri": "07:00-22:00", "Sat": "07:00-20:00"}, "phone": "023196560", "postcode": "44149", "ref": "", "state": null, "website": "https://www.metro.de/standorte/dortmund-oespel"},
﻿{"addr_full": "Marie-Curie-Straße 9, 01139 Dresden", "brand": "Metro", "city": "Dresden", "country": "Germany", "extras": {"brand": "Metro AG", "fascia": "Metro AG", "category": "Retail", "edit_date": "20250503", "lat_lon_source": "Third Party"}, "lat": 51.07386, "lon": 13.68387, "name": "METRO Dresden", "opening_hours": {"Mon": "07:00-21:00", "Tue": "07:00-21:00", "Wed": "07:00-21:00", "Thu": "07:00-21:00", "Fri": "07:00-21:00", "Sat": "07:00-20:00"}, "phone": "035185120", "postcode": "01139", "ref": "", "state": null, "website": "https://www.metro.de/standorte/dresden"},
﻿{"addr_full": "Max-Peters-Straße 20, 47059 Duisburg", "brand": "Metro", "city": "Duisburg", "country": "Germany", "extras": {"brand": "Metro AG", "fascia": "Metro AG", "category": "Retail", "edit_date": "20250503", "lat_lon_source": "Third Party"}, "lat": 51.444, "lon": 6.76339, "name": "METRO Duisburg", "opening_hours": {"Mon": "07:00-22:00", "Tue": "07:00-22:00", "Wed": "07:00-22:00", "Thu": "07:00-22:00", "Fri": "07:00-22:00", "Sat": "07:00-20:00"}, "phone": "020399350", "postcode": "47059", "ref": "", "state": null, "website": "https://www.metro.de/standorte/duisburg"},
﻿{"addr_full": "Schlüterstraße 3, 40235 Düsseldorf", "brand": "Metro", "city": "Düsseldorf", "country": "Germany", "extras": {"brand": "Metro AG", "fascia": "Metro AG", "category": "Retail", "edit_date": "20250503", "lat_lon_source": "Third Party"}, "lat": 51.23557, "lon": 6.823724, "name": "METRO Düsseldorf", "opening_hours": {"Mon": "07:00-22:00", "Tue": "07:00-22:00", "Wed": "07:00-22:00", "Thu": "07:00-22:00", "Fri": "07:00-22:00", "Sat": "07:00-20:00"}, "phone": "021196250", "postcode": "40235", "ref": "", "state": null, "website": "https://www.metro.de/standorte/duesseldorf"},
﻿{"addr_full": "Linderbacher Weg 32, 99099 Erfurt", "brand": "Metro", "city": "Erfurt", "country": "Germany", "extras": {"brand": "Metro AG", "fascia": "Metro AG", "category": "Retail", "edit_date": "20250503", "lat_lon_source": "Third Party"}, "lat": 50.974437, "lon": 11.088339, "name": "METRO Erfurt", "opening_hours": {"Mon": "07:00-21:00", "Tue": "07:00-21:00", "Wed": "07:00-21:00", "Thu": "07:00-21:00", "Fri": "07:00-21:00", "Sat": "07:00-20:00"}, "phone": "036142820", "postcode": "99099", "ref": "", "state": null, "website": "https://www.metro.de/standorte/erfurt"},
﻿{"addr_full": "Lütkenbrauk 64, 45329 Essen", "brand": "Metro", "city": "Essen", "country": "Germany", "extras": {"brand": "Metro AG", "fascia": "Metro AG", "category": "Retail", "edit_date": "20250503", "lat_lon_source": "Third Party"}, "lat": 51.48788, "lon": 6.98972, "name": "METRO Essen", "opening_hours": {"Mon": "07:00-22:00", "Tue": "07:00-22:00", "Wed": "07:00-22:00", "Thu": "07:00-22:00", "Fri": "07:00-22:00", "Sat": "07:00-20:00"}, "phone": "020183470", "postcode": "45329", "ref": "", "state": null, "website": "https://www.metro.de/standorte/essen"},
﻿{"addr_full": "Dornierstraße 9, 73730 Esslingen", "brand": "Metro", "city": "Esslingen", "country": "Germany", "extras": {"brand": "Metro AG", "fascia": "Metro AG", "category": "Retail", "edit_date": "20250503", "lat_lon_source": "Third Party"}, "lat": 48.71767, "lon": 9.34448, "name": "METRO Esslingen", "opening_hours": {"Mon": "07:00-22:00", "Tue": "07:00-22:00", "Wed": "07:00-22:00", "Thu": "07:00-22:00", "Fri": "07:00-22:00", "Sat": "07:00-20:00"}, "phone": "071193140", "postcode": "73730", "ref": "", "state": null, "website": "https://www.metro.de/standorte/esslingen"},
﻿{"addr_full": "Am Riederbruch 10, 60386 Frankfurt", "brand": "Metro", "city": "Frankfurt", "country": "Germany", "extras": {"brand": "Metro AG", "fascia": "Metro AG", "category": "Retail", "edit_date": "20250503", "lat_lon_source": "Third Party"}, "lat": 50.12322, "lon": 8.73067, "name": "METRO Frankfurt-Riederwald", "opening_hours": {"Mon": "07:00-22:00", "Tue": "07:00-22:00", "Wed": "07:00-22:00", "Thu": "07:00-22:00", "Fri": "07:00-22:00", "Sat": "07:00-20:00"}, "phone": "069942030", "postcode": "60386", "ref": "", "state": null, "website": "https://www.metro.de/standorte/frankfurt-riederwald"},
﻿{"addr_full": "Guerickestraße 8, 60488 Frankfurt", "brand": "Metro", "city": "Frankfurt", "country": "Germany", "extras": {"brand": "Metro AG", "fascia": "Metro AG", "category": "Retail", "edit_date": "20250503", "lat_lon_source": "Third Party"}, "lat": 50.1353389, "lon": 8.6007328, "name": "METRO Frankfurt-Rödelheim", "opening_hours": {"Mon": "07:00-22:00", "Tue": "07:00-22:00", "Wed": "07:00-22:00", "Thu": "07:00-22:00", "Fri": "07:00-22:00", "Sat": "07:00-20:00"}, "phone": "069976530", "postcode": "60488", "ref": "", "state": null, "website": "https://www.metro.de/standorte/frankfurt-roedelheim"},
﻿{"addr_full": "Sigmaringer Straße 106, 72458 Albstadt", "brand": "Metro", "city": "Albstadt", "country": "Germany", "extras": {"brand": "Metro AG", "fascia": "Metro AG", "category": "Retail", "edit_date": "20250503", "lat_lon_source": "Third Party"}, "lat": 48.2053583, "lon": 9.04222400000003, "name": "METRO GASTRO Albstadt", "opening_hours": {"Mon": "08:00-18:00", "Tue": "08:00-18:00", "Wed": "08:00-18:00", "Thu": "08:00-18:00", "Fri": "08:00-18:00", "Sat": "08:00-13:00"}, "phone": "0743113080", "postcode": "72458", "ref": "", "state": null, "website": "https://www.metro.de/standorte/albstadt"},
﻿{"addr_full": "Lärchenstraße, 4, 76532 Baden-Baden", "brand": "Metro", "city": "Baden-Baden", "country": "Germany", "extras": {"brand": "Metro AG", "fascia": "Metro AG", "category": "Retail", "edit_date": "20250503", "lat_lon_source": "Third Party"}, "lat": 48.8154523, "lon": 8.19656239999995, "name": "METRO GASTRO Baden-Baden", "opening_hours": {"Mon": "07:00-18:00", "Tue": "07:00-18:00", "Wed": "07:00-18:00", "Thu": "07:00-18:00", "Fri": "07:00-18:00", "Sat": "07:00-15:00"}, "phone": "0722150620", "postcode": "76532", "ref": "", "state": null, "website": "https://www.metro.de/standorte/baden-baden"},
﻿{"addr_full": "Dresdener Straße, 57, 02625 Bautzen", "brand": "Metro", "city": "Bautzen", "country": "Germany", "extras": {"brand": "Metro AG", "fascia": "Metro AG", "category": "Retail", "edit_date": "20250503", "lat_lon_source": "Third Party"}, "lat": 51.1797972, "lon": 14.4024808, "name": "METRO GASTRO Bautzen", "opening_hours": {"Mon": "07:00-19:00", "Tue": "07:00-19:00", "Wed": "07:00-19:00", "Thu": "07:00-19:00", "Fri": "07:00-19:00", "Sat": "08:00-13:00"}, "phone": "0359167950", "postcode": "02625", "ref": "", "state": null, "website": "https://www.metro.de/standorte/bautzen"},
﻿{"addr_full": "Caasmannstraße 3, 14770 Brandenburg", "brand": "Metro", "city": "Brandenburg", "country": "Germany", "extras": {"brand": "Metro AG", "fascia": "Metro AG", "category": "Retail", "edit_date": "20250503", "lat_lon_source": "Third Party"}, "lat": 52.4050943, "lon": 12.5332885, "name": "METRO GASTRO Brandenburg", "opening_hours": {"Mon": "06:30-19:00", "Tue": "06:30-19:00", "Wed": "06:30-19:00", "Thu": "06:30-19:00", "Fri": "06:30-19:00", "Sat": "08:00-13:00"}, "phone": "0338133560", "postcode": "14770", "ref": "", "state": null, "website": "https://www.metro.de/standorte/brandenburg"},
﻿{"addr_full": "Im Wendelrot 11, 76646 Bruchsal", "brand": "Metro", "city": "Bruchsal", "country": "Germany", "extras": {"brand": "Metro AG", "fascia": "Metro AG", "category": "Retail", "edit_date": "20250503", "lat_lon_source": "Third Party"}, "lat": 49.138409, "lon": 8.56692169999997, "name": "METRO GASTRO Bruchsal", "opening_hours": {"Mon": "07:00-18:00", "Tue": "07:00-18:00", "Wed": "07:00-18:00", "Thu": "07:00-18:00", "Fri": "07:00-18:00", "Sat": "07:00-14:00"}, "phone": "0725197810", "postcode": "76646", "ref": "", "state": null, "website": "https://www.metro.de/standorte/bruchsal"},
﻿{"addr_full": "Herrenberger Straße 100, 71034 Böblingen", "brand": "Metro", "city": "Böblingen", "country": "Germany", "extras": {"brand": "Metro AG", "fascia": "Metro AG", "category": "Retail", "edit_date": "20250503", "lat_lon_source": "Third Party"}, "lat": 48.6807393, "lon": 8.99380940000003, "name": "METRO GASTRO Böblingen", "opening_hours": {"Mon": "07:00-18:00", "Tue": "07:00-18:00", "Wed": "07:00-18:00", "Thu": "07:00-18:00", "Fri": "07:00-18:00", "Sat": "07:00-16:00"}, "phone": "0703143660", "postcode": "71034", "ref": "", "state": null, "website": "https://www.metro.de/standorte/boeblingen"},
﻿{"addr_full": "Bremer Weg 203, 29223 Celle", "brand": "Metro", "city": "Celle", "country": "Germany", "extras": {"brand": "Metro AG", "fascia": "Metro AG", "category": "Retail", "edit_date": "20250503", "lat_lon_source": "Third Party"}, "lat": 52.63699, "lon": 10.05085, "name": "METRO GASTRO Celle", "opening_hours": {"Mon": "07:00-19:00", "Tue": "07:00-19:00", "Wed": "07:00-19:00", "Thu": "07:00-19:00", "Fri": "07:00-19:00", "Sat": "07:00-13:00"}, "phone": "05141956090", "postcode": "29223", "ref": "", "state": null, "website": "https://www.metro.de/standorte/celle"},
﻿{"addr_full": "Gewerbegebiet Rurbenden 44, 52353 Düren", "brand": "Metro", "city": "Düren", "country": "Germany", "extras": {"brand": "Metro AG", "fascia": "Metro AG", "category": "Retail", "edit_date": "20250503", "lat_lon_source": "Third Party"}, "lat": 50.8408531, "lon": 6.45632260000002, "name": "METRO GASTRO Düren", "opening_hours": {"Mon": "07:00-19:00", "Tue": "07:00-19:00", "Wed": "07:00-19:00", "Thu": "07:00-19:00", "Fri": "07:00-19:00", "Sat": "07:00-14:00"}, "phone": "0242894820", "postcode": "52353", "ref": "", "state": null, "website": "https://www.metro.de/standorte/dueren"},
﻿{"addr_full": "Adam-Opel-Straße 9, 99817 Eisenach", "brand": "Metro", "city": "Eisenach", "country": "Germany", "extras": {"brand": "Metro AG", "fascia": "Metro AG", "category": "Retail", "edit_date": "20250503", "lat_lon_source": "Third Party"}, "lat": 50.9796879, "lon": 10.2954044000001, "name": "METRO GASTRO Eisenach", "opening_hours": {"Mon": "07:00-19:00", "Tue": "07:00-19:00", "Wed": "07:00-19:00", "Thu": "07:00-19:00", "Fri": "07:00-19:00", "Sat": "08:00-13:00"}, "phone": "0369179100", "postcode": "99817", "ref": "", "state": null, "website": "https://www.metro.de/standorte/eisenach"},
﻿{"addr_full": "Auf Nauwies 12 (Saarplateau), 66806 Ensdorf", "brand": "Metro", "city": "Ensdorf", "country": "Germany", "extras": {"brand": "Metro AG", "fascia": "Metro AG", "category": "Retail", "edit_date": "20250503", "lat_lon_source": "Third Party"}, "lat": 49.30026, "lon": 6.76900999999998, "name": "METRO GASTRO Ensdorf", "opening_hours": {"Mon": "07:00-19:00", "Tue": "07:00-19:00", "Wed": "07:00-19:00", "Thu": "07:00-19:00", "Fri": "07:00-19:00", "Sat": "07:00-16:00"}, "phone": "068315015960", "postcode": "66806", "ref": "", "state": null, "website": "https://www.metro.de/standorte/ensdorf"},
﻿{"addr_full": "Drangstedter Chaussee 101,27607 Langen/Debstedt", "brand": "Metro", "city": "Langen", "country": "Germany", "extras": {"brand": "Metro AG", "fascia": "Metro AG", "category": "Retail", "edit_date": "20250503", "lat_lon_source": "Third Party"}, "lat": 53.6209351, "lon": 8.65695099999994, "name": "METRO GASTRO Geestland", "opening_hours": {"Mon": "07:00-19:00", "Tue": "07:00-19:00", "Wed": "07:00-19:00", "Thu": "07:00-19:00", "Fri": "07:00-19:00", "Sat": "07:00-13:00"}, "phone": "0474393990", "postcode": "27607", "ref": "", "state": null, "website": "https://www.metro.de/standorte/geestland"},
﻿{"addr_full": "Ohmenhäuser Straße 15, 72810 Gomaringen", "brand": "Metro", "city": "Gomaringen", "country": "Germany", "extras": {"brand": "Metro AG", "fascia": "Metro AG", "category": "Retail", "edit_date": "20250503", "lat_lon_source": "Third Party"}, "lat": 48.4596962, "lon": 9.10299020000002, "name": "METRO GASTRO Gomaringen", "opening_hours": {"Mon": "07:00-18:00", "Tue": "07:00-18:00", "Wed": "07:00-18:00", "Thu": "07:00-18:00", "Fri": "07:00-18:00", "Sat": "07:00-16:00"}, "phone": "0707291380", "postcode": "72810", "ref": "", "state": null, "website": "https://www.metro.de/standorte/gomaringen"},
﻿{"addr_full": "Gerhard Weule Straße 1, 38644 Goslar", "brand": "Metro", "city": "Goslar", "country": "Germany", "extras": {"brand": "Metro AG", "fascia": "Metro AG", "category": "Retail", "edit_date": "20250503", "lat_lon_source": "Third Party"}, "lat": 51.9344641, "lon": 10.4070914, "name": "METRO GASTRO Goslar", "opening_hours": {"Mon": "07:00-19:00", "Tue": "07:00-19:00", "Wed": "07:00-19:00", "Thu": "07:00-19:00", "Fri": "07:00-19:00", "Sat": "07:00-15:00"}, "phone": "0532137540", "postcode": "38644", "ref": "", "state": null, "website": "https://www.metro.de/standorte/goslar"},
﻿{"addr_full": "Sandfuhr 2, 17491Greifswald", "brand": "Metro", "city": null, "country": "Germany", "extras": {"brand": "Metro AG", "fascia": "Metro AG", "category": "Retail", "edit_date": "20250503", "lat_lon_source": "Third Party"}, "lat": 54.0733, "lon": 13.40571, "name": "METRO GASTRO Greifswald", "opening_hours": {"Mon": "07:00-19:00", "Tue": "07:00-19:00", "Wed": "07:00-19:00", "Thu": "07:00-19:00", "Fri": "07:00-19:00", "Sat": "07:00-13:00"}, "phone": "0383458530", "postcode": null, "ref": "", "state": null, "website": "https://www.metro.de/standorte/greifswald"},
﻿{"addr_full": "Langes Feld 14, 31789 Hameln", "brand": "Metro", "city": "Hameln", "country": "Germany", "extras": {"brand": "Metro AG", "fascia": "Metro AG", "category": "Retail", "edit_date": "20250503", "lat_lon_source": "Third Party"}, "lat": 52.09852, "lon": 9.39633000000003, "name": "METRO GASTRO Hameln", "opening_hours": {"Mon": "07:00-19:00", "Tue": "07:00-19:00", "Wed": "07:00-19:00", "Thu": "07:00-19:00", "Fri": "07:00-19:00", "Sat": "07:00-13:00"}, "phone": "05151557330", "postcode": "31789", "ref": "", "state": null, "website": "https://www.metro.de/standorte/hameln"},
﻿{"addr_full": "Eckenerstraße 2a, 30179 Hannover", "brand": "Metro", "city": "Hannover", "country": "Germany", "extras": {"brand": "Metro AG", "fascia": "Metro AG", "category": "Retail", "edit_date": "20250503", "lat_lon_source": "Third Party"}, "lat": 52.41804, "lon": 9.74455, "name": "METRO GASTRO Hannover-Vahrenheide", "opening_hours": {"Mon": "06:30-19:00", "Tue": "06:30-19:00", "Wed": "06:30-19:00", "Thu": "06:30-19:00", "Fri": "06:30-19:00", "Sat": "07:00-15:00"}, "phone": "05116799860", "postcode": "30179", "ref": "", "state": null, "website": "https://www.metro.de/standorte/hannover-vahrenheide"},
﻿{"addr_full": "Westerwaldstraße 8, 64646 Heppenheim", "brand": "Metro", "city": "Heppenheim", "country": "Germany", "extras": {"brand": "Metro AG", "fascia": "Metro AG", "category": "Retail", "edit_date": "20250503", "lat_lon_source": "Third Party"}, "lat": 49.6430559, "lon": 8.638889, "name": "METRO GASTRO Heppenheim", "opening_hours": {"Mon": "07:00-19:00", "Tue": "07:00-19:00", "Wed": "07:00-19:00", "Thu": "07:00-19:00", "Fri": "07:00-19:00", "Sat": "08:00-15:00"}, "phone": "06252670970", "postcode": "64646", "ref": "", "state": null, "website": "https://www.metro.de/standorte/heppenheim"},
﻿{"addr_full": "An der Hohensaas 12, 95039 Hof", "brand": "Metro", "city": "Hof", "country": "Germany", "extras": {"brand": "Metro AG", "fascia": "Metro AG", "category": "Retail", "edit_date": "20250503", "lat_lon_source": "Third Party"}, "lat": 50.3146337, "lon": 11.8778847, "name": "METRO GASTRO Hof", "opening_hours": {"Mon": "07:00-19:00", "Tue": "07:00-19:00", "Wed": "07:00-19:00", "Thu": "07:00-19:00", "Fri": "07:00-19:00", "Sat": "08:00-13:00"}, "phone": "0928170760", "postcode": "95039", "ref": "", "state": null, "website": "https://www.metro.de/standorte/hof"},
﻿{"addr_full": "Humboldtstraße 2, 37603 Holzminden", "brand": "Metro", "city": "Holzminden", "country": "Germany", "extras": {"brand": "Metro AG", "fascia": "Metro AG", "category": "Retail", "edit_date": "20250503", "lat_lon_source": "Third Party"}, "lat": 51.8414746845403, "lon": 9.47215090957488, "name": "METRO GASTRO Holzminden", "opening_hours": {"Mon": "07:00-19:00", "Tue": "07:00-19:00", "Wed": "07:00-19:00", "Thu": "07:00-19:00", "Fri": "07:00-19:00", "Sat": "07:00-14:00"}, "phone": "0553112820", "postcode": "37603", "ref": "", "state": null, "website": "https://www.metro.de/standorte/holzminden"},
﻿{"addr_full": "Am Großmarkt 10, 76137 Karlsruhe", "brand": "Metro", "city": "Karlsruhe", "country": "Germany", "extras": {"brand": "Metro AG", "fascia": "Metro AG", "category": "Retail", "edit_date": "20250503", "lat_lon_source": "Third Party"}, "lat": 49.0071059, "lon": 8.44483869999999, "name": "METRO GASTRO Karlsruhe-Rintheim", "opening_hours": {"Mon": "06:00-18:00", "Tue": "06:00-18:00", "Wed": "06:00-18:00", "Thu": "06:00-18:00", "Fri": "06:00-18:00", "Sat": "06:00-16:00"}, "phone": "0721962270", "postcode": "76137", "ref": "", "state": null, "website": "https://www.metro.de/standorte/karlsruhe-rintheim"},
﻿{"addr_full": "Tonberg 7, 24113 Kiel", "brand": "Metro", "city": "Kiel", "country": "Germany", "extras": {"brand": "Metro AG", "fascia": "Metro AG", "category": "Retail", "edit_date": "20250503", "lat_lon_source": "Third Party"}, "lat": 54.30165, "lon": 10.1333999999999, "name": "METRO GASTRO Kiel", "opening_hours": {"Mon": "07:00-19:00", "Tue": "07:00-19:00", "Wed": "07:00-19:00", "Thu": "07:00-19:00", "Fri": "07:00-19:00", "Sat": "07:00-16:00"}, "phone": "04312395190", "postcode": "24113", "ref": "", "state": null, "website": "https://www.metro.de/standorte/kiel"},
﻿{"addr_full": "Handelsstraße 6, 49809 Lingen", "brand": "Metro", "city": "Lingen", "country": "Germany", "extras": {"brand": "Metro AG", "fascia": "Metro AG", "category": "Retail", "edit_date": "20250503", "lat_lon_source": "Third Party"}, "lat": 52.5374259, "lon": 7.33629529999996, "name": "METRO GASTRO Lingen", "opening_hours": {"Mon": "07:00-19:00", "Tue": "07:00-19:00", "Wed": "07:00-19:00", "Thu": "07:00-19:00", "Fri": "07:00-19:00", "Sat": "07:00-14:00"}, "phone": "0591710920", "postcode": "49809", "ref": "", "state": null, "website": "https://www.metro.de/standorte/lingen"},
﻿{"addr_full": "Mühlbergweg 7, 15907 Lübben", "brand": "Metro", "city": "Lübben", "country": "Germany", "extras": {"brand": "Metro AG", "fascia": "Metro AG", "category": "Retail", "edit_date": "20250503", "lat_lon_source": "Third Party"}, "lat": 51.90509, "lon": 13.85329, "name": "METRO GASTRO Lübben", "opening_hours": {"Mon": "07:00-18:00", "Tue": "07:00-18:00", "Wed": "07:00-18:00", "Thu": "07:00-18:00", "Fri": "07:00-18:00", "Sat": "08:00-13:00"}, "phone": "0354622520", "postcode": "15907", "ref": "", "state": null, "website": "https://www.metro.de/standorte/luebben"},
﻿{"addr_full": "Fraunhoferstraße 86, 87700 Memmingen", "brand": "Metro", "city": "Memmingen", "country": "Germany", "extras": {"brand": "Metro AG", "fascia": "Metro AG", "category": "Retail", "edit_date": "20250503", "lat_lon_source": "Third Party"}, "lat": 48.00099, "lon": 10.1569500000001, "name": "METRO GASTRO Memmingen", "opening_hours": {"Mon": "08:00-18:00", "Tue": "08:00-18:00", "Wed": "08:00-18:00", "Thu": "08:00-18:00", "Fri": "08:00-18:00", "Sat": "08:00-15:00"}, "phone": "08331924280", "postcode": "87700", "ref": "", "state": null, "website": "https://www.metro.de/standorte/memmingen"},
﻿{"addr_full": "Beim Schwarzen Feld 14, 99974 Mühlhausen", "brand": "Metro", "city": "Mühlhausen", "country": "Germany", "extras": {"brand": "Metro AG", "fascia": "Metro AG", "category": "Retail", "edit_date": "20250503", "lat_lon_source": "Third Party"}, "lat": 51.1972603, "lon": 10.478207, "name": "METRO GASTRO Mühlhausen", "opening_hours": {"Mon": "07:00-19:00", "Tue": "07:00-19:00", "Wed": "07:00-19:00", "Thu": "07:00-19:00", "Fri": "07:00-19:00", "Sat": "08:00-13:00"}, "phone": "0360146430", "postcode": "99974", "ref": "", "state": null, "website": "https://www.metro.de/standorte/muehlhausen"},
﻿{"addr_full": "Leinestraße 42, 24539 Neumünster", "brand": "Metro", "city": "Neumünster", "country": "Germany", "extras": {"brand": "Metro AG", "fascia": "Metro AG", "category": "Retail", "edit_date": "20250503", "lat_lon_source": "Third Party"}, "lat": 54.0386559, "lon": 10.0073482, "name": "METRO GASTRO Neumünster", "opening_hours": {"Mon": "07:00-18:00", "Tue": "07:00-18:00", "Wed": "07:00-18:00", "Thu": "07:00-18:00", "Fri": "07:00-18:00", "Sat": "07:00-13:00"}, "phone": "04321851910", "postcode": "24539", "ref": "", "state": null, "website": "https://www.metro.de/standorte/neumuenster"},
﻿{"addr_full": "Gewerbepark Ost 7, 17235 Neustrelitz", "brand": "Metro", "city": "Neustrelitz", "country": "Germany", "extras": {"brand": "Metro AG", "fascia": "Metro AG", "category": "Retail", "edit_date": "20250503", "lat_lon_source": "Third Party"}, "lat": 53.3679642, "lon": 13.0875847, "name": "METRO GASTRO Neustrelitz", "opening_hours": {"Mon": "07:00-18:00", "Tue": "07:00-18:00", "Wed": "07:00-18:00", "Thu": "07:00-18:00", "Fri": "07:00-18:00", "Sat": "07:00-13:00"}, "phone": "0398128690", "postcode": "17235", "ref": "", "state": null, "website": "https://www.metro.de/standorte/neustrelitz"},
﻿{"addr_full": "Südring 15, 31582 Nienburg", "brand": "Metro", "city": "Nienburg", "country": "Germany", "extras": {"brand": "Metro AG", "fascia": "Metro AG", "category": "Retail", "edit_date": "20250503", "lat_lon_source": "Third Party"}, "lat": 52.6191867, "lon": 9.20784849999995, "name": "METRO GASTRO Nienburg", "opening_hours": {"Mon": "07:00-19:00", "Tue": "07:00-19:00", "Wed": "07:00-19:00", "Thu": "07:00-19:00", "Fri": "07:00-19:00", "Sat": "07:00-13:00"}, "phone": "0502160130", "postcode": "31582", "ref": "", "state": null, "website": "https://www.metro.de/standorte/nienburg"},
﻿{"addr_full": "Straße der Genossenschaften 119, 99734 Nordhausen", "brand": "Metro", "city": "Nordhausen", "country": "Germany", "extras": {"brand": "Metro AG", "fascia": "Metro AG", "category": "Retail", "edit_date": "20250503", "lat_lon_source": "Third Party"}, "lat": 51.5083, "lon": 10.7723, "name": "METRO GASTRO Nordhausen", "opening_hours": {"Mon": "07:00-19:00", "Tue": "07:00-19:00", "Wed": "07:00-19:00", "Thu": "07:00-19:00", "Fri": "07:00-19:00", "Sat": "08:00-13:00"}, "phone": "03631479210", "postcode": "99734", "ref": "", "state": null, "website": "https://www.metro.de/standorte/nordhausen"},
﻿{"addr_full": "Sachsenhausener Straße 27, 16515 Oranienburg", "brand": "Metro", "city": "Oranienburg", "country": "Germany", "extras": {"brand": "Metro AG", "fascia": "Metro AG", "category": "Retail", "edit_date": "20250503", "lat_lon_source": "Third Party"}, "lat": 52.76304, "lon": 13.24293, "name": "METRO GASTRO Oranienburg", "opening_hours": {"Mon": "07:00-19:00", "Tue": "07:00-19:00", "Wed": "07:00-19:00", "Thu": "07:00-19:00", "Fri": "07:00-19:00", "Sat": "08:00-13:00"}, "phone": "033012019610", "postcode": "16515", "ref": "", "state": null, "website": "https://www.metro.de/standorte/oranienburg"},
﻿{"addr_full": "Ackerstraße 10, 19348 Perleberg", "brand": "Metro", "city": "Perleberg", "country": "Germany", "extras": {"brand": "Metro AG", "fascia": "Metro AG", "category": "Retail", "edit_date": "20250503", "lat_lon_source": "Third Party"}, "lat": 53.086, "lon": 11.85716, "name": "METRO GASTRO Perleberg", "opening_hours": {"Mon": "07:00-18:00", "Tue": "07:00-18:00", "Wed": "07:00-18:00", "Thu": "07:00-18:00", "Fri": "07:00-18:00", "Sat": "07:00-13:00"}, "phone": "03876300430", "postcode": "19348", "ref": "", "state": null, "website": "https://www.metro.de/standorte/perleberg"},
﻿{"addr_full": "Gewerbestraße 2, 17291 Prenzlau", "brand": "Metro", "city": "Prenzlau", "country": "Germany", "extras": {"brand": "Metro AG", "fascia": "Metro AG", "category": "Retail", "edit_date": "20250503", "lat_lon_source": "Third Party"}, "lat": 53.3377629, "lon": 13.8697985, "name": "METRO GASTRO Prenzlau", "opening_hours": {"Mon": "07:00-18:00", "Tue": "07:00-18:00", "Wed": "07:00-18:00", "Thu": "07:00-18:00", "Fri": "07:00-18:00", "Sat": "07:00-13:00"}, "phone": "0398486480", "postcode": "17291", "ref": "", "state": null, "website": "https://www.metro.de/standorte/prenzlau"},
﻿{"addr_full": "Bleicherstraße 51, 88212 Ravensburg", "brand": "Metro", "city": "Ravensburg", "country": "Germany", "extras": {"brand": "Metro AG", "fascia": "Metro AG", "category": "Retail", "edit_date": "20250503", "lat_lon_source": "Third Party"}, "lat": 47.794209, "lon": 9.61277530000007, "name": "METRO GASTRO Ravensburg", "opening_hours": {"Mon": "07:00-18:00", "Tue": "07:00-18:00", "Wed": "07:00-18:00", "Thu": "07:00-18:00", "Fri": "07:00-18:00", "Sat": "07:00-16:00"}, "phone": "0751769640", "postcode": "88212", "ref": "", "state": null, "website": "https://www.metro.de/standorte/ravensburg"},
﻿{"addr_full": "Oststraße 53, 07407 Rudolstadt", "brand": "Metro", "city": "Rudolstadt", "country": "Germany", "extras": {"brand": "Metro AG", "fascia": "Metro AG", "category": "Retail", "edit_date": "20250503", "lat_lon_source": "Third Party"}, "lat": 50.7238767, "lon": 11.3618848999999, "name": "METRO GASTRO Rudolstadt", "opening_hours": {"Mon": "07:00-19:00", "Tue": "07:00-19:00", "Wed": "07:00-19:00", "Thu": "07:00-19:00", "Fri": "07:00-19:00", "Sat": "08:00-13:00"}, "phone": "0367243300", "postcode": "07407", "ref": "", "state": null, "website": "https://www.metro.de/standorte/rudolstadt"},
﻿{"addr_full": "Im Alber 7, 73084  Salach", "brand": "Metro", "city": "Salach", "country": "Germany", "extras": {"brand": "Metro AG", "fascia": "Metro AG", "category": "Retail", "edit_date": "20250503", "lat_lon_source": "Third Party"}, "lat": 48.68544, "lon": 9.72720000000004, "name": "METRO GASTRO Salach", "opening_hours": {"Mon": "07:00-18:00", "Tue": "07:00-18:00", "Wed": "07:00-18:00", "Thu": "07:00-18:00", "Fri": "07:00-18:00", "Sat": "07:00-16:00"}, "phone": "07162930230", "postcode": "73084", "ref": "", "state": null, "website": "https://www.metro.de/standorte/salach"},
﻿{"addr_full": "Feldstraße 25a, 29410 Salzwedel", "brand": "Metro", "city": "Salzwedel", "country": "Germany", "extras": {"brand": "Metro AG", "fascia": "Metro AG", "category": "Retail", "edit_date": "20250503", "lat_lon_source": "Third Party"}, "lat": 52.8614144, "lon": 11.1538726, "name": "METRO GASTRO Salzwedel", "opening_hours": {"Mon": "07:00-19:00", "Tue": "07:00-19:00", "Wed": "07:00-19:00", "Thu": "07:00-19:00", "Fri": "07:00-19:00", "Sat": "07:00-13:00"}, "phone": "0390183960", "postcode": "29410", "ref": "", "state": null, "website": "https://www.metro.de/standorte/salzwedel"},
﻿{"addr_full": "Industriestraße 14, 74589 Satteldorf", "brand": "Metro", "city": "Satteldorf", "country": "Germany", "extras": {"brand": "Metro AG", "fascia": "Metro AG", "category": "Retail", "edit_date": "20250503", "lat_lon_source": "Third Party"}, "lat": 49.1814899, "lon": 10.0741836, "name": "METRO GASTRO Satteldorf", "opening_hours": {"Mon": "07:00-18:00", "Tue": "07:00-18:00", "Wed": "07:00-18:00", "Thu": "07:00-18:00", "Fri": "07:00-18:00", "Sat": "07:00-14:00"}, "phone": "0795194630", "postcode": "74589", "ref": "", "state": null, "website": "https://www.metro.de/standorte/satteldorf"},
﻿{"addr_full": "Opelstraße 4, 39576 Stendal", "brand": "Metro", "city": "Stendal", "country": "Germany", "extras": {"brand": "Metro AG", "fascia": "Metro AG", "category": "Retail", "edit_date": "20250503", "lat_lon_source": "Third Party"}, "lat": 52.5782004, "lon": 11.8721422, "name": "METRO GASTRO Stendal", "opening_hours": {"Mon": "07:00-19:00", "Tue": "07:00-19:00", "Wed": "07:00-19:00", "Thu": "07:00-19:00", "Fri": "07:00-19:00", "Sat": "08:00-13:00"}, "phone": "0393168470", "postcode": "39576", "ref": "", "state": null, "website": "https://www.metro.de/standorte/stendal"},
﻿{"addr_full": "Monaiser Straße 1, 54294 Trier", "brand": "Metro", "city": "Trier", "country": "Germany", "extras": {"brand": "Metro AG", "fascia": "Metro AG", "category": "Retail", "edit_date": "20250503", "lat_lon_source": "Third Party"}, "lat": 49.7208614, "lon": 6.59378449999997, "name": "METRO GASTRO Trier", "opening_hours": {"Mon": "07:00-19:00", "Tue": "07:00-19:00", "Wed": "07:00-19:00", "Thu": "07:00-19:00", "Fri": "07:00-19:00", "Sat": "07:00-16:00"}, "phone": "065182580", "postcode": "54294", "ref": "", "state": null, "website": "https://www.metro.de/standorte/trier"},
﻿{"addr_full": "Im Neuen Felde 42, 29525 Uelzen", "brand": "Metro", "city": "Uelzen", "country": "Germany", "extras": {"brand": "Metro AG", "fascia": "Metro AG", "category": "Retail", "edit_date": "20250503", "lat_lon_source": "Third Party"}, "lat": 52.98182, "lon": 10.56307, "name": "METRO GASTRO Uelzen", "opening_hours": {"Mon": "07:00-19:00", "Tue": "07:00-19:00", "Wed": "07:00-19:00", "Thu": "07:00-19:00", "Fri": "07:00-19:00", "Sat": "07:00-14:00"}, "phone": "058190260", "postcode": "29525", "ref": "", "state": null, "website": "https://www.metro.de/standorte/uelzen"},
﻿{"addr_full": "Simoniusstraße 7, 88239 Wangen (Allgäu)", "brand": "Metro", "city": "Wangen", "country": "Germany", "extras": {"brand": "Metro AG", "fascia": "Metro AG", "category": "Retail", "edit_date": "20250503", "lat_lon_source": "Third Party"}, "lat": 47.68013, "lon": 9.84537, "name": "METRO GASTRO Wangen im Allgäu", "opening_hours": {"Mon": "08:00-18:00", "Tue": "08:00-18:00", "Wed": "08:00-18:00", "Thu": "08:00-18:00", "Fri": "08:00-18:00", "Sat": "08:00-14:00"}, "phone": "0752279530", "postcode": "88239", "ref": "", "state": null, "website": "https://www.metro.de/standorte/wangen"},
﻿{"addr_full": "Warendorferstraße 15,17192  Waren", "brand": "Metro", "city": "Waren", "country": "Germany", "extras": {"brand": "Metro AG", "fascia": "Metro AG", "category": "Retail", "edit_date": "20250503", "lat_lon_source": "Third Party"}, "lat": 53.5254, "lon": 12.6459, "name": "METRO GASTRO Waren", "opening_hours": {"Mon": "07:00-18:00", "Tue": "07:00-18:00", "Wed": "07:00-18:00", "Thu": "07:00-18:00", "Fri": "07:00-18:00", "Sat": "07:00-13:00"}, "phone": "0399118320", "postcode": "17192", "ref": "", "state": null, "website": "https://www.metro.de/standorte/waren"},
﻿{"addr_full": "Karpendiek 2, 23970 Kritzow/ Wismar Ost", "brand": "Metro", "city": "Kritzow", "country": "Germany", "extras": {"brand": "Metro AG", "fascia": "Metro AG", "category": "Retail", "edit_date": "20250503", "lat_lon_source": "Third Party"}, "lat": 53.88982, "lon": 11.53215, "name": "METRO GASTRO Wismar-Kritzow", "opening_hours": {"Mon": "07:00-19:00", "Tue": "07:00-19:00", "Wed": "07:00-19:00", "Thu": "07:00-19:00", "Fri": "07:00-19:00", "Sat": "07:00-13:00"}, "phone": "0384124210", "postcode": "23970", "ref": "", "state": null, "website": "https://www.metro.de/standorte/kritzow"},
﻿{"addr_full": "Krugfeld 16 (Gewerbegebiet Warmenau Nord) , 38448 Wolfsburg", "brand": "Metro", "city": "Wolfsburg", "country": "Germany", "extras": {"brand": "Metro AG", "fascia": "Metro AG", "category": "Retail", "edit_date": "20250503", "lat_lon_source": "Third Party"}, "lat": 52.4587944, "lon": 10.7473728, "name": "METRO GASTRO Wolfsburg", "opening_hours": {"Mon": "07:00-19:00", "Tue": "07:00-19:00", "Wed": "07:00-19:00", "Thu": "07:00-19:00", "Fri": "07:00-19:00", "Sat": "07:00-14:00"}, "phone": "0536182800", "postcode": "38448", "ref": "", "state": null, "website": "https://www.metro.de/standorte/wolfsburg"},
﻿{"addr_full": "Leeranerstraße 4, 17438 Wolgast", "brand": "Metro", "city": "Wolgast", "country": "Germany", "extras": {"brand": "Metro AG", "fascia": "Metro AG", "category": "Retail", "edit_date": "20250503", "lat_lon_source": "Third Party"}, "lat": 54.0461739, "lon": 13.7524951, "name": "METRO GASTRO Wolgast", "opening_hours": {"Mon": "07:00-18:00", "Tue": "07:00-18:00", "Wed": "07:00-18:00", "Thu": "07:00-18:00", "Fri": "07:00-18:00", "Sat": "07:00-13:00"}, "phone": "0383627090", "postcode": "17438", "ref": "", "state": null, "website": "https://www.metro.de/standorte/wolgast"},
﻿{"addr_full": "Industriestraße 1, 63607 Wächtersbach", "brand": "Metro", "city": "Wächtersbach", "country": "Germany", "extras": {"brand": "Metro AG", "fascia": "Metro AG", "category": "Retail", "edit_date": "20250503", "lat_lon_source": "Third Party"}, "lat": 50.2536114, "lon": 9.30033990000004, "name": "METRO GASTRO Wächtersbach", "opening_hours": {"Mon": "07:00-19:00", "Tue": "07:00-19:00", "Wed": "07:00-19:00", "Thu": "07:00-19:00", "Fri": "07:00-19:00", "Sat": "07:00-14:00"}, "phone": "0605361520", "postcode": "63607", "ref": "", "state": null, "website": "https://www.metro.de/standorte/waechtersbach"},
﻿{"addr_full": "Industriestraße 42, 79194 Gundelfingen", "brand": "Metro", "city": "Gundelfingen", "country": "Germany", "extras": {"brand": "Metro AG", "fascia": "Metro AG", "category": "Retail", "edit_date": "20250503", "lat_lon_source": "Third Party"}, "lat": 48.04671, "lon": 7.8609, "name": "METRO Gundelfingen", "opening_hours": {"Mon": "07:00-21:00", "Tue": "07:00-21:00", "Wed": "07:00-21:00", "Thu": "07:00-21:00", "Fri": "07:00-21:00", "Sat": "07:00-20:00"}, "phone": "076159090", "postcode": "79194", "ref": "", "state": null, "website": "https://www.metro.de/standorte/gundelfingen"},
﻿{"addr_full": "Plöner Straße 8, 22769 Hamburg", "brand": "Metro", "city": "Hamburg", "country": "Germany", "extras": {"brand": "Metro AG", "fascia": "Metro AG", "category": "Retail", "edit_date": "20250503", "lat_lon_source": "Third Party"}, "lat": 53.566177, "lon": 9.935243, "name": "METRO Hamburg-Altona", "opening_hours": {"Mon": "07:00-22:00", "Tue": "07:00-22:00", "Wed": "07:00-22:00", "Thu": "07:00-22:00", "Fri": "07:00-22:00", "Sat": "07:00-20:00"}, "phone": "0405238790", "postcode": "22769", "ref": "", "state": null, "website": "https://www.metro.de/standorte/hamburg-altona"},
﻿{"addr_full": "Großmoorbogen 1, 21079 Hamburg", "brand": "Metro", "city": "Hamburg", "country": "Germany", "extras": {"brand": "Metro AG", "fascia": "Metro AG", "category": "Retail", "edit_date": "20250503", "lat_lon_source": "Third Party"}, "lat": 53.46178, "lon": 10.01319, "name": "METRO Hamburg-Harburg", "opening_hours": {"Mon": "07:00-22:00", "Tue": "07:00-22:00", "Wed": "07:00-22:00", "Thu": "07:00-22:00", "Fri": "07:00-22:00", "Sat": "07:00-20:00"}, "phone": "040771720", "postcode": "21079", "ref": "", "state": null, "website": "https://www.metro.de/standorte/hamburg-harburg"},
﻿{"addr_full": "Papenreye 33, 22453 Hamburg", "brand": "Metro", "city": "Hamburg", "country": "Germany", "extras": {"brand": "Metro AG", "fascia": "Metro AG", "category": "Retail", "edit_date": "20250503", "lat_lon_source": "Third Party"}, "lat": 53.61324, "lon": 9.96581, "name": "METRO Hamburg-Niendorf", "opening_hours": {"Mon": "07:00-22:00", "Tue": "07:00-22:00", "Wed": "07:00-22:00", "Thu": "07:00-22:00", "Fri": "07:00-22:00", "Sat": "07:00-20:00"}, "phone": "040554270", "postcode": "22453", "ref": "", "state": null, "website": "https://www.metro.de/standorte/hamburg-niendorf"},
﻿{"addr_full": "Bargkoppelweg 50, 22145 Hamburg", "brand": "Metro", "city": "Hamburg", "country": "Germany", "extras": {"brand": "Metro AG", "fascia": "Metro AG", "category": "Retail", "edit_date": "20250503", "lat_lon_source": "Third Party"}, "lat": 53.6194691, "lon": 10.1548431, "name": "METRO Hamburg-Rahlstedt", "opening_hours": {"Mon": "07:00-22:00", "Tue": "07:00-22:00", "Wed": "07:00-22:00", "Thu": "07:00-22:00", "Fri": "07:00-22:00", "Sat": "07:00-20:00"}, "phone": "040679020", "postcode": "22145", "ref": "", "state": null, "website": "https://www.metro.de/standorte/hamburg-rahlstedt"},
﻿{"addr_full": "Am Tönniesberg 16-18, 30453 Hannover (Bornum)", "brand": "Metro", "city": "Hannover", "country": "Germany", "extras": {"brand": "Metro AG", "fascia": "Metro AG", "category": "Retail", "edit_date": "20250503", "lat_lon_source": "Third Party"}, "lat": 52.35177, "lon": 9.70312, "name": "METRO Hannover-Bornum", "opening_hours": {"Mon": "07:00-21:00", "Tue": "07:00-21:00", "Wed": "07:00-21:00", "Thu": "07:00-21:00", "Fri": "07:00-21:00", "Sat": "07:00-20:00"}, "phone": "051146040", "postcode": "30453", "ref": "", "state": null, "website": "https://www.metro.de/standorte/hannover-bornum"},
﻿{"addr_full": "Bannwaldallee 42, 76185 Karlsruhe", "brand": "Metro", "city": "Karlsruhe", "country": "Germany", "extras": {"brand": "Metro AG", "fascia": "Metro AG", "category": "Retail", "edit_date": "20250503", "lat_lon_source": "Third Party"}, "lat": 48.998287, "lon": 8.3701169, "name": "METRO Karlsruhe", "opening_hours": {"Mon": "07:00-21:00", "Tue": "07:00-21:00", "Wed": "07:00-21:00", "Thu": "07:00-21:00", "Fri": "07:00-21:00", "Sat": "07:00-20:00"}, "phone": "072198750", "postcode": "76185", "ref": "", "state": null, "website": "https://www.metro.de/standorte/karlsruhe"},
﻿{"addr_full": "Werner-Heisenberg-Straße 10 (Industriegebiet), 34123 Kassel", "brand": "Metro", "city": "Kassel", "country": "Germany", "extras": {"brand": "Metro AG", "fascia": "Metro AG", "category": "Retail", "edit_date": "20250503", "lat_lon_source": "Third Party"}, "lat": 51.28045, "lon": 9.49611, "name": "METRO Kassel", "opening_hours": {"Mon": "07:00-21:00", "Tue": "07:00-21:00", "Wed": "07:00-21:00", "Thu": "07:00-21:00", "Fri": "07:00-21:00", "Sat": "07:00-20:00"}, "phone": "056195880", "postcode": "34123", "ref": "", "state": null, "website": "https://www.metro.de/standorte/kassel"},
﻿{"addr_full": "Carl-Zeiss-Straße 6, 56070 Koblenz", "brand": "Metro", "city": "Koblenz", "country": "Germany", "extras": {"brand": "Metro AG", "fascia": "Metro AG", "category": "Retail", "edit_date": "20250503", "lat_lon_source": "Third Party"}, "lat": 50.387798, "lon": 7.559542, "name": "METRO Koblenz", "opening_hours": {"Mon": "06:00-21:00", "Tue": "06:00-21:00", "Wed": "06:00-21:00", "Thu": "06:00-21:00", "Fri": "06:00-21:00", "Sat": "06:00-20:00"}, "phone": "02618940", "postcode": "56070", "ref": "", "state": null, "website": "https://www.metro.de/standorte/koblenz"},
﻿{"addr_full": "Motorstraße 16-18, 70825 Korntal-Münchingen (Navigationssystem: 70499 Stuttgart/Weilimdorf)", "brand": "Metro", "city": "Korntal-Münchingen", "country": "Germany", "extras": {"brand": "Metro AG", "fascia": "Metro AG", "category": "Retail", "edit_date": "20250503", "lat_lon_source": "Third Party"}, "lat": 48.8277353, "lon": 9.1085295, "name": "METRO Korntal", "opening_hours": {"Mon": "07:00-21:00", "Tue": "07:00-21:00", "Wed": "07:00-21:00", "Thu": "07:00-21:00", "Fri": "07:00-21:00", "Sat": "07:00-20:00"}, "phone": "071183830", "postcode": "70825", "ref": "", "state": null, "website": "https://www.metro.de/standorte/korntal"},
﻿{"addr_full": "Parkstraße 200, 47829 Krefeld-Uerdingen", "brand": "Metro", "city": "Krefeld-Uerdingen", "country": "Germany", "extras": {"brand": "Metro AG", "fascia": "Metro AG", "category": "Retail", "edit_date": "20250503", "lat_lon_source": "Third Party"}, "lat": 51.37502, "lon": 6.63694, "name": "METRO Krefeld", "opening_hours": {"Mon": "07:00-22:00", "Tue": "07:00-22:00", "Wed": "07:00-22:00", "Thu": "07:00-22:00", "Fri": "07:00-22:00", "Sat": "07:00-20:00"}, "phone": "021514970", "postcode": "47829", "ref": "", "state": null, "website": "https://www.metro.de/standorte/krefeld"},
﻿{"addr_full": "Otto-Hahn-Straße 15, 50997 Köln", "brand": "Metro", "city": "Köln", "country": "Germany", "extras": {"brand": "Metro AG", "fascia": "Metro AG", "category": "Retail", "edit_date": "20250503", "lat_lon_source": "Third Party"}, "lat": 50.8579403, "lon": 6.9717666, "name": "METRO Köln", "opening_hours": {"Mon": "07:00-22:00", "Tue": "07:00-22:00", "Wed": "07:00-22:00", "Thu": "07:00-22:00", "Fri": "07:00-22:00", "Sat": "07:00-20:00"}, "phone": "0223696400", "postcode": "50997", "ref": "", "state": null, "website": "https://www.metro.de/standorte/koeln"},
﻿{"addr_full": "Lüneburger Straße 1, 30880 Laatzen", "brand": "Metro", "city": "Laatzen", "country": "Germany", "extras": {"brand": "Metro AG", "fascia": "Metro AG", "category": "Retail", "edit_date": "20250503", "lat_lon_source": "Third Party"}, "lat": 52.29447, "lon": 9.82468, "name": "METRO Laatzen", "opening_hours": {"Mon": "07:00-21:00", "Tue": "07:00-21:00", "Wed": "07:00-21:00", "Thu": "07:00-21:00", "Fri": "07:00-21:00", "Sat": "07:00-20:00"}, "phone": "051029180", "postcode": "30880", "ref": "", "state": null, "website": "https://www.metro.de/standorte/laatzen"},
﻿{"addr_full": "Geithainer Straße 62, 04328 Leipzig", "brand": "Metro", "city": "Leipzig", "country": "Germany", "extras": {"brand": "Metro AG", "fascia": "Metro AG", "category": "Retail", "edit_date": "20250503", "lat_lon_source": "Third Party"}, "lat": 51.341342, "lon": 12.4436915, "name": "METRO Leipzig", "opening_hours": {"Mon": "07:00-21:00", "Tue": "07:00-21:00", "Wed": "07:00-21:00", "Thu": "07:00-21:00", "Fri": "07:00-21:00", "Sat": "07:00-20:00"}, "phone": "034165700", "postcode": "04328", "ref": "", "state": null, "website": "https://www.metro.de/standorte/leipzig"},
﻿{"addr_full": "Syltstraße 13, 51377 Leverkusen", "brand": "Metro", "city": "Leverkusen", "country": "Germany", "extras": {"brand": "Metro AG", "fascia": "Metro AG", "category": "Retail", "edit_date": "20250503", "lat_lon_source": "Third Party"}, "lat": 51.03487, "lon": 7.01096, "name": "METRO Leverkusen", "opening_hours": {"Mon": "07:00-22:00", "Tue": "07:00-22:00", "Wed": "07:00-22:00", "Thu": "07:00-22:00", "Fri": "07:00-22:00", "Sat": "07:00-20:00"}, "phone": "021487590", "postcode": "51377", "ref": "", "state": null, "website": "https://www.metro.de/standorte/leverkusen"},
﻿{"addr_full": "Siemensstraße 7 (Gewerbegebiet an der B3), 35440 Linden", "brand": "Metro", "city": "Linden", "country": "Germany", "extras": {"brand": "Metro AG", "fascia": "Metro AG", "category": "Retail", "edit_date": "20250503", "lat_lon_source": "Third Party"}, "lat": 50.541331, "lon": 8.652683, "name": "METRO Linden", "opening_hours": {"Mon": "07:00-21:00", "Tue": "07:00-21:00", "Wed": "07:00-21:00", "Thu": "07:00-21:00", "Fri": "07:00-21:00", "Sat": "07:00-18:00"}, "phone": "064039100", "postcode": "35440", "ref": "", "state": null, "website": "https://www.metro.de/standorte/linden"},
﻿{"addr_full": "Oderstraße 2 (Im Gewerbegebiet Oggersheim-West),  67071 Ludwigshafen", "brand": "Metro", "city": "Ludwigshafen", "country": "Germany", "extras": {"brand": "Metro AG", "fascia": "Metro AG", "category": "Retail", "edit_date": "20250503", "lat_lon_source": "Third Party"}, "lat": 49.48866, "lon": 8.34764, "name": "METRO Ludwigshafen", "opening_hours": {"Mon": "07:00-22:00", "Tue": "07:00-22:00", "Wed": "07:00-22:00", "Thu": "07:00-22:00", "Fri": "07:00-22:00", "Sat": "07:00-20:00"}, "phone": "062153840", "postcode": "67071", "ref": "", "state": null, "website": "https://www.metro.de/standorte/ludwigshafen"},
﻿{"addr_full": "Werner von Siemens Ring 9, 39116 Magdeburg", "brand": "Metro", "city": "Magdeburg", "country": "Germany", "extras": {"brand": "Metro AG", "fascia": "Metro AG", "category": "Retail", "edit_date": "20250503", "lat_lon_source": "Third Party"}, "lat": 52.07878, "lon": 11.57682, "name": "METRO Magdeburg", "opening_hours": {"Mon": "07:00-21:00", "Tue": "07:00-21:00", "Wed": "07:00-21:00", "Thu": "07:00-21:00", "Fri": "07:00-21:00", "Sat": "07:00-20:00"}, "phone": "039160960", "postcode": "39116", "ref": "", "state": null, "website": "https://www.metro.de/standorte/magdeburg"},
﻿{"addr_full": "Boelckestraße 78, 55252 Mainz-Kastel", "brand": "Metro", "city": "Mainz-Kastel", "country": "Germany", "extras": {"brand": "Metro AG", "fascia": "Metro AG", "category": "Retail", "edit_date": "20250503", "lat_lon_source": "Third Party"}, "lat": 50.02203, "lon": 8.28969, "name": "METRO Mainz-Kastel", "opening_hours": {"Mon": "07:00-22:00", "Tue": "07:00-22:00", "Wed": "07:00-22:00", "Thu": "07:00-22:00", "Fri": "07:00-22:00", "Sat": "07:00-20:00"}, "phone": "061347210", "postcode": "55252", "ref": "", "state": null, "website": "https://www.metro.de/standorte/mainz-kastel"},
﻿{"addr_full": "Floßwörthstraße 30, 68199 Mannheim", "brand": "Metro", "city": "Mannheim", "country": "Germany", "extras": {"brand": "Metro AG", "fascia": "Metro AG", "category": "Retail", "edit_date": "20250503", "lat_lon_source": "Third Party"}, "lat": 49.4591939, "lon": 8.5009684, "name": "METRO Mannheim", "opening_hours": {"Mon": "07:00-22:00", "Tue": "07:00-22:00", "Wed": "07:00-22:00", "Thu": "07:00-22:00", "Fri": "07:00-22:00", "Sat": "07:00-20:00"}, "phone": "062184410", "postcode": "68199", "ref": "", "state": null, "website": "https://www.metro.de/standorte/mannheim"},
﻿{"addr_full": "Heifeskamp 32-36, 45475 Mülheim", "brand": "Metro", "city": "Mülheim", "country": "Germany", "extras": {"brand": "Metro AG", "fascia": "Metro AG", "category": "Retail", "edit_date": "20250503", "lat_lon_source": "Third Party"}, "lat": 51.45793, "lon": 6.88171, "name": "METRO Mülheim an der Ruhr", "opening_hours": {"Mon": "07:00-22:00", "Tue": "07:00-22:00", "Wed": "07:00-22:00", "Thu": "07:00-22:00", "Fri": "07:00-22:00", "Sat": "07:00-20:00"}, "phone": "020899690", "postcode": "45475", "ref": "", "state": null, "website": "https://www.metro.de/standorte/muelheim"},
﻿{"addr_full": "Helene-Wessel-Bogen 39, 80939 München", "brand": "Metro", "city": "München", "country": "Germany", "extras": {"brand": "Metro AG", "fascia": "Metro AG", "category": "Retail", "edit_date": "20250503", "lat_lon_source": "Third Party"}, "lat": 48.1943148, "lon": 11.5994071, "name": "METRO München-Freimann", "opening_hours": {"Mon": "06:00-22:00", "Tue": "06:00-22:00", "Wed": "06:00-22:00", "Thu": "06:00-22:00", "Fri": "06:00-22:00", "Sat": "06:00-20:00"}, "phone": "089316910", "postcode": "80939", "ref": "", "state": null, "website": "https://www.metro.de/standorte/muenchen-freimann"},
﻿{"addr_full": "Am Gleisdreieck 15, 81243 München", "brand": "Metro", "city": "München", "country": "Germany", "extras": {"brand": "Metro AG", "fascia": "Metro AG", "category": "Retail", "edit_date": "20250503", "lat_lon_source": "Third Party"}, "lat": 48.141577, "lon": 11.4309616, "name": "METRO München-Pasing", "opening_hours": {"Mon": "05:30-22:00", "Tue": "05:30-22:00", "Wed": "05:30-22:00", "Thu": "05:30-22:00", "Fri": "05:30-22:00", "Sat": "05:30-20:00"}, "phone": "089896970", "postcode": "81243", "ref": "", "state": null, "website": "https://www.metro.de/standorte/muenchen-pasing"},
﻿{"addr_full": "Borsigstraße 8, 89231 Neu-Ulm", "brand": "Metro", "city": "Neu-Ulm", "country": "Germany", "extras": {"brand": "Metro AG", "fascia": "Metro AG", "category": "Retail", "edit_date": "20250503", "lat_lon_source": "Third Party"}, "lat": 48.39357, "lon": 10.01942, "name": "METRO Neu-Ulm", "opening_hours": {"Mon": "07:00-21:00", "Tue": "07:00-21:00", "Wed": "07:00-21:00", "Thu": "07:00-21:00", "Fri": "07:00-21:00", "Sat": "07:00-20:00"}, "phone": "073117600", "postcode": "89231", "ref": "", "state": null, "website": "https://www.metro.de/standorte/neu-ulm"},
﻿{"addr_full": "Jagenbergstraße 6, 41468 Neuss-Grimlinghausen", "brand": "Metro", "city": "Neuss-Grimlinghausen", "country": "Germany", "extras": {"brand": "Metro AG", "fascia": "Metro AG", "category": "Retail", "edit_date": "20250503", "lat_lon_source": "Third Party"}, "lat": 51.16528, "lon": 6.75421, "name": "METRO Neuss", "opening_hours": {"Mon": "07:00-22:00", "Tue": "07:00-22:00", "Wed": "07:00-22:00", "Thu": "07:00-22:00", "Fri": "07:00-22:00", "Sat": "07:00-20:00"}, "phone": "0213152390", "postcode": "41468", "ref": "", "state": null, "website": "https://www.metro.de/standorte/neuss"},
﻿{"addr_full": "Bucher Hauptstraße 40, 90427 Nürnberg", "brand": "Metro", "city": "Nürnberg", "country": "Germany", "extras": {"brand": "Metro AG", "fascia": "Metro AG", "category": "Retail", "edit_date": "20250503", "lat_lon_source": "Third Party"}, "lat": 49.49396, "lon": 11.05119, "name": "METRO Nürnberg-Buch", "opening_hours": {"Mon": "07:00-22:00", "Tue": "07:00-22:00", "Wed": "07:00-22:00", "Thu": "07:00-22:00", "Fri": "07:00-22:00", "Sat": "07:00-20:00"}, "phone": "091199380", "postcode": "90427", "ref": "", "state": null, "website": "https://www.metro.de/standorte/nuernberg-buch"},
﻿{"addr_full": "Donaustraße 135, 90451 Nürnberg", "brand": "Metro", "city": "Nürnberg", "country": "Germany", "extras": {"brand": "Metro AG", "fascia": "Metro AG", "category": "Retail", "edit_date": "20250503", "lat_lon_source": "Third Party"}, "lat": 49.4099398, "lon": 11.0522353, "name": "METRO Nürnberg-Eibach", "opening_hours": {"Mon": "07:00-22:00", "Tue": "07:00-22:00", "Wed": "07:00-22:00", "Thu": "07:00-22:00", "Fri": "07:00-22:00", "Sat": "07:00-20:00"}, "phone": "091196300", "postcode": "90451", "ref": "", "state": null, "website": "https://www.metro.de/standorte/nuernberg-eibach"},
﻿{"addr_full": "An der Schmiede 1 (Gewerbegebiet Tweelbäke II), 26135 Oldenburg", "brand": "Metro", "city": "Oldenburg", "country": "Germany", "extras": {"brand": "Metro AG", "fascia": "Metro AG", "category": "Retail", "edit_date": "20250503", "lat_lon_source": "Third Party"}, "lat": 53.1083691, "lon": 8.2690301, "name": "METRO Oldenburg", "opening_hours": {"Mon": "07:00-22:00", "Tue": "07:00-22:00", "Wed": "07:00-22:00", "Thu": "07:00-22:00", "Fri": "07:00-22:00", "Sat": "07:00-20:00"}, "phone": "044120020", "postcode": "26135", "ref": "", "state": null, "website": "https://www.metro.de/standorte/oldenburg"},
﻿{"addr_full": "Ellernstraße 18, 32457 Porta Westfalica", "brand": "Metro", "city": "Porta Westfalica", "country": "Germany", "extras": {"brand": "Metro AG", "fascia": "Metro AG", "category": "Retail", "edit_date": "20250503", "lat_lon_source": "Third Party"}, "lat": 52.213243, "lon": 8.880052, "name": "METRO Porta Westfalica", "opening_hours": {"Mon": "07:00-21:00", "Tue": "07:00-21:00", "Wed": "07:00-21:00", "Thu": "07:00-21:00", "Fri": "07:00-21:00", "Sat": "07:00-20:00"}, "phone": "057312430", "postcode": "32457", "ref": "", "state": null, "website": "https://www.metro.de/standorte/porta-westfalica"},
﻿{"addr_full": "Querstraße 53, 45661 Recklinghausen", "brand": "Metro", "city": "Recklinghausen", "country": "Germany", "extras": {"brand": "Metro AG", "fascia": "Metro AG", "category": "Retail", "edit_date": "20250503", "lat_lon_source": "Third Party"}, "lat": 51.58073, "lon": 7.18781, "name": "METRO Recklinghausen", "opening_hours": {"Mon": "07:00-22:00", "Tue": "07:00-22:00", "Wed": "07:00-22:00", "Thu": "07:00-22:00", "Fri": "07:00-22:00", "Sat": "07:00-20:00"}, "phone": "023616020", "postcode": "45661", "ref": "", "state": null, "website": "https://www.metro.de/standorte/recklinghausen"},
﻿{"addr_full": "Bajuwarenstraße 11, 93053 Regensburg", "brand": "Metro", "city": "Regensburg", "country": "Germany", "extras": {"brand": "Metro AG", "fascia": "Metro AG", "category": "Retail", "edit_date": "20250503", "lat_lon_source": "Third Party"}, "lat": 48.9954928, "lon": 12.11916, "name": "METRO Regensburg", "opening_hours": {"Mon": "07:00-21:00", "Tue": "07:00-21:00", "Wed": "07:00-21:00", "Thu": "07:00-21:00", "Fri": "07:00-21:00", "Sat": "07:00-20:00"}, "phone": "094146050", "postcode": "93053", "ref": "", "state": null, "website": "https://www.metro.de/standorte/regensburg"},
﻿{"addr_full": "Camphauser Straße 4, 66125 Dudweiler", "brand": "Metro", "city": "Dudweiler", "country": "Germany", "extras": {"brand": "Metro AG", "fascia": "Metro AG", "category": "Retail", "edit_date": "20250503", "lat_lon_source": "Third Party"}, "lat": 49.28819, "lon": 7.02479, "name": "METRO Saarbrücken", "opening_hours": {"Mon": "07:00-21:00", "Tue": "07:00-21:00", "Wed": "07:00-21:00", "Thu": "07:00-21:00", "Fri": "07:00-21:00", "Sat": "07:00-20:00"}, "phone": "068979550", "postcode": "66125", "ref": "", "state": null, "website": "https://www.metro.de/standorte/saarbruecken"},
﻿{"addr_full": "Einsteinstraße 28, 53757 St. Augustin", "brand": "Metro", "city": "St", "country": "Germany", "extras": {"brand": "Metro AG", "fascia": "Metro AG", "category": "Retail", "edit_date": "20250503", "lat_lon_source": "Third Party"}, "lat": 50.79137, "lon": 7.18072, "name": "METRO Sankt Augustin", "opening_hours": {"Mon": "07:00-22:00", "Tue": "07:00-22:00", "Wed": "07:00-22:00", "Thu": "07:00-22:00", "Fri": "07:00-22:00", "Sat": "07:00-20:00"}, "phone": "022419890", "postcode": "53757", "ref": "", "state": null, "website": "https://www.metro.de/standorte/sankt-augustin"},
﻿{"addr_full": "Saarstraße 9, 58332 Schwelm", "brand": "Metro", "city": "Schwelm", "country": "Germany", "extras": {"brand": "Metro AG", "fascia": "Metro AG", "category": "Retail", "edit_date": "20250503", "lat_lon_source": "Third Party"}, "lat": 51.288828, "lon": 7.273433, "name": "METRO Schwelm", "opening_hours": {"Mon": "06:00-22:00", "Tue": "06:00-22:00", "Wed": "06:00-22:00", "Thu": "06:00-22:00", "Fri": "06:00-22:00", "Sat": "06:00-20:00"}, "phone": "0233680490", "postcode": "58332", "ref": "", "state": null, "website": "https://www.metro.de/standorte/schwelm"},
﻿{"addr_full": "Grünauer Straße 5, 12529 Schönefeld", "brand": "Metro", "city": "Schönefeld", "country": "Germany", "extras": {"brand": "Metro AG", "fascia": "Metro AG", "category": "Retail", "edit_date": "20250503", "lat_lon_source": "Third Party"}, "lat": 52.375554, "lon": 13.5645943, "name": "METRO Schönefeld", "opening_hours": {"Mon": "07:00-20:00", "Tue": "07:00- 20:00", "Wed": "07:00- 20:00", "Thu": "07:00- 20:00", "Fri": "07:00- 20:00", "Sat": "07:00- 20:00"}, "phone": "0306331490", "postcode": "12529", "ref": "", "state": null, "website": "https://www.metro.de/standorte/schoenefeld"},
﻿{"addr_full": "Eiserfelder Straße 176, 57072 Siegen", "brand": "Metro", "city": "Siegen", "country": "Germany", "extras": {"brand": "Metro AG", "fascia": "Metro AG", "category": "Retail", "edit_date": "20250503", "lat_lon_source": "Third Party"}, "lat": 50.855269, "lon": 8.008856, "name": "METRO Siegen", "opening_hours": {"Mon": "07:00-21:00", "Tue": "07:00-21:00", "Wed": "07:00-21:00", "Thu": "07:00-21:00", "Fri": "07:00-21:00", "Sat": "07:00-20:00"}, "phone": "027131330", "postcode": "57072", "ref": "", "state": null, "website": "https://www.metro.de/standorte/siegen"},
﻿{"addr_full": "Im Rödling 8, 64331 Weiterstadt", "brand": "Metro", "city": "Weiterstadt", "country": "Germany", "extras": {"brand": "Metro AG", "fascia": "Metro AG", "category": "Retail", "edit_date": "20250503", "lat_lon_source": "Third Party"}, "lat": 49.89535, "lon": 8.60195, "name": "METRO Weiterstadt", "opening_hours": {"Mon": "07:00-21:00", "Tue": "07:00-21:00", "Wed": "07:00-21:00", "Thu": "07:00-21:00", "Fri": "07:00-21:00", "Sat": "07:00-20:00"}, "phone": "061501850", "postcode": "64331", "ref": "", "state": null, "website": "https://www.metro.de/standorte/weiterstadt"},
﻿{"addr_full": "Schumanstraße 6, 52146 Würselen", "brand": "Metro", "city": "Würselen", "country": "Germany", "extras": {"brand": "Metro AG", "fascia": "Metro AG", "category": "Retail", "edit_date": "20250503", "lat_lon_source": "Third Party"}, "lat": 50.80883, "lon": 6.15518, "name": "METRO Würselen", "opening_hours": {"Mon": "07:00-21:00", "Tue": "07:00-21:00", "Wed": "07:00-21:00", "Thu": "07:00-21:00", "Fri": "07:00-21:00", "Sat": "07:00-20:00"}, "phone": "024054420", "postcode": "52146", "ref": "", "state": null, "website": "https://www.metro.de/standorte/wuerselen"}
]