[
﻿{"url": "https://www.mixmarkt.eu/en/germany/stores/334/", "country": "Germany", "city": "Bad Krozingen", "latitude": "47.9177300", "longitude": "7.7039200", "title": "Mini Mix, Bad Krozingen", "description": "Staufener Str.30 79189 Bad Krozingen", "phone": "Phone: 07633 9290182", "opening_times": "Mo-Fr. 9.00-19.00"},
﻿{"url": "https://www.mixmarkt.eu/en/germany/stores/341/", "country": "Germany", "city": "Günzburg", "latitude": "48.4575922", "longitude": "10.2796250", "title": "Mini Mix, Günzburg", "description": "Dillinger Str. 9 89312 Günzburg", "phone": "Phone: 08221 9638151", "opening_times": "Mo-Fr. 9.00-19.00"},
﻿{"url": "https://www.mixmarkt.eu/en/germany/stores/348/", "country": "Germany", "city": "Düsseldorf", "latitude": "51.1448593", "longitude": "6.8998608", "title": "Mini Mix, Düsseldorf", "description": "Fritz-Erler-Strasse 16 40595 Düsseldorf", "phone": "Phone: 0211 17909690", "opening_times": "Montag – Freitag 9.00 – 19.00"},
﻿{"url": "https://www.mixmarkt.eu/en/germany/stores/353/", "country": "Germany", "city": "Erftstadt", "latitude": "50.8027100", "longitude": "6.8152800", "title": "Mini Mix, Erftstadt", "description": "Holzdamm 8 50374 Erftstadt", "phone": "Phone: 02235 9898652", "opening_times": "Mo-Fr. 9.00 - 19.00"},
﻿{"url": "https://www.mixmarkt.eu/en/germany/stores/302/", "country": "Germany", "city": "Peine/Stederdorf", "latitude": "52.3474621", "longitude": "10.2468395", "title": "Mini Mix, Peine/Stederdorf", "description": "Konsumstr.23 31228 Peine/Stederdorf", "phone": "Phone: 05171 9409800", "opening_times": "Mo-Fr.. 9.30-18.30"},
﻿{"url": "https://www.mixmarkt.eu/en/germany/stores/377/", "country": "Germany", "city": "Düsseldorf", "latitude": "0.00", "longitude": "", "title": "Mini Mix, Düsseldorf", "description": "Henkelstr. 295 40599 Düsseldorf", "phone": "Phone:", "opening_times": "Mo-Fr: 08.00 - 20.00"},
﻿{"url": "https://www.mixmarkt.eu/en/germany/stores/342/", "country": "Germany", "city": "Bad Neustadt an der Saale", "latitude": "50.3206300", "longitude": "10.1977900", "title": "Mini Mix, Bad Neustadt", "description": "Saalestr. 1 97616 Bad Neustadt an der Saale", "phone": "Phone: 09771 6877860", "opening_times": "Mo-Fr 8:00-19:00"},
﻿{"url": "https://www.mixmarkt.eu/en/germany/stores/333/", "country": "Germany", "city": "Bitburg", "latitude": "49.9675152", "longitude": "6.5246085", "title": "Mini Mix, Bitburg", "description": "Mötscher Str.14 54634 Bitburg", "phone": "Phone: 06561 67591", "opening_times": "Mo–Fr 9.00 – 19.00"},
﻿{"url": "https://www.mixmarkt.eu/en/germany/stores/364/", "country": "Germany", "city": "Rotenburg (Wümme)", "latitude": "53.1078187", "longitude": "9.3987686", "title": "Mini Mix, Rotenburg (Wümme)", "description": "Mühlenstraße 5 27356 Rotenburg (Wümme)", "phone": "Phone: 04261 2125", "opening_times": "Mo-Fr 9.00-19.00"},
﻿{"url": "https://www.mixmarkt.eu/en/germany/stores/39/", "country": "Germany", "city": "Düren", "latitude": "50.8101500", "longitude": "6.4861000", "title": "Mix Markt, Düren", "description": "Arnoldsweilerstr. 31 52351 Düren", "phone": "Phone: 02421 204682", "opening_times": "Mo - Sa 9.00 - 19.00"},
﻿{"url": "https://www.mixmarkt.eu/en/germany/stores/158/", "country": "Germany", "city": "Ansbach", "latitude": "49.297222", "longitude": "10.568333", "title": "Mix Markt, Ansbach", "description": "Benzstr. 3 91522 Ansbach", "phone": "Phone: 0981 6505804", "opening_times": "Mo-F. 9.00-19.00"},
﻿{"url": "https://www.mixmarkt.eu/en/germany/stores/184/", "country": "Germany", "city": "Amberg", "latitude": "49.4376800", "longitude": "11.8773700", "title": "Mix Markt, Amberg", "description": "Schwindstraße 1 92224 Amberg", "phone": "Phone: 09621 470498", "opening_times": "Mo - Sa: 9:00 - 20:00"},
﻿{"url": "https://www.mixmarkt.eu/en/germany/stores/19/", "country": "Germany", "city": "Duisburg", "latitude": "51.4664100", "longitude": "6.7927500", "title": "Mix Markt, Duisburg", "description": "Emmericher Str. 143 47138 Duisburg", "phone": "Phone: 0203 4103366", "opening_times": "Mo - Fr 9.00-20.00"},
﻿{"url": "https://www.mixmarkt.eu/en/germany/stores/37/", "country": "Germany", "city": "Elmshorn", "latitude": "53.7413700", "longitude": "9.6708500", "title": "Mix Markt, Elmshorn", "description": "Hainholzer Damm 21 25337 Elmshorn", "phone": "Phone: 04121 7807788", "opening_times": "Mo - Fr 9.00 - 19.00"},
﻿{"url": "https://www.mixmarkt.eu/en/germany/stores/152/", "country": "Germany", "city": "Dresden", "latitude": "51.0430658", "longitude": "13.6788833", "title": "Mix Markt, Dresden", "description": "Amalie-Dietrich-Platz 6 01169 Dresden", "phone": "Phone: 0351 43848421", "opening_times": "Mo-Sa. 9.00 - 19.00"},
﻿{"url": "https://www.mixmarkt.eu/en/germany/stores/176/", "country": "Germany", "city": "Dortmund", "latitude": "51.5232277", "longitude": "7.5444459", "title": "Mix Markt, Dortmund", "description": "Brackeler Hellweg 117 44309 Dortmund", "phone": "Phone: 0231 58939163", "opening_times": "Mo-Fr: 09.00 - 19.00 Uhr"},
﻿{"url": "https://www.mixmarkt.eu/en/germany/stores/24/", "country": "Germany", "city": "Detmold", "latitude": "51.9424000", "longitude": "8.8424900", "title": "Mix Markt, Detmold", "description": "Bielefelder Straße 235 32758 Detmold", "phone": "Phone: 05231 9619-19", "opening_times": "Mo - Fr. 9.00 - 19.00"},
﻿{"url": "https://www.mixmarkt.eu/en/germany/stores/222/", "country": "Germany", "city": "Berlin", "latitude": "52.5326363", "longitude": "13.1554824", "title": "Mix Markt, Berlin", "description": "Brunsbütteler Damm 273 13591 Berlin", "phone": "Phone: 030 77322931", "opening_times": "Öffnungszeiten:"},
﻿{"url": "https://www.mixmarkt.eu/en/germany/stores/136/", "country": "Germany", "city": "Delmenhorst", "latitude": "53.0487652", "longitude": "8.6102040", "title": "Mix Markt, Delmenhorst", "description": "Oldenburger Straße 65 27753 Delmenhorst", "phone": "Phone: 04221 8008590", "opening_times": "Mo-Fr. 9.00 - 19.00"},
﻿{"url": "https://www.mixmarkt.eu/en/germany/stores/167/", "country": "Germany", "city": "Friedrichshafen", "latitude": "47.6724916", "longitude": "9.4913381", "title": "Mix Markt, Friedrichshafen", "description": "Donaustraße  13 88046 Friedrichshafen", "phone": "Phone: 07541 9414225", "opening_times": "Mo-Sa: 09.00-20.00"},
﻿{"url": "https://www.mixmarkt.eu/en/germany/stores/69/", "country": "Germany", "city": "Gummersbach", "latitude": "51.0228564", "longitude": "7.5766380", "title": "Mix Markt, Gummersbach", "description": "Wiesenstr. 20-24 51643 Gummersbach", "phone": "Phone: 02261 2908849", "opening_times": "Mo - Fr 8.00 - 19.00"},
﻿{"url": "https://www.mixmarkt.eu/en/germany/stores/120/", "country": "Germany", "city": "Erkelenz", "latitude": "51.0762817", "longitude": "6.3020337", "title": "Mix Markt, Erkelenz", "description": "Adam-Opel-Straße 2 41812 Erkelenz", "phone": "Phone: 02431 9710851", "opening_times": "Mo-Sa: 09.00 - 19.00 Uhr"},
﻿{"url": "https://www.mixmarkt.eu/en/germany/stores/175/", "country": "Germany", "city": "Freiburg", "latitude": "47.9943761", "longitude": "7.808593", "title": "Mix Markt, Freiburg", "description": "Krozinger Str. 7-11 79114 Freiburg", "phone": "Phone: 0761 1375376", "opening_times": "Mo-Sa: 08.00 - 20.00"},
﻿{"url": "https://www.mixmarkt.eu/en/germany/stores/172/", "country": "Germany", "city": "Chemnitz ", "latitude": "50.7920087", "longitude": "12.8929524", "title": "Mix Markt, Chemnitz", "description": "Markersdorfer Str. 96  09123 Chemnitz ", "phone": "Phone: 0371 77418970", "opening_times": "Mo-Fr: 09.00 - 19.00"},
﻿{"url": "https://www.mixmarkt.eu/en/germany/stores/154/", "country": "Germany", "city": "Erfurt", "latitude": "51.0027482", "longitude": "11.0202484", "title": "Mix Markt, Erfurt", "description": "Riethstr.1a 99089 Erfurt", "phone": "Phone: 0361 65435788", "opening_times": "Mo-Fr. 9.00-19.00"},
﻿{"url": "https://www.mixmarkt.eu/en/germany/stores/52/", "country": "Germany", "city": "Bremen", "latitude": "53.0819400", "longitude": "8.8932300", "title": "Mix Markt, Bremen-Vahr", "description": "Berliner Freiheit 9b 28327 Bremen", "phone": "Phone: 0421 4684927", "opening_times": "Mo - Fr. 9.00 - 19.00"},
﻿{"url": "https://www.mixmarkt.eu/en/germany/stores/54/", "country": "Germany", "city": "Braunschweig", "latitude": "52.2422000", "longitude": "10.4811300", "title": "Mix Markt, Braunschweig", "description": "Illerstraße 61a/62 38120 Braunschweig", "phone": "Phone: 0531 87440814", "opening_times": "Mo.-Fr. 8-20 Uhr"},
﻿{"url": "https://www.mixmarkt.eu/en/germany/stores/48/", "country": "Germany", "city": "Bochum", "latitude": "51.5002934", "longitude": "7.2821578", "title": "Mix Markt, Bochum-Harpen", "description": "Harpener Hellweg 137 44805 Bochum", "phone": "Phone: 0234 6104644", "opening_times": "Mo - Fr 9.00 - 19.00"},
﻿{"url": "https://www.mixmarkt.eu/en/germany/stores/31/", "country": "Germany", "city": "Böblingen", "latitude": "48.6767492", "longitude": "9.0034642", "title": "Mix Markt, Böblingen", "description": "Goerdelerstr. 1 71034 Böblingen", "phone": "Phone: 07031 439817", "opening_times": "Mo - Sa 8.00 - 20.00"},
﻿{"url": "https://www.mixmarkt.eu/en/germany/stores/147/", "country": "Germany", "city": "Blomberg", "latitude": "51.9463700", "longitude": "9.0906500", "title": "Mix Markt, Blomberg", "description": "Neue Torstr. 48a 32825 Blomberg", "phone": "Phone: 05235 5090422", "opening_times": "Mo - Fr 9.00 - 19.00"},
﻿{"url": "https://www.mixmarkt.eu/en/germany/stores/59/", "country": "Germany", "city": "Bonn", "latitude": "50.7468055", "longitude": "7.0618032", "title": "Mix Markt, Bonn", "description": "Schneidemühler Straße 1 53119 Bonn", "phone": "Phone: 0228 2428310", "opening_times": "Mo - Fr 8.00 - 19.00"},
﻿{"url": "https://www.mixmarkt.eu/en/germany/stores/51/", "country": "Germany", "city": "Bielefeld", "latitude": "52.0403978", "longitude": "8.5438390", "title": "Mix Markt, Bielefeld", "description": "Beckhausstraße 72 33611 Bielefeld", "phone": "Phone: 0521 1364112", "opening_times": "Mo - Fr. 9.00 - 19.00"},
﻿{"url": "https://www.mixmarkt.eu/en/germany/stores/203/", "country": "Germany", "city": "Dresden", "latitude": "51.0178674", "longitude": "13.7778186", "title": "Mix Markt, Dresden", "description": "Otto -Dix-Ring 100 01219 Dresden", "phone": "Phone: 0351 20437229", "opening_times": "Mo-Sa: 09.00 - 19.00"},
﻿{"url": "https://www.mixmarkt.eu/en/germany/stores/183/", "country": "Germany", "city": "Deggendorf", "latitude": "48.8292262", "longitude": "12.9589647", "title": "Mix Markt, Deggendorf", "description": "Hans-Krämer-Str.24  94469 Deggendorf", "phone": "Phone: 0991 99137373", "opening_times": "Mo-Sa: 09.00 - 20.00"},
﻿{"url": "https://www.mixmarkt.eu/en/germany/stores/102/", "country": "Germany", "city": "Bünde", "latitude": "52.2034100", "longitude": "8.5624951", "title": "Mix Markt, Bünde", "description": "Holser Str. 33 32257 Bünde", "phone": "Phone: 05223 1897905", "opening_times": "Mo - Fr. 9.00 - 19.00"},
﻿{"url": "https://www.mixmarkt.eu/en/germany/stores/171/", "country": "Germany", "city": "Fürth", "latitude": "49.464074", "longitude": "10.9861733", "title": "Mix Markt, Fürth", "description": "Schwabacher Str. 137 90763 Fürth", "phone": "Phone: 0911 78720249", "opening_times": "Mo-Fr: 09.00-20.00"},
﻿{"url": "https://www.mixmarkt.eu/en/germany/stores/213/", "country": "Germany", "city": "Eisenach", "latitude": "50.976953", "longitude": "10.30944", "title": "Mix Markt, Eisenach", "description": "Katharinenstr. 78 99817 Eisenach", "phone": "Phone:", "opening_times": "Mo.-Fr. 09:00-19:00"},
﻿{"url": "https://www.mixmarkt.eu/en/germany/stores/151/", "country": "Germany", "city": "Fulda", "latitude": "50.545833", "longitude": "9.699264", "title": "Mix Markt, Fulda", "description": "Michael-Henkel-Strasse 16 36043 Fulda", "phone": "Phone: 0661 9338748", "opening_times": "Mo - Sa  09.00 - 19.00"},
﻿{"url": "https://www.mixmarkt.eu/en/germany/stores/162/", "country": "Germany", "city": "Fürth", "latitude": "49.4824902", "longitude": "10.9550198", "title": "Mix Markt, Fürth", "description": "Voltastraße 9 90766 Fürth", "phone": "Phone: 0911 97499740", "opening_times": "Mo-Sa: 09.00 - 20.00 Uhr"},
﻿{"url": "https://www.mixmarkt.eu/en/germany/stores/211/", "country": "Germany", "city": "Espelkamp", "latitude": "52.373575", "longitude": "8.628092", "title": "Mix Markt, Espelkamp", "description": "Am Hügel 23-25 32339 Espelkamp", "phone": "Phone: 05772 9168423", "opening_times": "Öffnungszeiten:"},
﻿{"url": "https://www.mixmarkt.eu/en/germany/stores/177/", "country": "Germany", "city": "Essen", "latitude": "51.4591651", "longitude": "6.9834878", "title": "Mix Markt, Essen", "description": "Altendorfer Str. 241-245 45143 Essen", "phone": "Phone: 0201 86940095", "opening_times": "Mo-Sa: 09.00 - 20.00"},
﻿{"url": "https://www.mixmarkt.eu/en/germany/stores/220/", "country": "Germany", "city": "Baden", "latitude": "48.7552129", "longitude": "8.2434671", "title": "Mix Markt, Baden-Baden", "description": "Lichtentaler Str. 66 76530 Baden", "phone": "Phone: 07221 3967069", "opening_times": "Mo-Sa: 09.00-20.00"},
﻿{"url": "https://www.mixmarkt.eu/en/germany/stores/55/", "country": "Germany", "city": "Gießen", "latitude": "50.5963700", "longitude": "8.6886300", "title": "Mix Markt, Gießen", "description": "Bantzerweg 1 35396 Gießen", "phone": "Phone: 0641 9312827", "opening_times": "Mo - Fr 9.00 - 20.00"},
﻿{"url": "https://www.mixmarkt.eu/en/germany/stores/95/", "country": "Germany", "city": "Euskirchen", "latitude": "50.6547100", "longitude": "6.7972600", "title": "Mix Markt, Euskirchen", "description": "An der Vogelrute 36 53879 Euskirchen", "phone": "Phone: 02251 625670", "opening_times": "Mo-Fr  9.00 - 19.00"},
﻿{"url": "https://www.mixmarkt.eu/en/germany/stores/74/", "country": "Germany", "city": "Weingarten", "latitude": "47.8151318", "longitude": "9.6275422", "title": "Mix Markt, Weingarten", "description": "Boschstr. 10 88250 Weingarten", "phone": "Phone: 0751 56994275", "opening_times": "Mo - Sa 09.00 - 20.00"},
﻿{"url": "https://www.mixmarkt.eu/en/germany/stores/202/", "country": "Germany", "city": "Gotha", "latitude": "50.95521", "longitude": "10.71198", "title": "Mix Markt, Gotha", "description": "Reuterstraße 7 99867 Gotha", "phone": "Phone: 03621 7364940", "opening_times": "Mo.-Fr. 09:00-19:00"},
﻿{"url": "https://www.mixmarkt.eu/en/germany/stores/62/", "country": "Germany", "city": "Göttingen", "latitude": "51.5328284", "longitude": "9.8948756", "title": "Mix Markt, Göttingen", "description": "Backhausstraße 21-23 37081 Göttingen", "phone": "Phone: 0551 5096306", "opening_times": "Mo - Fr 8.00 - 19.00"},
﻿{"url": "https://www.mixmarkt.eu/en/germany/stores/219/", "country": "Germany", "city": "Arnsberg", "latitude": "51.449139", "longitude": "7.968303", "title": "Mix Markt, Arnsberg", "description": "Engelbertstr.16 59755 Arnsberg", "phone": "Phone: 02932 9311227", "opening_times": "Mo-Fr: 8.00 - 19.00 Uhr"},
﻿{"url": "https://www.mixmarkt.eu/en/germany/stores/134/", "country": "Germany", "city": "Leer", "latitude": "53.2344300", "longitude": "7.4525100", "title": "Mix Markt, Leer", "description": "Heisfelder Straße 83 26789 Leer", "phone": "Phone: 0491 97110720", "opening_times": "Mo-Fr. 9.00 - 19.00"},
﻿{"url": "https://www.mixmarkt.eu/en/germany/stores/165/", "country": "Germany", "city": "Gelnhausen", "latitude": "50.18826", "longitude": "9.18605", "title": "Mix Markt, Gelnhausen", "description": "Im Steinigen Graben 36 63571 Gelnhausen", "phone": "Phone: 06051 9719236", "opening_times": "Mo - Sa 9.00-20.00"},
﻿{"url": "https://www.mixmarkt.eu/en/germany/stores/15/", "country": "Germany", "city": "Bad Dürrheim", "latitude": "48.0313800", "longitude": "8.5277900", "title": "Mix Markt, Bad Dürrheim", "description": "Carl-Friedrich-Benz-Straße 17 78073 Bad Dürrheim", "phone": "Phone: 07726 928412", "opening_times": "Mo - Sa 9.00 - 20.00"},
﻿{"url": "https://www.mixmarkt.eu/en/germany/stores/30/", "country": "Germany", "city": "Göppingen", "latitude": "48.7043500", "longitude": "9.6638600", "title": "Mix Markt, Göppingen", "description": "Hohenstaufenstr.18-20 73033 Göppingen", "phone": "Phone: 07161 9564104", "opening_times": "Mo-Sa: 09.00-20.00"},
﻿{"url": "https://www.mixmarkt.eu/en/germany/stores/29/", "country": "Germany", "city": "Hamburg", "latitude": "53.4893422", "longitude": "10.1826671", "title": "Mix Markt, Hamburg-Bergedorf", "description": "Friedrich-Frank-Bogen 81 21033 Hamburg", "phone": "Phone: 040 51327645", "opening_times": "Mo - Fr: 9:00 - 19:00"},
﻿{"url": "https://www.mixmarkt.eu/en/germany/stores/12/", "country": "Germany", "city": "Hannover", "latitude": "52.3999700", "longitude": "9.8285000", "title": "Mix Markt, Hannover", "description": "Schierholzstr. 128 30655 Hannover", "phone": "Phone: 0511 5859848", "opening_times": "Mo - Sa: 09.00 - 19.00 Uhr"},
﻿{"url": "https://www.mixmarkt.eu/en/germany/stores/9/", "country": "Germany", "city": "Hamburg", "latitude": "53.6013600", "longitude": "9.8848300", "title": "Mix Markt, Hamburg-Lurup", "description": "Spreestr.12 22547 Hamburg", "phone": "Phone: 040 80010615", "opening_times": "Mo - Fr 9.00 - 19.00"},
﻿{"url": "https://www.mixmarkt.eu/en/germany/stores/196/", "country": "Germany", "city": "Hallstadt", "latitude": "49.9160185", "longitude": "10.8651364", "title": "Mix Markt, Hallstadt", "description": "Emil-Kemmer-Str.9a 96103 Hallstadt", "phone": "Phone: 0951 96842494", "opening_times": "Mo-Fr: 09.00-20.00"},
﻿{"url": "https://www.mixmarkt.eu/en/germany/stores/106/", "country": "Germany", "city": "Gütersloh", "latitude": "51.9146567", "longitude": "8.3908437", "title": "Mix Markt, Gütersloh", "description": "Pfälzer Str.2 33332 Gütersloh", "phone": "Phone: 05241 307842", "opening_times": "Mo - Fr 9.00 - 19.00"},
﻿{"url": "https://www.mixmarkt.eu/en/germany/stores/98/", "country": "Germany", "city": "Hamburg", "latitude": "53.5851695", "longitude": "10.1226634", "title": "Mix Markt, Hamburg", "description": "Tonndorfer Hauptstraße 66 22045  Hamburg", "phone": "Phone: 040 66935430", "opening_times": "Mo-Fr. 9:00-19:00"},
﻿{"url": "https://www.mixmarkt.eu/en/germany/stores/67/", "country": "Germany", "city": "Hamm", "latitude": "51.6921508", "longitude": "7.8034536", "title": "Mix Markt, Hamm", "description": "Großer Sandweg 23 59065 Hamm", "phone": "Phone: 02381 4825141", "opening_times": "Mo - Fr. 9.00 - 19.00"},
﻿{"url": "https://www.mixmarkt.eu/en/germany/stores/18/", "country": "Germany", "city": "Hannover", "latitude": "52.4111500", "longitude": "9.7497000", "title": "Mix Markt, Hannover-Vahrenheide", "description": "Vahrenheider Markt 6 30179 Hannover", "phone": "Phone: 0511 2619855", "opening_times": "Mo - Fr 9.00 - 19.00"},
﻿{"url": "https://www.mixmarkt.eu/en/germany/stores/93/", "country": "Germany", "city": "Ingolstadt", "latitude": "48.7761200", "longitude": "11.4049700", "title": "Mini Mix, Ingolstadt", "description": "Liebigstr.2g 85057 Ingolstadt", "phone": "Phone: 0841 99389850", "opening_times": "Mo-Fr: 09.00-19.00"},
﻿{"url": "https://www.mixmarkt.eu/en/germany/stores/199/", "country": "Germany", "city": "Herne", "latitude": "51.5506665", "longitude": "7.2209108", "title": "Mix Markt, Herne", "description": "Roonstr. 23a 44629 Herne", "phone": "Phone: 02323 9467953", "opening_times": "Mo-Sa: 09.00-20.00 Uhr"},
﻿{"url": "https://www.mixmarkt.eu/en/germany/stores/61/", "country": "Germany", "city": "Harrislee", "latitude": "54.8051600", "longitude": "9.3880300", "title": "Mix Markt, Harrislee", "description": "Holmberg 23 24955 Harrislee", "phone": "Phone: 0461 9957545", "opening_times": "Mo - Sa 08.00 - 19.00"},
﻿{"url": "https://www.mixmarkt.eu/en/germany/stores/182/", "country": "Germany", "city": "Halle", "latitude": "51.481356", "longitude": "11.923265", "title": "Mini Mix, Halle", "description": "Albert-Einstein-Str. 25 06122 Halle", "phone": "Phone:", "opening_times": "Mo-Fr. 8.00-19.00"},
﻿{"url": "https://www.mixmarkt.eu/en/germany/stores/174/", "country": "Germany", "city": "Hattersheim ", "latitude": "50.0727356", "longitude": "8.4965521", "title": "Mix Markt, Hattersheim", "description": "Königsberger Str. 1  65795 Hattersheim ", "phone": "Phone: 06190 933712", "opening_times": "Mo-Sa: 09.00 - 20.00 Uhr"},
﻿{"url": "https://www.mixmarkt.eu/en/germany/stores/22/", "country": "Germany", "city": "Heidenheim", "latitude": "48.6767100", "longitude": "10.1609300", "title": "Mix Markt, Heidenheim", "description": "Friedrich-Ebert-Straße 17 89522 Heidenheim", "phone": "Phone: 07321 277879", "opening_times": "Mo - Sa 9.00 - 20.00"},
﻿{"url": "https://www.mixmarkt.eu/en/germany/stores/53/", "country": "Germany", "city": "Darmstadt", "latitude": "49.8960500", "longitude": "8.6800700", "title": "Mix Markt, Darmstadt", "description": "Siemensstraße 2-16 64289 Darmstadt", "phone": "Phone: 06151 9615314", "opening_times": "Mo - Sa 9.00 - 20.00"},
﻿{"url": "https://www.mixmarkt.eu/en/germany/stores/3/", "country": "Germany", "city": "Heilbronn", "latitude": "49.1456299", "longitude": "9.1822955", "title": "Mix Markt, Heilbronn", "description": "Sinsheimer Straße 7 - 11 74080 Heilbronn", "phone": "Phone: 07131 5945885", "opening_times": "Mo - Sa 9.00 - 20.00"},
﻿{"url": "https://www.mixmarkt.eu/en/germany/stores/105/", "country": "Germany", "city": "Crailsheim", "latitude": "49.1304088", "longitude": "10.0841856", "title": "Mix Markt, Crailsheim", "description": "Konrad-Adenauer-Straße 1-3 74564 Crailsheim", "phone": "Phone: 07951 2970204", "opening_times": "Mo - Sa: 09:00 - 20:00"},
﻿{"url": "https://www.mixmarkt.eu/en/germany/stores/194/", "country": "Germany", "city": "Heinsberg", "latitude": "51.040443", "longitude": "6.144147", "title": "Mix Markt, Heinsberg", "description": "Sebastianusstraße 31 52525 Heinsberg", "phone": "Phone: 02452 1560417", "opening_times": "Mo-Sa: 09.00 - 20.00 Uhr"},
﻿{"url": "https://www.mixmarkt.eu/en/germany/stores/64/", "country": "Germany", "city": "Herford", "latitude": "52.1357400", "longitude": "8.6953500", "title": "Mix Markt, Herford", "description": "Magdeburger Str.23 32049 Herford", "phone": "Phone: 05221 7636794", "opening_times": "Mo - Fr 9.00 - 19.00"},
﻿{"url": "https://www.mixmarkt.eu/en/germany/stores/83/", "country": "Germany", "city": "Idar", "latitude": "49.7359200", "longitude": "7.2829000", "title": "Mix Markt, Idar-Oberstein", "description": "Tiefensteiner Str.197 55743 Idar", "phone": "Phone: 06781 5626863", "opening_times": "Mo - Sa 9.00 - 20.00"},
﻿{"url": "https://www.mixmarkt.eu/en/germany/stores/38/", "country": "Germany", "city": "Hildesheim", "latitude": "52.1627200", "longitude": "9.9640800", "title": "Mix Markt, Hildesheim", "description": "Drispenstedter Str. 6 31135 Hildesheim", "phone": "Phone: 05121 2061040", "opening_times": "Mo - Fr 9.00 - 19.00"},
﻿{"url": "https://www.mixmarkt.eu/en/germany/stores/179/", "country": "Germany", "city": "Kamen", "latitude": "51.5967048", "longitude": "7.6694641", "title": "Mix Markt, Kamen", "description": "Königsberger Str. 2a 59174 Kamen", "phone": "Phone: 02307 9104925", "opening_times": "Mo-Fr: 09.00 - 19.00 Uhr"},
﻿{"url": "https://www.mixmarkt.eu/en/germany/stores/68/", "country": "Germany", "city": "Hof", "latitude": "50.3228600", "longitude": "11.9237500", "title": "Mix Markt, Hof", "description": "Heiligengrabstraße 27 95028 Hof", "phone": "Phone: 09281 8339317", "opening_times": "Mo - Fr. 9.00 - 19.00"},
﻿{"url": "https://www.mixmarkt.eu/en/germany/stores/129/", "country": "Germany", "city": "Homburg", "latitude": "49.319117", "longitude": "7.3363797", "title": "Mix Markt, Homburg", "description": "Am Zweibrücker Tor 12 66424 Homburg", "phone": "Phone: 06841 7575693", "opening_times": "Mo-Sa: 09.00-20.00 Uhr"},
﻿{"url": "https://www.mixmarkt.eu/en/germany/stores/26/", "country": "Germany", "city": "Ingolstadt", "latitude": "48.7782275", "longitude": "11.4414024", "title": "Mix Markt, Ingolstadt", "description": "Theodor-Heuss-Str. 64 85055 Ingolstadt", "phone": "Phone: 0841 3706562", "opening_times": "Mo - Sa. 9.00 - 20.00"},
﻿{"url": "https://www.mixmarkt.eu/en/germany/stores/11/", "country": "Germany", "city": "Iserlohn", "latitude": "51.3959278", "longitude": "7.6919262", "title": "Mix Markt, Iserlohn", "description": "Giesestr. 4 58636 Iserlohn", "phone": "Phone: 02371 1595117", "opening_times": "Mo-Fr 08:00-20:00 Uhr"},
﻿{"url": "https://www.mixmarkt.eu/en/germany/stores/82/", "country": "Germany", "city": "Kaiserslautern", "latitude": "49.4449500", "longitude": "7.7321400", "title": "Mix Markt, Kaiserslautern", "description": "Merkurstr.2 67663 Kaiserslautern", "phone": "Phone: 0631 3502972", "opening_times": "Mo - Sa 9.00 - 20.00"},
﻿{"url": "https://www.mixmarkt.eu/en/germany/stores/7/", "country": "Germany", "city": "Kempten", "latitude": "47.7375000", "longitude": "10.2898900", "title": "Mix Markt, Kempten", "description": "Schwalbenweg 71 87439 Kempten", "phone": "Phone: 0831 51278-05", "opening_times": ""},
﻿{"url": "https://www.mixmarkt.eu/en/germany/stores/225/", "country": "Germany", "city": "Kassel", "latitude": "0.00", "longitude": "", "title": "Mix Markt, Kassel", "description": "Heinrich-Plett-Str. 55-57 34132 Kassel", "phone": "Phone: 0561 4003510", "opening_times": "Mo - Fr. 9.00 - 19.00"},
﻿{"url": "https://www.mixmarkt.eu/en/germany/stores/79/", "country": "Germany", "city": "Köln", "latitude": "50.8956492", "longitude": "7.0633662", "title": "Mix Markt, Köln- Porz-Eil", "description": "Konrad-Adenauer-Straße 40/42 51149 Köln", "phone": "Phone: 02203 1037834", "opening_times": "Mo - Fr 9.00 - 20.00"},
﻿{"url": "https://www.mixmarkt.eu/en/germany/stores/94/", "country": "Germany", "city": "Nürtingen", "latitude": "48.6158300", "longitude": "9.3505200", "title": "Mix Markt, Nürtingen", "description": "Staufenstr.6 72622 Nürtingen", "phone": "Phone: 07022 604516", "opening_times": "Mo-Sa 9.00-19.00"},
﻿{"url": "https://www.mixmarkt.eu/en/germany/stores/133/", "country": "Germany", "city": "Krefeld", "latitude": "51.3203700", "longitude": "6.5268700", "title": "Mix Markt, Krefeld", "description": "Dülkener Straße 44-46 47804 Krefeld", "phone": "Phone: 02151 7672521", "opening_times": "Mo - Fr 8.00 - 20.00"},
﻿{"url": "https://www.mixmarkt.eu/en/germany/stores/76/", "country": "Germany", "city": "Nürnberg", "latitude": "49.4267565", "longitude": "11.0421750", "title": "Mix Markt, Nürnberg-Schweinau", "description": "Schweinauer Hauptstraße 127 90441 Nürnberg", "phone": "Phone: 0911 6249844", "opening_times": "Mo - Sa 9.00-20.00"},
﻿{"url": "https://www.mixmarkt.eu/en/germany/stores/65/", "country": "Germany", "city": "Pforzheim", "latitude": "48.8837000", "longitude": "8.7345100", "title": "Mix Markt, Pforzheim", "description": "Pillauer Straße 14 75181 Pforzheim", "phone": "Phone: 07231 2980085", "opening_times": "Mo - Sa 8.00 - 20.00"},
﻿{"url": "https://www.mixmarkt.eu/en/germany/stores/1/", "country": "Germany", "city": "Oerlinghausen", "latitude": "51.9406200", "longitude": "8.6546800", "title": "Mix Markt, Oerlinghausen", "description": "Stukenbrocker Weg 18a 33813 Oerlinghausen", "phone": "Phone: 05202 9776861", "opening_times": "Mo - Fr 9.00 - 19.00"},
﻿{"url": "https://www.mixmarkt.eu/en/germany/stores/143/", "country": "Germany", "city": "Offenburg", "latitude": "48.4622000", "longitude": "7.9241900", "title": "Mix Markt, Offenburg", "description": "Wichernstr. 2 77656 Offenburg", "phone": "Phone: 0781 99024074", "opening_times": "Mo-Sa: 09.00 - 20.00"},
﻿{"url": "https://www.mixmarkt.eu/en/germany/stores/14/", "country": "Germany", "city": "Berlin Marzahn", "latitude": "52.5497062", "longitude": "13.5646177", "title": "Mix Markt, Berlin Carree Marzahn", "description": "Jan-Petersen-Straße 18 12679 Berlin Marzahn", "phone": "Phone: 030 97891881", "opening_times": "Mo - Sa  8.00 - 20.00"},
﻿{"url": "https://www.mixmarkt.eu/en/germany/stores/36/", "country": "Germany", "city": "Offenbach", "latitude": "50.0889215", "longitude": "8.7556932", "title": "Mix Markt, Offenbach", "description": "Richard-Wagner-Str.32 63069 Offenbach", "phone": "Phone: 069 83005988", "opening_times": "Mo-Sa. 9.00-20.00"},
﻿{"url": "https://www.mixmarkt.eu/en/germany/stores/40/", "country": "Germany", "city": "Bayreuth", "latitude": "49.9333300", "longitude": "11.5661400", "title": "Mix Markt, Bayreuth", "description": "Leuschnerstr. 80 95447 Bayreuth", "phone": "Phone: 0921 1507966", "opening_times": "Mo - Fr 9.00 - 19.00"},
﻿{"url": "https://www.mixmarkt.eu/en/germany/stores/45/", "country": "Germany", "city": "Oldenburg", "latitude": "53.1141300", "longitude": "8.2127800", "title": "Mix Markt, Oldenburg", "description": "Cloppenburger Straße 228 26133 Oldenburg", "phone": "Phone: 0441 96027123", "opening_times": "Mo - Sa: 09:00 - 19:00 Uhr"},
﻿{"url": "https://www.mixmarkt.eu/en/germany/stores/2/", "country": "Germany", "city": "Reutlingen", "latitude": "48.4964018", "longitude": "9.1768192", "title": "Mix Markt, Reutlingen - Betzingen", "description": "Olgastraße 9 72770 Reutlingen", "phone": "Phone: 07121 3043438", "opening_times": "Mo - Fr: 08.00 - 20.00 Uhr"},
﻿{"url": "https://www.mixmarkt.eu/en/germany/stores/186/", "country": "Germany", "city": "Passau", "latitude": "48.5844541", "longitude": "13.3953161", "title": "Mix Markt, Passau", "description": "Alte Raiffeisenstrasse 3 94036 Passau", "phone": "Phone: 0851 96611104", "opening_times": "Mo-Sa: 09.00-20.00"},
﻿{"url": "https://www.mixmarkt.eu/en/germany/stores/10/", "country": "Germany", "city": "Rastatt", "latitude": "48.866284", "longitude": "8.189762", "title": "Mix Markt, Rastatt", "description": "Gutenbergstr.1-3 76437 Rastatt", "phone": "Phone: 07222 4067861", "opening_times": "Mo - Fr: 08:00 - 20:00"},
﻿{"url": "https://www.mixmarkt.eu/en/germany/stores/115/", "country": "Germany", "city": "Pirmasens", "latitude": "49.1964838", "longitude": "7.5994178", "title": "Mix Markt, Pirmasens", "description": "Winzler Str. 67 66955 Pirmasens", "phone": "Phone: 06331 1442094", "opening_times": "Mo-Sa: 09.00 - 20.00"},
﻿{"url": "https://www.mixmarkt.eu/en/germany/stores/149/", "country": "Germany", "city": "Pocking", "latitude": "48.4029500", "longitude": "13.3090700", "title": "Mix Markt, Pocking", "description": "St.-Ulrich-Str.6 94060 Pocking", "phone": "Phone: 08531 4119395", "opening_times": "Mo-Sa. 9.00 - 20.00"},
﻿{"url": "https://www.mixmarkt.eu/en/germany/stores/121/", "country": "Germany", "city": "Regensburg", "latitude": "48.9947899", "longitude": "12.1144325", "title": "Mix Markt, Regensburg", "description": "Langobardenstr.2 93053 Regensburg", "phone": "Phone: 0941 78527410", "opening_times": "Mo-Sa: 09.00-20.00 Uhr"},
﻿{"url": "https://www.mixmarkt.eu/en/germany/stores/191/", "country": "Germany", "city": "Ratingen", "latitude": "51.3090981", "longitude": "6.8170862", "title": "Mix Markt, Ratingen", "description": "Sohlstättenstraße 46 40880 Ratingen", "phone": "Phone: 02102 1537991", "opening_times": "Mo-Fr: 9.00 - 20.00 Uhr"},
﻿{"url": "https://www.mixmarkt.eu/en/germany/stores/187/", "country": "Germany", "city": "Schwabach", "latitude": "49.3364173", "longitude": "11.0218803", "title": "Mix Markt, Schwabach", "description": "Fürther Str. 35 91126 Schwabach", "phone": "Phone: 09122 6939835", "opening_times": "Mo.-Fr. 09:00-19:00"},
﻿{"url": "https://www.mixmarkt.eu/en/germany/stores/100/", "country": "Germany", "city": "Rostock", "latitude": "54.1333802", "longitude": "12.0584400", "title": "Mix Markt, Rostock", "description": "Talliner Straße 3 18107 Rostock", "phone": "Phone: 0381 44056599", "opening_times": "Mo - Sa 9.00 - 19.00"},
﻿{"url": "https://www.mixmarkt.eu/en/germany/stores/71/", "country": "Germany", "city": "Rheine", "latitude": "52.2877982", "longitude": "7.4417657", "title": "Mix Markt, Rheine", "description": "Alter Lingener Damm 15 48429 Rheine", "phone": "Phone: 05971 9149655", "opening_times": "Mo-Fr: 09.00 - 19.00"},
﻿{"url": "https://www.mixmarkt.eu/en/germany/stores/146/", "country": "Germany", "city": "Nordhorn", "latitude": "52.4148300", "longitude": "7.0774700", "title": "Mix Markt, Nordhorn", "description": "Westfalenstr. 13 48529 Nordhorn", "phone": "Phone: 05921 7272952", "opening_times": "Mo - Fr 9.00 - 19.00"},
﻿{"url": "https://www.mixmarkt.eu/en/germany/stores/44/", "country": "Germany", "city": "Rosenheim", "latitude": "47.8503400", "longitude": "12.0966800", "title": "Mix Markt, Rosenheim", "description": "Finsterwalderstr.48 83026 Rosenheim", "phone": "Phone: 08031 3045185", "opening_times": "Mo - Fr 9.00 - 20.00"},
﻿{"url": "https://www.mixmarkt.eu/en/germany/stores/111/", "country": "Germany", "city": "Salzgitter", "latitude": "52.1319899", "longitude": "10.2920944", "title": "Mix Markt, Salzgitter", "description": "Krühgarten 79 38228 Salzgitter", "phone": "Phone: 05341 2259420", "opening_times": "Mo-Fr. 9.00 - 19.00"},
﻿{"url": "https://www.mixmarkt.eu/en/germany/stores/88/", "country": "Germany", "city": "Saarbrücken", "latitude": "49.2431953", "longitude": "6.9655584", "title": "Mix Markt, Saarbrücken", "description": "Käthe-Kollwitz-Str. 16 66115 Saarbrücken", "phone": "Phone: 0681 99196633", "opening_times": "Mo - Sa: 08:00 - 20:00"},
﻿{"url": "https://www.mixmarkt.eu/en/germany/stores/4/", "country": "Germany", "city": "Schweinfurt", "latitude": "50.0375491", "longitude": "10.2002441", "title": "Mix Markt, Schweinfurt", "description": "Breslaustraße 14 97424 Schweinfurt", "phone": "Phone: 09721 4731759", "opening_times": "Mo - Fr. 9.00 - 20.00"},
﻿{"url": "https://www.mixmarkt.eu/en/germany/stores/99/", "country": "Germany", "city": "Siegen", "latitude": "50.8641300", "longitude": "8.0334700", "title": "Mix Markt, Siegen", "description": "Friedrich-Wilhelm-Straße 134 57074 Siegen", "phone": "Phone: 0271 31922300", "opening_times": "Mo - Fr 9.00 - 20.00"},
﻿{"url": "https://www.mixmarkt.eu/en/germany/stores/200/", "country": "Germany", "city": "Schwäbisch Gmünd", "latitude": "48.7993579", "longitude": "9.8242768", "title": "Mix Markt, Schwäbisch Gmünd", "description": "Werrenwiesenstraße 78 73525 Schwäbisch Gmünd", "phone": "Phone: 07171 9982516", "opening_times": "Mo-Sa 09.00-20.00"},
﻿{"url": "https://www.mixmarkt.eu/en/germany/stores/164/", "country": "Germany", "city": "Schwandorf", "latitude": "49.3297279", "longitude": "12.1027862", "title": "Mix Markt, Schwandorf", "description": "Ettmannsdorfer Str. 24 92421 Schwandorf", "phone": "Phone:", "opening_times": "Mo-Fr: 09.00 - 20.00"},
﻿{"url": "https://www.mixmarkt.eu/en/germany/stores/317/", "country": "Germany", "city": "Münster", "latitude": "51.9906921", "longitude": "7.6081763", "title": "Mini Mix, Münster", "description": "Rektoratsweg 63-65 48159 Münster", "phone": "Phone: 0251 20308309", "opening_times": "Mo - Fr \t9.00 - 19.00"},
﻿{"url": "https://www.mixmarkt.eu/en/germany/stores/109/", "country": "Germany", "city": "Siegburg", "latitude": "50.7873279", "longitude": "7.2141876", "title": "Mix Markt, Siegburg", "description": "Händelstr.14 53721 Siegburg", "phone": "Phone: 02241 1275888", "opening_times": "Mo - Fr 8.00 - 19.00"},
﻿{"url": "https://www.mixmarkt.eu/en/germany/stores/60/", "country": "Germany", "city": "Senden", "latitude": "48.3320357", "longitude": "10.0412855", "title": "Mix Markt, Senden", "description": "Danziger Str. 1 89250 Senden", "phone": "Phone: 07307 952190", "opening_times": "Mo - Fr: 9:00 - 20:00"},
﻿{"url": "https://www.mixmarkt.eu/en/germany/stores/8/", "country": "Germany", "city": "Speyer", "latitude": "49.3184500", "longitude": "8.4176200", "title": "Mix Markt, Speyer", "description": "Dudenhofer Strasse 44 67346 Speyer", "phone": "Phone: 06232 6580378", "opening_times": "Mo - Sa. 9.00 - 20.00"},
﻿{"url": "https://www.mixmarkt.eu/en/germany/stores/72/", "country": "Germany", "city": "Sindelfingen", "latitude": "48.7058988", "longitude": "8.9983377", "title": "Mix Markt, Sindelfingen", "description": "Mercedesstr. 12 71063 Sindelfingen", "phone": "Phone:", "opening_times": "Mo-Sa: 08.00 - 20.00 Uhr"},
﻿{"url": "https://www.mixmarkt.eu/en/germany/stores/156/", "country": "Germany", "city": "Sinsheim", "latitude": "49.2467252", "longitude": "8.8806480", "title": "Mix Markt, Sinsheim", "description": "Neulandstr.12 74889 Sinsheim", "phone": "Phone: 07261 9734880", "opening_times": "Mo-Sa: 09.00-20.00 Uhr"},
﻿{"url": "https://www.mixmarkt.eu/en/germany/stores/34/", "country": "Germany", "city": "Stade", "latitude": "53.5865700", "longitude": "9.4207300", "title": "Mix Markt, Stade-Wiepenkathen", "description": "Alte Dorfstr. 25 21684 Stade", "phone": "Phone: 04141 9399736", "opening_times": "Mo - Fr 9.00-19.00"},
﻿{"url": "https://www.mixmarkt.eu/en/germany/stores/101/", "country": "Germany", "city": "Singen", "latitude": "47.7430200", "longitude": "8.8505600", "title": "Mix Markt, Singen", "description": "Berliner Str.6 78224 Singen", "phone": "Phone: 07731 8279819", "opening_times": "Mo - Sa. 9.00 - 20.00"},
﻿{"url": "https://www.mixmarkt.eu/en/germany/stores/43/", "country": "Germany", "city": "Stuttgart", "latitude": "48.8417200", "longitude": "9.2076300", "title": "Mix Markt, Stuttgart", "description": "Wallensteinstraße 3 70437 Stuttgart", "phone": "Phone: 0711 8494241", "opening_times": "Mo - Fr: 08:00 - 20:00"},
﻿{"url": "https://www.mixmarkt.eu/en/germany/stores/140/", "country": "Germany", "city": "Soest", "latitude": "51.5566700", "longitude": "8.1077900", "title": "Mix Markt, Soest", "description": "Kaiser-Otto-Weg 7 59494 Soest", "phone": "Phone: 02921 6712167", "opening_times": "Mo-Fr: 09.00 - 19.00"},
﻿{"url": "https://www.mixmarkt.eu/en/germany/stores/112/", "country": "Germany", "city": "Straubing", "latitude": "48.8829823", "longitude": "12.5971876", "title": "Mix Markt, Straubing", "description": "Finkenstr.17 94315 Straubing", "phone": "Phone: 09421 185996", "opening_times": "Mo-Sa. 9.00-20.00"},
﻿{"url": "https://www.mixmarkt.eu/en/germany/stores/21/", "country": "Germany", "city": "Augsburg", "latitude": "48.3397800", "longitude": "10.9007500", "title": "Mix Markt, Augsburg", "description": "Alter Postweg 97b 86159 Augsburg", "phone": "Phone: 0821 5998481", "opening_times": "Mo - Sa 9.00-20.00"},
﻿{"url": "https://www.mixmarkt.eu/en/germany/stores/49/", "country": "Germany", "city": "Trier", "latitude": "49.7517071", "longitude": "6.6851196", "title": "Mix Markt, Trier", "description": "Am Weidengraben 9 54296 Trier", "phone": "Phone: 0651 99144866", "opening_times": "Mo-Fr.. 9.00-19.00"},
﻿{"url": "https://www.mixmarkt.eu/en/germany/stores/166/", "country": "Germany", "city": "Stuttgart", "latitude": "48.813033", "longitude": "9.104408", "title": "Mix Markt, Stuttgart", "description": "Ernst-Reuter-Platz 4 70499 Stuttgart", "phone": "Phone: 0711 80638730", "opening_times": "Mo-Sa. 8.00-20.00"},
﻿{"url": "https://www.mixmarkt.eu/en/germany/stores/90/", "country": "Germany", "city": "Viernheim", "latitude": "49.5274200", "longitude": "8.5613500", "title": "Mix Markt, Viernheim", "description": "Mannheimer Str. 129 68519 Viernheim", "phone": "Phone: 06204 6087238", "opening_times": "Mo - Sa 9.00-20.00"},
﻿{"url": "https://www.mixmarkt.eu/en/germany/stores/77/", "country": "Germany", "city": "Waldbröl", "latitude": "50.8867887", "longitude": "7.6216611", "title": "Mix Markt, Waldbröl", "description": "Brandenburger Str. 6 51545 Waldbröl", "phone": "Phone: 02291 9125477", "opening_times": "Mo-Fr: 09.00 - 19.00"},
﻿{"url": "https://www.mixmarkt.eu/en/germany/stores/206/", "country": "Germany", "city": "Waldkraiburg", "latitude": "48.199134", "longitude": "12.394404", "title": "Mix Markt, Waldkraiburg", "description": "Aussiger Str. 25g 84478 Waldkraiburg", "phone": "Phone: 08638 9555615", "opening_times": "Mo-Sa: 09.00 - 20.00"},
﻿{"url": "https://www.mixmarkt.eu/en/germany/stores/5/", "country": "Germany", "city": "Waldshut", "latitude": "47.6319400", "longitude": "8.2717300", "title": "Mix Markt, Waldshut-Tiengen", "description": "Brandenburger Strasse 2 79761 Waldshut", "phone": "Phone: 07741 686121", "opening_times": "Mo - Sa: 9:00 - 20:00"},
﻿{"url": "https://www.mixmarkt.eu/en/germany/stores/110/", "country": "Germany", "city": "Wertheim", "latitude": "49.7587000", "longitude": "9.4934100", "title": "Mix Markt, Wertheim", "description": "Karl-Carstens-Straße 4 97877 Wertheim", "phone": "Phone: 09342 935352", "opening_times": "Mo - Sa 9.00-20.00"},
﻿{"url": "https://www.mixmarkt.eu/en/germany/stores/208/", "country": "Germany", "city": "Weiden", "latitude": "49.691821", "longitude": "12.171097", "title": "Mix Markt, Weiden", "description": "Pfeifferstr. 2 92637 Weiden", "phone": "Phone: 0961 38178169", "opening_times": "Mo - Fr 9.00 - 19.00"},
﻿{"url": "https://www.mixmarkt.eu/en/germany/stores/13/", "country": "Germany", "city": "Worms", "latitude": "49.6473200", "longitude": "8.3446800", "title": "Mix Markt, Worms", "description": "Theodor-Heuss-Str. 41a 67549 Worms", "phone": "Phone: 06241 2088144", "opening_times": "Mo - Sa. 8.00 - 20.00"},
﻿{"url": "https://www.mixmarkt.eu/en/germany/stores/118/", "country": "Germany", "city": "Augsburg", "latitude": "48.3459174", "longitude": "10.9032960", "title": "Mix Markt, Augsburg", "description": "Johann-Georg-Halske-Str. 20 86159 Augsburg", "phone": "Phone: 0821 60998618", "opening_times": "Mo - Sa 8.00-19.00"},
﻿{"url": "https://www.mixmarkt.eu/en/germany/stores/132/", "country": "Germany", "city": "Wiesbaden", "latitude": "50.0877800", "longitude": "8.1999400", "title": "Mix Markt, Wiesbaden", "description": "Goerdelerstr.49a 65197 Wiesbaden", "phone": "Phone: 0611 60922280", "opening_times": "Mo - Sa. 9.00 - 20.00"},
﻿{"url": "https://www.mixmarkt.eu/en/germany/stores/27/", "country": "Germany", "city": "Wuppertal", "latitude": "51.2811829", "longitude": "7.1958005", "title": "Mix Markt, Wuppertal", "description": "Klingelholl 32-34 42281 Wuppertal", "phone": "Phone: 0202 87079771", "opening_times": "Mo - Sa   8.00-20.00"},
﻿{"url": "https://www.mixmarkt.eu/en/germany/stores/139/", "country": "Germany", "city": "Backnang", "latitude": "48.9579200", "longitude": "9.4274200", "title": "Mix Markt, Backnang", "description": "Dresdener Ring 23 71522 Backnang", "phone": "Phone: 07191 9118193", "opening_times": "Mo-Sa: 09.00 - 20.00"},
﻿{"url": "https://www.mixmarkt.eu/en/germany/stores/81/", "country": "Germany", "city": "Augsburg", "latitude": "48.3921700", "longitude": "10.9209800", "title": "Mix Markt, Augsburg", "description": "Steinerne Furt 34 a 86167 Augsburg", "phone": "Phone: 0821 74766155", "opening_times": "Mo-Sa. 9.00-20.00"},
﻿{"url": "https://www.mixmarkt.eu/en/germany/stores/84/", "country": "Germany", "city": "Wilhelmshaven", "latitude": "53.5278210", "longitude": "8.0982500", "title": "Mix Markt, Wilhelmshaven", "description": "Werftstr.152 26382 Wilhelmshaven", "phone": "Phone: 04421 5005988", "opening_times": "Mo-Fr: 09:00 bis 19:00"},
﻿{"url": "https://www.mixmarkt.eu/en/germany/stores/104/", "country": "Germany", "city": "Bad Hersfeld", "latitude": "50.8645416", "longitude": "9.7127008", "title": "Mix Markt, Bad Hersfeld", "description": "Hainchenweg 3 36251 Bad Hersfeld", "phone": "Phone: 06621 6406385", "opening_times": "Mo - Fr 9.00 - 19.00"},
﻿{"url": "https://www.mixmarkt.eu/en/germany/stores/205/", "country": "Germany", "city": "Augustdorf", "latitude": "51.908047", "longitude": "8.726115", "title": "Mix Markt, Augustdorf", "description": "Stukenbrocker Str. 15 32832 Augustdorf", "phone": "Phone: 05237 8989630", "opening_times": "Mo – Fr  9:00 – 19:00 Uhr"},
﻿{"url": "https://www.mixmarkt.eu/en/germany/stores/87/", "country": "Germany", "city": "Würzburg", "latitude": "49.8067100", "longitude": "9.9767900", "title": "Mix Markt, Würzburg", "description": "Heisenbergstr. 4a 97076 Würzburg", "phone": "Phone: 0931 26081636", "opening_times": "Mo - Sa 9.00-20.00"},
﻿{"url": "https://www.mixmarkt.eu/en/germany/stores/123/", "country": "Germany", "city": "Bad Mergentheim", "latitude": "49.4950200", "longitude": "9.7632600", "title": "Mix Markt, Bad Mergentheim", "description": "Max-Eyth-Str.14/1 97980 Bad Mergentheim", "phone": "Phone: 07931 9681381", "opening_times": "Mo - Sa 9.00-20.00"},
﻿{"url": "https://www.mixmarkt.eu/en/germany/stores/128/", "country": "Germany", "city": "Bad Kreuznach", "latitude": "49.8453200", "longitude": "7.8767400", "title": "Mix Markt, Bad Kreuznach", "description": "Bosenheimer Str. 165 55543 Bad Kreuznach", "phone": "Phone: 0671 79676024", "opening_times": "Mo - Sa 9.00 - 20.00"},
﻿{"url": "https://www.mixmarkt.eu/en/germany/stores/327/", "country": "Germany", "city": "Neustadt (Hessen)", "latitude": "50.8521800", "longitude": "9.1173100", "title": "Mini Mix, Neustadt (Hessen)", "description": "Mauerstraße 6-8 35279 Neustadt (Hessen)", "phone": "Phone: 06692 2045820", "opening_times": "Mo– Sa 9.00 bis 19.00"},
﻿{"url": "https://www.mixmarkt.eu/en/germany/stores/328/", "country": "Germany", "city": "Neustadt an der Aisch", "latitude": "49.5777600", "longitude": "10.6068700", "title": "Mini Mix, Neustadt an der Aisch", "description": "Raiffeisenstr. 9 91413 Neustadt an der Aisch", "phone": "Phone: 09161 874765", "opening_times": "Mo-Fr. 9.00-19.00"},
﻿{"url": "https://www.mixmarkt.eu/en/germany/stores/325/", "country": "Germany", "city": "Neumarkt", "latitude": "49.2629900", "longitude": "11.4737100", "title": "Mini Mix, Neumarkt", "description": "Gutenbergstr. 4 92318 Neumarkt", "phone": "Phone: 09181 466431", "opening_times": "Mo-Fr. 9.00-18.00"},
﻿{"url": "https://www.mixmarkt.eu/en/germany/stores/346/", "country": "Germany", "city": "Rheinfelden", "latitude": "47.5622609", "longitude": "7.7797155", "title": "Mini Mix, Rheinfelden", "description": "Fecampring 44 79618 Rheinfelden", "phone": "Phone: 07623 741972", "opening_times": "Mo-Sa: 07.00 - 20.00 Uhr"},
﻿{"url": "https://www.mixmarkt.eu/en/germany/stores/57/", "country": "Germany", "city": "Aachen", "latitude": "50.7562300", "longitude": "6.1388500", "title": "Mix Markt, Aachen", "description": "Sittarder Straße 30 52078 Aachen", "phone": "Phone: 0241 5597795", "opening_times": "Mo - Fr. 9.00 - 20.00"},
﻿{"url": "https://www.mixmarkt.eu/en/germany/stores/322/", "country": "Germany", "city": "Neustadt an der Donau", "latitude": "48.8094000", "longitude": "11.7627500", "title": "Mini Mix, Neustadt an der Donau", "description": "Herzog-Ludwig Str.15 93333 Neustadt an der Donau", "phone": "Phone: 09445 752454", "opening_times": "Mo-Fr 09.00-19.00"},
﻿{"url": "https://www.mixmarkt.eu/en/germany/stores/28/", "country": "Germany", "city": "Neuwied", "latitude": "50.4341800", "longitude": "7.4874300", "title": "Mix Markt, Neuwied", "description": "Königsberger Straße 1 56564 Neuwied", "phone": "Phone: 02631 824209", "opening_times": "Mo - Sa 9.00 - 20.00"},
﻿{"url": "https://www.mixmarkt.eu/en/germany/stores/214/", "country": "Germany", "city": "Rödental", "latitude": "50.291127", "longitude": "11.035177", "title": "Mini Mix, Rödental", "description": "Martin-Luther-Str. 40A 96472 Rödental", "phone": "Phone:", "opening_times": "Montag-Freitag: 09:00-19:00 Uhr"},
﻿{"url": "https://www.mixmarkt.eu/en/germany/stores/131/", "country": "Germany", "city": "Aalen", "latitude": "48.8657700", "longitude": "10.1069800", "title": "Mix Markt, Aalen", "description": "Eugenstr.44 73433 Aalen", "phone": "Phone: 07361 5277310", "opening_times": "Mo-Sa: 09.00 - 20.00"},
﻿{"url": "https://www.mixmarkt.eu/en/germany/stores/108/", "country": "Germany", "city": "Nürnberg", "latitude": "49.4301276", "longitude": "11.0877200", "title": "Mix Markt, Nürnberg-Hummelstein", "description": "Neulichtenhofstr.16 90461 Nürnberg", "phone": "Phone: 0911 99446248", "opening_times": "Mo - Fr 9.00 - 20.00"},
﻿{"url": "https://www.mixmarkt.eu/en/germany/stores/351/", "country": "Germany", "city": "Bad Marienberg", "latitude": "50.6459900", "longitude": "7.9441600", "title": "Mini Mix, Bad Marienberg", "description": "Bismarckstr. 55 56470 Bad Marienberg", "phone": "Phone: 02661 6880", "opening_times": "Mo-Fr. 9.00-19.00"},
﻿{"url": "https://www.mixmarkt.eu/en/germany/stores/117/", "country": "Germany", "city": "Mössingen", "latitude": "48.4064042", "longitude": "9.0461381", "title": "Mix Markt, Mössingen", "description": "Eisenbahnstr.2-8 72116  Mössingen", "phone": "Phone: 07473 9218350", "opening_times": "Mo-Sa 9.00-19.00"},
﻿{"url": "https://www.mixmarkt.eu/en/germany/stores/210/", "country": "Germany", "city": "Norderstedt", "latitude": "53.722681", "longitude": "9.99836", "title": "Mix Markt, Norderstedt", "description": "Ulzburger Straße 398 22846 Norderstedt", "phone": "Phone: 040 28056098", "opening_times": "Mo-Fr 9:00-19:00"},
﻿{"url": "https://www.mixmarkt.eu/en/germany/stores/178/", "country": "Germany", "city": "Nürnberg", "latitude": "49.411538", "longitude": "11.120736", "title": "Mix Markt, Nürnberg-Langwasser", "description": "Wettersteinstr.39 90471 Nürnberg", "phone": "Phone: 0911 80099479", "opening_times": "Address: Wettersteinstr.39, 90471 Nürnberg"},
﻿{"url": "https://www.mixmarkt.eu/en/germany/stores/63/", "country": "Germany", "city": "Neumünster", "latitude": "54.0912000", "longitude": "9.9854100", "title": "Mix Markt, Neumünster", "description": "Kieler Straße 221 24536 Neumünster", "phone": "Phone: 04321 4896939", "opening_times": "Mo - Fr 9.00 - 19.00"},
﻿{"url": "https://www.mixmarkt.eu/en/germany/stores/198/", "country": "Germany", "city": "Neunkirchen", "latitude": "49.3522318", "longitude": "7.219583", "title": "Mix Markt, Neunkirchen", "description": "Untere Bliesstr. 61B 66539 Neunkirchen", "phone": "Phone: 06821 7902464", "opening_times": "Öffnungszeiten:"},
﻿{"url": "https://www.mixmarkt.eu/en/germany/stores/33/", "country": "Germany", "city": "Nagold", "latitude": "48.5516313", "longitude": "8.7268215", "title": "Mix Markt, Nagold", "description": "Leonhardstr.21 72202 Nagold", "phone": "Phone: 07452 810791", "opening_times": "Mo-Fr. 9.00-19.00"},
﻿{"url": "https://www.mixmarkt.eu/en/germany/stores/47/", "country": "Germany", "city": "Mönchengladbach", "latitude": "51.1707500", "longitude": "6.4572900", "title": "Mix Markt, Mönchengladbach", "description": "Mittelstr.21 41236 Mönchengladbach", "phone": "Phone: 02166 130513", "opening_times": "Mo - Fr. 9.00 - 19.00"},
﻿{"url": "https://www.mixmarkt.eu/en/germany/stores/50/", "country": "Germany", "city": "Neuss", "latitude": "51.2157445", "longitude": "6.6767372", "title": "Mix Markt, Neuss", "description": "Neusser Weyhe 74 41462 Neuss", "phone": "Phone: 02131 2981787", "opening_times": "Mo - Fr 9.00-19.00"},
﻿{"url": "https://www.mixmarkt.eu/en/germany/stores/114/", "country": "Germany", "city": "Neuenburg am Rhein", "latitude": "47.8118500", "longitude": "7.5684200", "title": "Mix Markt, Neuenburg am Rhein", "description": "Müllheimer Str.34 79395 Neuenburg am Rhein", "phone": "Phone: 07631 175993", "opening_times": "Mo-Sa. 9.00-19.00"},
﻿{"url": "https://www.mixmarkt.eu/en/germany/stores/42/", "country": "Germany", "city": "Minden", "latitude": "52.2865472", "longitude": "8.8924917", "title": "Mix Markt, Minden", "description": "Rodenbecker Strasse 79 32427 Minden", "phone": "Phone: 0571 3885501", "opening_times": "Mo - Fr. 9.00 - 19.00"},
﻿{"url": "https://www.mixmarkt.eu/en/germany/stores/130/", "country": "Germany", "city": "Marburg", "latitude": "50.7881630", "longitude": "8.7704845", "title": "Mix Markt, Marburg", "description": "Friedrich-Ebert-Str. 27  35039 Marburg", "phone": "Phone: 06421 1836064", "opening_times": "Mo - Fr 9.00 - 19.00"},
﻿{"url": "https://www.mixmarkt.eu/en/germany/stores/17/", "country": "Germany", "city": "Mannheim", "latitude": "49.5118302", "longitude": "8.4700277", "title": "Mix Markt, Mannheim", "description": "Konzstraße 25 68169 Mannheim", "phone": "Phone: 0621 3214151", "opening_times": "Mo - Sa. 9.00 - 20.00"},
﻿{"url": "https://www.mixmarkt.eu/en/germany/stores/35/", "country": "Germany", "city": "Neckarsulm", "latitude": "49.211324", "longitude": "9.249868", "title": "Mix Markt, Neckarsulm", "description": "Amorbacher Str. 30 74172 Neckarsulm", "phone": "Phone: 07132 3410836", "opening_times": "Mo-Sa: 08.00 - 20.00 Uhr"},
﻿{"url": "https://www.mixmarkt.eu/en/germany/stores/135/", "country": "Germany", "city": "Magdeburg", "latitude": "52.155294", "longitude": "11.640694", "title": "Mix Markt, Magdeburg", "description": "Schmidtstr. 57-59 39124 Magdeburg", "phone": "Phone: 0391 50695441", "opening_times": "Mo-Sa: 09.00 - 19.00 Uhr"},
﻿{"url": "https://www.mixmarkt.eu/en/germany/stores/20/", "country": "Germany", "city": "Lippstadt", "latitude": "51.6618721", "longitude": "8.3516864", "title": "Mix Markt, Lippstadt", "description": "Südstraße 26-28 59557 Lippstadt", "phone": "Phone: 02941 923036", "opening_times": "Mo - Fr 9.00 - 19.00"},
﻿{"url": "https://www.mixmarkt.eu/en/germany/stores/125/", "country": "Germany", "city": "München", "latitude": "48.1753718", "longitude": "11.5826078", "title": "Mix Markt, München", "description": "Isoldenstr. 60 80804 München", "phone": "Phone:", "opening_times": "Mo - Sa 9.00 - 20.00"},
﻿{"url": "https://www.mixmarkt.eu/en/germany/stores/223/", "country": "Germany", "city": "Krefeld", "latitude": "51.3556182", "longitude": "6.6406171", "title": "Mix Markt, Krefeld", "description": "Traarer Str. 26-30 47829 Krefeld", "phone": "Phone: 02151 6558200", "opening_times": "Mo-Fr: 08.00 - 20.00"},
﻿{"url": "https://www.mixmarkt.eu/en/germany/stores/170/", "country": "Germany", "city": "Coburg", "latitude": "50.272423", "longitude": "10.963827", "title": "Mix Markt, Coburg", "description": "Rodacher Str. 10a 96450 Coburg", "phone": "Phone: 09561 4263904", "opening_times": "Mo-Sa: 09.00 - 20.00 Uhr"},
﻿{"url": "https://www.mixmarkt.eu/en/germany/stores/86/", "country": "Germany", "city": "Albstadt", "latitude": "48.2137100", "longitude": "9.0223300", "title": "Mix Markt, Albstadt-Ebingen", "description": "Friedrichstr.30 72458 Albstadt", "phone": "Phone: 07431 9482040", "opening_times": "Mo - Sa 9.00 - 20.00"},
﻿{"url": "https://www.mixmarkt.eu/en/germany/stores/159/", "country": "Germany", "city": "Lüdenscheid", "latitude": "51.2123306", "longitude": "7.6442711", "title": "Mix Markt, Lüdenscheid", "description": "Schützenstr. 4a 58511 Lüdenscheid", "phone": "Phone: 02351 677377", "opening_times": "Mo - Fr 8.00-20.00"},
﻿{"url": "https://www.mixmarkt.eu/en/germany/stores/56/", "country": "Germany", "city": "Leimen", "latitude": "49.3433400", "longitude": "8.6787200", "title": "Mix Markt, Leimen", "description": "Ferdinand-Porsche-Straße 6-8 69181 Leimen", "phone": "Phone: 06224 148911", "opening_times": "Öffnungszeiten:"},
﻿{"url": "https://www.mixmarkt.eu/en/germany/stores/168/", "country": "Germany", "city": "Marsberg", "latitude": "51.46226", "longitude": "8.8511013", "title": "Mix Markt, Marsberg", "description": "Mönchstr. 3a 34431 Marsberg", "phone": "Phone: 02992 9748857", "opening_times": "Mo - Fr 9.00 - 19.00"},
﻿{"url": "https://www.mixmarkt.eu/en/germany/stores/96/", "country": "Germany", "city": "Lübeck", "latitude": "53.8533900", "longitude": "10.6627000", "title": "Mix Markt, Lübeck", "description": "Moislinger Allee 81 23558 Lübeck", "phone": "Phone: 0451 4798945", "opening_times": "Mo - Fr 9.00 - 19.00"},
﻿{"url": "https://www.mixmarkt.eu/en/germany/stores/16/", "country": "Germany", "city": "Limburg", "latitude": "50.3715880", "longitude": "8.0646170", "title": "Mix Markt, Limburg-Blumenrod", "description": "Zeppelinstr. 4  65549 Limburg", "phone": "Phone: 06431 479628", "opening_times": "Öffnungszeiten:"},
﻿{"url": "https://www.mixmarkt.eu/en/germany/stores/122/", "country": "Germany", "city": "Laatzen", "latitude": "52.3051700", "longitude": "9.8225200", "title": "Mix Markt, Laatzen", "description": "Lange Weihe 65 30880 Laatzen", "phone": "Phone: 0511 4756800", "opening_times": "Mo - Fr 9.00 - 19.00"},
﻿{"url": "https://www.mixmarkt.eu/en/germany/stores/97/", "country": "Germany", "city": "Koblenz", "latitude": "50.3700900", "longitude": "7.5970700", "title": "Mix Markt, Koblenz", "description": "Henriette-Sontag-Str.4 56070 Koblenz", "phone": "Phone: 0261 98279889", "opening_times": "Mo - Fr  9.00 - 20.00"},
﻿{"url": "https://www.mixmarkt.eu/en/germany/stores/89/", "country": "Germany", "city": "Moers", "latitude": "51.4836400", "longitude": "6.6274100", "title": "Mix Markt, Moers", "description": "Oderstraße 58a 47445 Moers", "phone": "Phone: 02841 9996353", "opening_times": "Mo - Sa 9.00 - 19.00"},
﻿{"url": "https://www.mixmarkt.eu/en/germany/stores/155/", "country": "Germany", "city": "Köln", "latitude": "50.9733586", "longitude": "7.0519781", "title": "Mix Markt, Köln", "description": "Piccoloministr. 523 51067 Köln", "phone": "Phone: 0221 62092640", "opening_times": "Mo-Fr. 9.00-19.00"},
﻿{"url": "https://www.mixmarkt.eu/en/germany/stores/119/", "country": "Germany", "city": "Kiel", "latitude": "54.3142300", "longitude": "10.0502700", "title": "Mix Markt, Kiel", "description": "Jütlandring 22 24109 Kiel", "phone": "Phone: 0431 99079908", "opening_times": "Mo - Fr 9.00-19.00"},
﻿{"url": "https://www.mixmarkt.eu/en/germany/stores/66/", "country": "Germany", "city": "Karlsruhe", "latitude": "48.9861500", "longitude": "8.3627900", "title": "Mix Markt, Karlsruhe", "description": "Otto-Wels-Str. 29 76189 Karlsruhe", "phone": "Phone: 0721 1832649", "opening_times": "Mo - Sa 9.00 - 20.00"},
﻿{"url": "https://www.mixmarkt.eu/en/germany/stores/6/", "country": "Germany", "city": "Karlsruhe", "latitude": "49.0443094", "longitude": "8.3890913", "title": "Mix Markt, Karlsruhe", "description": "Am Sandfeld 1 76149 Karlsruhe", "phone": "Phone: 0721 78195193", "opening_times": "Mo-Sa: 09.00-20.00"},
﻿{"url": "https://www.mixmarkt.eu/en/germany/stores/32/", "country": "Germany", "city": "Kassel", "latitude": "51.3235528", "longitude": "9.5007851", "title": "Mix Markt, Kassel", "description": "Holländische Straße 41-43 34127 Kassel", "phone": "Phone: 0561 4754917", "opening_times": "Mo - Fr 9.00 - 19.00"},
﻿{"url": "https://www.mixmarkt.eu/en/germany/stores/124/", "country": "Germany", "city": "Neustadt an der Weinstraße", "latitude": "49.3591500", "longitude": "8.1565400", "title": "Mix Markt, Neustadt an der Weinstraße", "description": "Bayernplatz 7 67433 Neustadt an der Weinstraße", "phone": "Phone: 06321 5789607", "opening_times": "Mo - Sa 9.00 - 20.00"},
﻿{"url": "https://www.mixmarkt.eu/en/germany/stores/180/", "country": "Germany", "city": "Nürnberg", "latitude": "49.4570619", "longitude": "11.0345596", "title": "Mix Markt, Nürnberg", "description": "Schnieglinger Str. 45 90419 Nürnberg", "phone": "Phone: 0911 35063937", "opening_times": "Mo.-Fr. 9.00-20.00"},
﻿{"url": "https://www.mixmarkt.eu/en/germany/stores/181/", "country": "Germany", "city": "Obertshausen", "latitude": "50.0751469", "longitude": "8.8531144", "title": "Mix Markt, Obertshausen", "description": "Leipziger Str.1 63179 Obertshausen", "phone": "Phone: 06104 4053930", "opening_times": "Mo-Sa: 09.00-20.00"}
]