address_full,city,country,brand,extras,lat,lon,day_opening_status,phone,ref,post_code,name,state,website
"Coast Guard Lane, Chichester, West Sussex, PO20 8AJ",West Sussex,United Kingdom,Nationaltrust,"{'brand': 'Nationaltrust', 'fascia': 'Nationaltrust', 'category': 'National sites', 'edit_date': '20250408', 'lat_lon_source': 'Third-party'}",50.78114,-0.903841,,+441243814730,6058,PO20 8AJ,East Head,,https://www.nationaltrust.org.uk/visit/sussex/east-head
"Lavington Common Car Park, Duncton Common Road, Duncton, West Sussex, GU28 0QL",West Sussex,United Kingdom,Nationaltrust,"{'brand': 'Nationaltrust', 'fascia': 'Nationaltrust', 'category': 'National sites', 'edit_date': '20250408', 'lat_lon_source': 'Third-party'}",50.9601325,-0.6503195,FULLY_OPEN,+441730816638,6060,GU28 0QL,Lavington Common,,https://www.nationaltrust.org.uk/visit/sussex/lavington-common
"Marley Common Car Park, Marley Lane, Haslemere, GU27 3PU",Haslemere,United Kingdom,Nationaltrust,"{'brand': 'Nationaltrust', 'fascia': 'Nationaltrust', 'category': 'National sites', 'edit_date': '20250408', 'lat_lon_source': 'Third-party'}",51.073106,-0.7356069,FULLY_OPEN,+441730816638,6061,GU27 3PU,Marley Common,,https://www.nationaltrust.org.uk/visit/sussex/marley-common
"Near Findon, West Sussex, BN14 0HT",West Sussex,United Kingdom,Nationaltrust,"{'brand': 'Nationaltrust', 'fascia': 'Nationaltrust', 'category': 'National sites', 'edit_date': '20250408', 'lat_lon_source': 'Third-party'}",50.86014,-0.37932,FULLY_OPEN,+441273857712,6056,BN14 0HT,Cissbury Ring,,https://www.nationaltrust.org.uk/visit/sussex/cissbury-ring
"East Sussex, BN26 5TT",East Sussex,United Kingdom,Nationaltrust,"{'brand': 'Nationaltrust', 'fascia': 'Nationaltrust', 'category': 'National sites', 'edit_date': '20250408', 'lat_lon_source': 'Third-party'}",50.78974,0.139652,FULLY_OPEN,+441323423197,5432,BN26 5TT,Cuckmere Valley,,https://www.nationaltrust.org.uk/visit/sussex/cuckmere-valley
"Saddlescombe Road, near Brighton, West Sussex, BN45 7DE",West Sussex,United Kingdom,Nationaltrust,"{'brand': 'Nationaltrust', 'fascia': 'Nationaltrust', 'category': 'National sites', 'edit_date': '20250408', 'lat_lon_source': 'Third-party'}",50.888979,-0.1943217,FULLY_OPEN,+441273857712,5253,BN45 7DE,Saddlescombe Farm and Newtimber Hill,,https://www.nationaltrust.org.uk/visit/sussex/saddlescombe-farm-and-newtimber-hill
"Woolbeding Common, Older Hill Lane, Redford, West Sussex, GU29 0QE",West Sussex,United Kingdom,Nationaltrust,"{'brand': 'Nationaltrust', 'fascia': 'Nationaltrust', 'category': 'National sites', 'edit_date': '20250408', 'lat_lon_source': 'Third-party'}",51.0271,-0.761295,FULLY_OPEN,+441730816638,6064,GU29 0QE,Woolbeding Countryside,,https://www.nationaltrust.org.uk/visit/sussex/woolbeding-countryside
"Enter Estate behind the cricket pavillion, Sheepwash Meadow, Singleton, West Sussex, PO18 0HA",West Sussex,United Kingdom,Nationaltrust,"{'brand': 'Nationaltrust', 'fascia': 'Nationaltrust', 'category': 'National sites', 'edit_date': '20250408', 'lat_lon_source': 'Third-party'}",50.9111971,-0.7571577,,+441243814730,6057,PO18 0HA,Drovers Estate,,https://www.nationaltrust.org.uk/visit/sussex/drovers-estate
"Lewes, East Sussex",Lewes,United Kingdom,Nationaltrust,"{'brand': 'Nationaltrust', 'fascia': 'Nationaltrust', 'category': 'National sites', 'edit_date': '20250408', 'lat_lon_source': 'Third-party'}",50.895237,-0.04667,FULLY_OPEN,+441323423197,6054,,Blackcap,,https://www.nationaltrust.org.uk/visit/sussex/blackcap
"Devil's Dyke, Nr Brighton, West Sussex",Nr Brighton,United Kingdom,Nationaltrust,"{'brand': 'Nationaltrust', 'fascia': 'Nationaltrust', 'category': 'National sites', 'edit_date': '20250408', 'lat_lon_source': 'Third-party'}",50.8845954,-0.2123548,FULLY_OPEN,+441273857712,5204,,Devil's Dyke,,https://www.nationaltrust.org.uk/visit/sussex/devils-dyke
"near Ditchling, East Sussex",near Ditchling,United Kingdom,Nationaltrust,"{'brand': 'Nationaltrust', 'fascia': 'Nationaltrust', 'category': 'National sites', 'edit_date': '20250408', 'lat_lon_source': 'Third-party'}",50.90084,-0.105186,FULLY_OPEN,+441323423197,6065,,Ditchling Beacon,,https://www.nationaltrust.org.uk/visit/sussex/ditchling-beacon
"Black Down, Tennyson's Lane, Haslemere, Surrey, GU27 3AF",Surrey,United Kingdom,Nationaltrust,"{'brand': 'Nationaltrust', 'fascia': 'Nationaltrust', 'category': 'National sites', 'edit_date': '20250408', 'lat_lon_source': 'Third-party'}",51.0700074,-0.6873412,FULLY_OPEN,+441730816638,6055,GU27 3AF,Black Down,,https://www.nationaltrust.org.uk/visit/sussex/black-down
"Harting Down (off B2141), South Harting, Petersfield, GU31 5PW",Petersfield,United Kingdom,Nationaltrust,"{'brand': 'Nationaltrust', 'fascia': 'Nationaltrust', 'category': 'National sites', 'edit_date': '20250408', 'lat_lon_source': 'Third-party'}",50.9565598,-0.875635,FULLY_OPEN,+441730816638,6059,GU31 5PW,Harting Down,,https://www.nationaltrust.org.uk/visit/sussex/harting-down
"Ardingly, Haywards Heath, West Sussex, RH17 6TN",West Sussex,United Kingdom,Nationaltrust,"{'brand': 'Nationaltrust', 'fascia': 'Nationaltrust', 'category': 'National sites', 'edit_date': '20250408', 'lat_lon_source': 'Third-party'}",51.064999,-0.08934,,+441444894066,350,RH17 6TN,Wakehurst,,https://www.nationaltrust.org.uk/visit/sussex/wakehurst
"West Street, Rye, East Sussex, TN31 7ES",East Sussex,United Kingdom,Nationaltrust,"{'brand': 'Nationaltrust', 'fascia': 'Nationaltrust', 'category': 'National sites', 'edit_date': '20250408', 'lat_lon_source': 'Third-party'}",50.949699,0.73426,FULLY_OPEN,+441797222909,195,TN31 7ES,Lamb House,,https://www.nationaltrust.org.uk/visit/sussex/lamb-house
"Bodiam, near Robertsbridge, East Sussex, TN32 5UA",East Sussex,United Kingdom,Nationaltrust,"{'brand': 'Nationaltrust', 'fascia': 'Nationaltrust', 'category': 'National sites', 'edit_date': '20250408', 'lat_lon_source': 'Third-party'}",51.000099,0.54741,FULLY_OPEN,+441580830196,42,TN32 5UA,Bodiam Castle,,https://www.nationaltrust.org.uk/visit/sussex/bodiam-castle
"West Hoathly Road, East Grinstead, West Sussex, RH19 4NE",West Sussex,United Kingdom,Nationaltrust,"{'brand': 'Nationaltrust', 'fascia': 'Nationaltrust', 'category': 'National sites', 'edit_date': '20250408', 'lat_lon_source': 'Third-party'}",51.103506,-0.01664,FULLY_OPEN,+441342323029,311,RH19 4NE,Standen House and Garden,,https://www.nationaltrust.org.uk/visit/sussex/standen-house-and-garden
"Handcross, near Haywards Heath, West Sussex, RH17 6EB",West Sussex,United Kingdom,Nationaltrust,"{'brand': 'Nationaltrust', 'fascia': 'Nationaltrust', 'category': 'National sites', 'edit_date': '20250408', 'lat_lon_source': 'Third-party'}",51.05228,-0.1993913,FULLY_OPEN,+441444405250,243,RH17 6EB,Nymans,,https://www.nationaltrust.org.uk/visit/sussex/nymans
"Petworth House and Park, Petworth, West Sussex, GU28 9LR",West Sussex,United Kingdom,Nationaltrust,"{'brand': 'Nationaltrust', 'fascia': 'Nationaltrust', 'category': 'National sites', 'edit_date': '20250408', 'lat_lon_source': 'Third-party'}",50.9945,-0.6114256,FULLY_OPEN,+441798342207,260,GU28 9LR,Petworth,,https://www.nationaltrust.org.uk/visit/sussex/petworth
"The Tye, Alfriston, Polegate, East Sussex, BN26 5TL",East Sussex,United Kingdom,Nationaltrust,"{'brand': 'Nationaltrust', 'fascia': 'Nationaltrust', 'category': 'National sites', 'edit_date': '20250408', 'lat_lon_source': 'Third-party'}",50.80616,0.15777,CLOSED,+441323871961,6,BN26 5TL,Alfriston Clergy House,,https://www.nationaltrust.org.uk/visit/sussex/alfriston-clergy-house
"Sheffield Park, Uckfield, East Sussex, TN22 3QX",East Sussex,United Kingdom,Nationaltrust,"{'brand': 'Nationaltrust', 'fascia': 'Nationaltrust', 'category': 'National sites', 'edit_date': '20250408', 'lat_lon_source': 'Third-party'}",51.0,0.0094,FULLY_OPEN,+441825790231,295,TN22 3QX,Sheffield Park and Garden,,https://www.nationaltrust.org.uk/visit/sussex/sheffield-park-and-garden
"Midhurst, West Sussex",Midhurst,United Kingdom,Nationaltrust,"{'brand': 'Nationaltrust', 'fascia': 'Nationaltrust', 'category': 'National sites', 'edit_date': '20250408', 'lat_lon_source': 'Third-party'}",50.9973848,-0.7579017,CLOSED,+443442491895,5389,,Woolbeding Gardens,,https://www.nationaltrust.org.uk/visit/sussex/woolbeding-gardens
"Bateman's Lane, Burwash, East Sussex, TN19 7DS",East Sussex,United Kingdom,Nationaltrust,"{'brand': 'Nationaltrust', 'fascia': 'Nationaltrust', 'category': 'National sites', 'edit_date': '20250408', 'lat_lon_source': 'Third-party'}",50.987701,0.37695,FULLY_OPEN,+441435882302,24,TN19 7DS,Bateman's,,https://www.nationaltrust.org.uk/visit/sussex/batemans
"East Dean, near Eastbourne, East Sussex, BN20 0AB",East Sussex,United Kingdom,Nationaltrust,"{'brand': 'Nationaltrust', 'fascia': 'Nationaltrust', 'category': 'National sites', 'edit_date': '20250408', 'lat_lon_source': 'Third-party'}",50.742905,0.201166,FULLY_OPEN,+441323423197,5125,BN20 0AB,Birling Gap and the Seven Sisters,,https://www.nationaltrust.org.uk/visit/sussex/birling-gap-and-the-seven-sisters
"South Harting, Petersfield, West Sussex, GU31 5QR",West Sussex,United Kingdom,Nationaltrust,"{'brand': 'Nationaltrust', 'fascia': 'Nationaltrust', 'category': 'National sites', 'edit_date': '20250408', 'lat_lon_source': 'Third-party'}",50.952702,-0.88896,CLOSED,+441730825415,345,GU31 5QR,Uppark House and Garden,,https://www.nationaltrust.org.uk/visit/sussex/uppark-house-and-garden
"Rodmell, Lewes, East Sussex, BN7 3HF",East Sussex,United Kingdom,Nationaltrust,"{'brand': 'Nationaltrust', 'fascia': 'Nationaltrust', 'category': 'National sites', 'edit_date': '20250408', 'lat_lon_source': 'Third-party'}",50.8396,0.01917,CLOSED,+441273474760,227,BN7 3HF,Monk's House,,https://www.nationaltrust.org.uk/visit/sussex/monks-house
"Slindon, near Arundel, West Sussex",near Arundel,United Kingdom,Nationaltrust,"{'brand': 'Nationaltrust', 'fascia': 'Nationaltrust', 'category': 'National sites', 'edit_date': '20250408', 'lat_lon_source': 'Third-party'}",50.8608835,-0.6364376,FULLY_OPEN,+441243814730,6062,,Slindon Estate,,https://www.nationaltrust.org.uk/visit/sussex/slindon-estate
"Sturminster Marshall, near Wimborne Minster, Dorset, BH21 4BX",Dorset,United Kingdom,Nationaltrust,"{'brand': 'Nationaltrust', 'fascia': 'Nationaltrust', 'category': 'National sites', 'edit_date': '20250408', 'lat_lon_source': 'Third-party'}",50.805087,-2.0610352,CLOSED,+441258858051,366,BH21 4BX,White Mill,,https://www.nationaltrust.org.uk/visit/dorset/white-mill
"Forest Gate car park, near Broadclyst, Exeter, Devon",Exeter,United Kingdom,Nationaltrust,"{'brand': 'Nationaltrust', 'fascia': 'Nationaltrust', 'category': 'National sites', 'edit_date': '20250408', 'lat_lon_source': 'Third-party'}",50.7875671,-3.421156,,+441392881345,6220,,Ashclyst Forest,,https://www.nationaltrust.org.uk/visit/devon/ashclyst-forest
"Near Shaftesbury, Dorset",Near Shaftesbury,United Kingdom,Nationaltrust,"{'brand': 'Nationaltrust', 'fascia': 'Nationaltrust', 'category': 'National sites', 'edit_date': '20250408', 'lat_lon_source': 'Third-party'}",50.967604,-2.163719,,+441297489481,5292,,Fontmell and Melbury Downs,,https://www.nationaltrust.org.uk/visit/dorset/fontmell-and-melbury-downs
"Hatfield Road, Potters Bar, Hertfordshire, EN6 1HS",Hertfordshire,United Kingdom,Nationaltrust,"{'brand': 'Nationaltrust', 'fascia': 'Nationaltrust', 'category': 'National sites', 'edit_date': '20250408', 'lat_lon_source': 'Third-party'}",51.700131,-0.174226,FULLY_OPEN,+441582873663,6193,EN6 1HS,Morven Park,,https://www.nationaltrust.org.uk/visit/essex-bedfordshire-hertfordshire/morven-park
Devon,,United Kingdom,Nationaltrust,"{'brand': 'Nationaltrust', 'fascia': 'Nationaltrust', 'category': 'National sites', 'edit_date': '20250408', 'lat_lon_source': 'Third-party'}",50.338755,-3.547343,FULLY_OPEN,+441803843235,5203,,Brownstone and Coleton Camp,,https://www.nationaltrust.org.uk/visit/devon/brownstone-and-coleton-camp
"Contact - Woolacombe Rangers, Pay & Display car park (not NT), Mortehoe, Devon, EX34 7DT - SatNav for car park",Devon,United Kingdom,Nationaltrust,"{'brand': 'Nationaltrust', 'fascia': 'Nationaltrust', 'category': 'National sites', 'edit_date': '20250408', 'lat_lon_source': 'Third-party'}",51.187373,-4.198934,,+441271870555,6217,EX34 7DT,Mortehoe,,https://www.nationaltrust.org.uk/visit/devon/mortehoe
"Nr Broadwindsor, Beaminster, Dorset",Beaminster,United Kingdom,Nationaltrust,"{'brand': 'Nationaltrust', 'fascia': 'Nationaltrust', 'category': 'National sites', 'edit_date': '20250408', 'lat_lon_source': 'Third-party'}",50.807833,-2.799555,,+441297489481,5289,,Lewesdon Hill,,https://www.nationaltrust.org.uk/visit/dorset/lewesdon-hill
"Cerne Abbas, Dorset, DT2 7AL",Dorset,United Kingdom,Nationaltrust,"{'brand': 'Nationaltrust', 'fascia': 'Nationaltrust', 'category': 'National sites', 'edit_date': '20250408', 'lat_lon_source': 'Third-party'}",50.812979,-2.475441,,+441297489481,5072,DT2 7AL,Cerne Giant,,https://www.nationaltrust.org.uk/visit/dorset/cerne-giant
"South of Cherhill village, Near Calne, Wiltshire",Near Calne,United Kingdom,Nationaltrust,"{'brand': 'Nationaltrust', 'fascia': 'Nationaltrust', 'category': 'National sites', 'edit_date': '20250408', 'lat_lon_source': 'Third-party'}",51.42359,-1.935232,FULLY_OPEN,+441672539920,6103,,Calstone and Cherhill Downs,,https://www.nationaltrust.org.uk/visit/wiltshire/calstone-and-cherhill-downs
"Bristol Channel, Devon, EX39 2LY (Bookings office)",Devon,United Kingdom,Nationaltrust,"{'brand': 'Nationaltrust', 'fascia': 'Nationaltrust', 'category': 'National sites', 'edit_date': '20250408', 'lat_lon_source': 'Third-party'}",51.1735,-4.67047,,+441271863636,214,EX39 2LY,Lundy,,https://www.nationaltrust.org.uk/visit/devon/lundy
"Nr Askerwell, Bridport, Dorset",Bridport,United Kingdom,Nationaltrust,"{'brand': 'Nationaltrust', 'fascia': 'Nationaltrust', 'category': 'National sites', 'edit_date': '20250408', 'lat_lon_source': 'Third-party'}",50.748316,-2.644877,,+441297489481,5015,,Eggardon Hill,,https://www.nationaltrust.org.uk/visit/dorset/eggardon-hill
"Cley Hill, Corsley, Warminster, Wiltshire, BA12 7QU",Wiltshire,United Kingdom,Nationaltrust,"{'brand': 'Nationaltrust', 'fascia': 'Nationaltrust', 'category': 'National sites', 'edit_date': '20250408', 'lat_lon_source': 'Third-party'}",51.20299,-2.232584,FULLY_OPEN,+441672539920,6109,BA12 7QU,Cley Hill,,https://www.nationaltrust.org.uk/visit/wiltshire/cley-hill
"Teign Gorge, near Drewsteignton, Exeter, Devon",Exeter,United Kingdom,Nationaltrust,"{'brand': 'Nationaltrust', 'fascia': 'Nationaltrust', 'category': 'National sites', 'edit_date': '20250408', 'lat_lon_source': 'Third-party'}",50.695276,-3.780949,FULLY_OPEN,+441647433306,6219,,Fingle Bridge,,https://www.nationaltrust.org.uk/visit/devon/fingle-bridge
"Plymbridge Road, Plympton, Devon, PL7 4SR",Devon,United Kingdom,Nationaltrust,"{'brand': 'Nationaltrust', 'fascia': 'Nationaltrust', 'category': 'National sites', 'edit_date': '20250408', 'lat_lon_source': 'Third-party'}",50.4089,-4.0786,,+441752341377,5423,PL7 4SR,Plymbridge Woods,,https://www.nationaltrust.org.uk/visit/devon/plymbridge-woods
"Rayleigh, Essex",Rayleigh,United Kingdom,Nationaltrust,"{'brand': 'Nationaltrust', 'fascia': 'Nationaltrust', 'category': 'National sites', 'edit_date': '20250408', 'lat_lon_source': 'Third-party'}",51.587898,0.60605,FULLY_OPEN,+447824891420,276,,Rayleigh Mount,,https://www.nationaltrust.org.uk/visit/essex-bedfordshire-hertfordshire/rayleigh-mount
"St Agnes Head, Off Beacon Drive, St Agnes, Cornwall, TR5 0NU",Cornwall,United Kingdom,Nationaltrust,"{'brand': 'Nationaltrust', 'fascia': 'Nationaltrust', 'category': 'National sites', 'edit_date': '20250408', 'lat_lon_source': 'Third-party'}",50.31736,-5.2322227,FULLY_OPEN,+441872552412,6137,TR5 0NU,St Agnes Head,,https://www.nationaltrust.org.uk/visit/cornwall/st-agnes-head
"119a Whitepark Road, Ballintoy, County Antrim, BT54 6LS",County Antrim,United Kingdom,Nationaltrust,"{'brand': 'Nationaltrust', 'fascia': 'Nationaltrust', 'category': 'National sites', 'edit_date': '20250408', 'lat_lon_source': 'Third-party'}",55.236698,-6.3328,FULLY_OPEN,+442820731855,407,BT54 6LS,Carrick-a-Rede,,https://www.nationaltrust.org.uk/visit/northern-ireland/carrick-a-rede
"Kestle Mill, near Newquay, Cornwall, TR8 4PG",Cornwall,United Kingdom,Nationaltrust,"{'brand': 'Nationaltrust', 'fascia': 'Nationaltrust', 'category': 'National sites', 'edit_date': '20250408', 'lat_lon_source': 'Third-party'}",50.38661,-5.03809,FULLY_OPEN,+441637875404,338,TR8 4PG,Trerice,,https://www.nationaltrust.org.uk/visit/cornwall/trerice
"Ilam, Ashbourne, Staffordshire, DE6 2AZ",Staffordshire,United Kingdom,Nationaltrust,"{'brand': 'Nationaltrust', 'fascia': 'Nationaltrust', 'category': 'National sites', 'edit_date': '20250408', 'lat_lon_source': 'Third-party'}",53.052624,-1.805627,FULLY_OPEN,+441335350503,4510,DE6 2AZ,"Ilam Park, Dovedale and the White Peak",,https://www.nationaltrust.org.uk/visit/peak-district-derbyshire/ilam-park-dovedale-and-the-white-peak
Mid Somerset,,United Kingdom,Nationaltrust,"{'brand': 'Nationaltrust', 'fascia': 'Nationaltrust', 'category': 'National sites', 'edit_date': '20250408', 'lat_lon_source': 'Third-party'}",51.296276,-2.721176,FULLY_OPEN,+441934844518,5177,,Mendip Hills,,https://www.nationaltrust.org.uk/visit/somerset/mendip-hills
"North Cornwall coast, near Polzeath, Cornwall",near Polzeath,United Kingdom,Nationaltrust,"{'brand': 'Nationaltrust', 'fascia': 'Nationaltrust', 'category': 'National sites', 'edit_date': '20250408', 'lat_lon_source': 'Third-party'}",50.588931,-4.866948,FULLY_OPEN,+441208863046,5425,,Port Quin,,https://www.nationaltrust.org.uk/visit/cornwall/port-quin
"near Kewstoke, Weston-super-Mare, Somerset, BS22 9UD",Somerset,United Kingdom,Nationaltrust,"{'brand': 'Nationaltrust', 'fascia': 'Nationaltrust', 'category': 'National sites', 'edit_date': '20250408', 'lat_lon_source': 'Third-party'}",51.388837,-2.963809,FULLY_OPEN,+441934844518,6238,BS22 9UD,Sand Point,,https://www.nationaltrust.org.uk/visit/somerset/sand-point
"Cambo, near Morpeth, Northumberland, NE61 4AR",Northumberland,United Kingdom,Nationaltrust,"{'brand': 'Nationaltrust', 'fascia': 'Nationaltrust', 'category': 'National sites', 'edit_date': '20250408', 'lat_lon_source': 'Third-party'}",55.1507,-1.95144,FULLY_OPEN,+441670773606,352,NE61 4AR,Wallington,,https://www.nationaltrust.org.uk/visit/north-east/wallington
"near Banbury, Warwickshire, OX15 6HT",Warwickshire,United Kingdom,Nationaltrust,"{'brand': 'Nationaltrust', 'fascia': 'Nationaltrust', 'category': 'National sites', 'edit_date': '20250408', 'lat_lon_source': 'Third-party'}",52.1109,-1.46744,FULLY_OPEN,+441295670266,346,OX15 6HT,Upton House and Gardens,,https://www.nationaltrust.org.uk/visit/warwickshire/upton-house-and-gardens
"Marldon, Paignton, Devon, TQ3 1TA",Devon,United Kingdom,Nationaltrust,"{'brand': 'Nationaltrust', 'fascia': 'Nationaltrust', 'category': 'National sites', 'edit_date': '20250408', 'lat_lon_source': 'Third-party'}",50.472198,-3.59649,FULLY_OPEN,+441803843235,93,TQ3 1TA,Compton Castle,,https://www.nationaltrust.org.uk/visit/devon/compton-castle
"Roman Bank, Sandilands nr Sutton-on-Sea, Mablethorpe, Lincolnshire, LN12 2RJ",Lincolnshire,United Kingdom,Nationaltrust,"{'brand': 'Nationaltrust', 'fascia': 'Nationaltrust', 'category': 'National sites', 'edit_date': '20250408', 'lat_lon_source': 'Third-party'}",53.298127,0.294369,FULLY_OPEN,+441754890102,900011,LN12 2RJ,Sandilands,,https://www.nationaltrust.org.uk/visit/nottinghamshire-lincolnshire/sandilands
"Brean, Somerset, TA8 2RS",Somerset,United Kingdom,Nationaltrust,"{'brand': 'Nationaltrust', 'fascia': 'Nationaltrust', 'category': 'National sites', 'edit_date': '20250408', 'lat_lon_source': 'Third-party'}",51.324402,-3.01443,FULLY_OPEN,+441934844518,2365,TA8 2RS,Brean Down,,https://www.nationaltrust.org.uk/visit/somerset/brean-down
"The Avenue, Washington Village, Washington, Tyne & Wear, NE38 7LE",Tyne & Wear,United Kingdom,Nationaltrust,"{'brand': 'Nationaltrust', 'fascia': 'Nationaltrust', 'category': 'National sites', 'edit_date': '20250408', 'lat_lon_source': 'Third-party'}",54.9028,-1.5165,CLOSED,+441914166879,354,NE38 7LE,Washington Old Hall,,https://www.nationaltrust.org.uk/visit/north-east/washington-old-hall
"Coast Road, Whitburn, Tyne & Wear, SR6 7NH",Tyne & Wear,United Kingdom,Nationaltrust,"{'brand': 'Nationaltrust', 'fascia': 'Nationaltrust', 'category': 'National sites', 'edit_date': '20250408', 'lat_lon_source': 'Third-party'}",54.967999,-1.36124,FULLY_OPEN,+441915293161,304,SR6 7NH,Souter Lighthouse and The Leas,,https://www.nationaltrust.org.uk/visit/north-east/souter-lighthouse-and-the-leas
"Summer Lane, Exmouth, Devon, EX8 5BD",Devon,United Kingdom,Nationaltrust,"{'brand': 'Nationaltrust', 'fascia': 'Nationaltrust', 'category': 'National sites', 'edit_date': '20250408', 'lat_lon_source': 'Third-party'}",50.641718,-3.408798,FULLY_OPEN,+441395265514,1,EX8 5BD,A la Ronde,,https://www.nationaltrust.org.uk/visit/devon/a-la-ronde
"Doncaster Road, Nostell, near Wakefield, West Yorkshire, WF4 1QE",West Yorkshire,United Kingdom,Nationaltrust,"{'brand': 'Nationaltrust', 'fascia': 'Nationaltrust', 'category': 'National sites', 'edit_date': '20250408', 'lat_lon_source': 'Third-party'}",53.652599,-1.38881,FULLY_OPEN,+441924863892,241,WF4 1QE,Nostell,,https://www.nationaltrust.org.uk/visit/yorkshire/nostell
"Nose's Point Car Park, East Cliff Road, Seaham, County Durham, SR7 7PS",County Durham,United Kingdom,Nationaltrust,"{'brand': 'Nationaltrust', 'fascia': 'Nationaltrust', 'category': 'National sites', 'edit_date': '20250408', 'lat_lon_source': 'Third-party'}",54.823619,-1.322313,FULLY_OPEN,+441915293161,6171,SR7 7PS,Durham Coast,,https://www.nationaltrust.org.uk/visit/north-east/durham-coast
"near Rowlands Gill, Gateshead, Tyne & Wear, NE16 6BG",Tyne & Wear,United Kingdom,Nationaltrust,"{'brand': 'Nationaltrust', 'fascia': 'Nationaltrust', 'category': 'National sites', 'edit_date': '20250408', 'lat_lon_source': 'Third-party'}",54.920502,-1.73174,FULLY_OPEN,+441207541820,142,NE16 6BG,Gibside,,https://www.nationaltrust.org.uk/visit/north-east/gibside
"The Avenue, Seaton Sluice, Northumberland, NE26 4QR",Northumberland,United Kingdom,Nationaltrust,"{'brand': 'Nationaltrust', 'fascia': 'Nationaltrust', 'category': 'National sites', 'edit_date': '20250408', 'lat_lon_source': 'Third-party'}",55.082846,-1.496508,CLOSED,+441912379100,4032,NE26 4QR,Seaton Delaval Hall,,https://www.nationaltrust.org.uk/visit/north-east/seaton-delaval-hall
"Hascombe Road, Godalming, Surrey, GU8 4AD",Surrey,United Kingdom,Nationaltrust,"{'brand': 'Nationaltrust', 'fascia': 'Nationaltrust', 'category': 'National sites', 'edit_date': '20250408', 'lat_lon_source': 'Third-party'}",51.1614,-0.58113,FULLY_OPEN,+441483208477,378,GU8 4AD,Winkworth Arboretum,,https://www.nationaltrust.org.uk/visit/surrey/winkworth-arboretum
"Colby Woodland Garden, near Amroth, Pembrokeshire, SA67 8PP",Pembrokeshire,United Kingdom,Nationaltrust,"{'brand': 'Nationaltrust', 'fascia': 'Nationaltrust', 'category': 'National sites', 'edit_date': '20250408', 'lat_lon_source': 'Third-party'}",51.742001,-4.67168,FULLY_OPEN,+441646623110,87,SA67 8PP,Colby Woodland Garden,,https://www.nationaltrust.org.uk/visit/wales/colby-woodland-garden
"Morden Hall Road, Morden, London, SM4 5JD",London,United Kingdom,Nationaltrust,"{'brand': 'Nationaltrust', 'fascia': 'Nationaltrust', 'category': 'National sites', 'edit_date': '20250408', 'lat_lon_source': 'Third-party'}",51.400611,-0.188722,FULLY_OPEN,+442085456850,229,SM4 5JD,Morden Hall Park,,https://www.nationaltrust.org.uk/visit/london/morden-hall-park
"Disley, Stockport, Cheshire, SK12 2NR",Cheshire,United Kingdom,Nationaltrust,"{'brand': 'Nationaltrust', 'fascia': 'Nationaltrust', 'category': 'National sites', 'edit_date': '20250408', 'lat_lon_source': 'Third-party'}",53.337002,-2.05322,FULLY_OPEN,+441663762023,215,SK12 2NR,Lyme,,https://www.nationaltrust.org.uk/visit/cheshire-greater-manchester/lyme
"Llanbedrog, Gwynedd, LL53 7TT",Gwynedd,United Kingdom,Nationaltrust,"{'brand': 'Nationaltrust', 'fascia': 'Nationaltrust', 'category': 'National sites', 'edit_date': '20250408', 'lat_lon_source': 'Third-party'}",52.857872,-4.484416,FULLY_OPEN,+441758703810,6148,LL53 7TT,Llanbedrog beach,,https://www.nationaltrust.org.uk/visit/wales/llanbedrog-beach
"Newby Bridge, Windermere, Cumbria, LA12 8NN",Cumbria,United Kingdom,Nationaltrust,"{'brand': 'Nationaltrust', 'fascia': 'Nationaltrust', 'category': 'National sites', 'edit_date': '20250408', 'lat_lon_source': 'Third-party'}",54.27402,-2.952607,FULLY_OPEN,+441539531273,128,LA12 8NN,Fell Foot,,https://www.nationaltrust.org.uk/visit/lake-district/fell-foot
"Brownstone Road, Kingswear, Devon, TQ6 0EQ",Devon,United Kingdom,Nationaltrust,"{'brand': 'Nationaltrust', 'fascia': 'Nationaltrust', 'category': 'National sites', 'edit_date': '20250408', 'lat_lon_source': 'Third-party'}",50.345299,-3.53439,FULLY_OPEN,+441803843235,92,TQ6 0EQ,Coleton Fishacre,,https://www.nationaltrust.org.uk/visit/devon/coleton-fishacre
"Great Bookham, near Dorking, Surrey, RH5 6BD",Surrey,United Kingdom,Nationaltrust,"{'brand': 'Nationaltrust', 'fascia': 'Nationaltrust', 'category': 'National sites', 'edit_date': '20250408', 'lat_lon_source': 'Third-party'}",51.261002,-0.36886,FULLY_OPEN,+441372452048,265,RH5 6BD,Polesden Lacey,,https://www.nationaltrust.org.uk/visit/surrey/polesden-lacey
"Pont ar Daf car park (access to Pen y Fan), Near Storey Arms, Libanus, Powys, LD3 8NL",Powys,United Kingdom,Nationaltrust,"{'brand': 'Nationaltrust', 'fascia': 'Nationaltrust', 'category': 'National sites', 'edit_date': '20250408', 'lat_lon_source': 'Third-party'}",51.869149,-3.473123,FULLY_OPEN,+441874625515,5067,LD3 8NL,Bannau Brycheiniog (Brecon Beacons),,https://www.nationaltrust.org.uk/visit/wales/bannau-brycheiniog-brecon-beacons
"Milford, near Stafford, Staffordshire, ST17 0UP",Staffordshire,United Kingdom,Nationaltrust,"{'brand': 'Nationaltrust', 'fascia': 'Nationaltrust', 'category': 'National sites', 'edit_date': '20250408', 'lat_lon_source': 'Third-party'}",52.789294,-2.033064,PARTIALLY_OPEN,+441889880160,297,ST17 0UP,Shugborough Estate,,https://www.nationaltrust.org.uk/visit/shropshire-staffordshire/shugborough-estate
"Burnley Road, Padiham, near Burnley, Lancashire, BB12 8UA",Lancashire,United Kingdom,Nationaltrust,"{'brand': 'Nationaltrust', 'fascia': 'Nationaltrust', 'category': 'National sites', 'edit_date': '20250408', 'lat_lon_source': 'Third-party'}",53.803799,-2.29093,PARTIALLY_OPEN,+441282771004,138,BB12 8UA,Gawthorpe Hall,,https://www.nationaltrust.org.uk/visit/liverpool-lancashire/gawthorpe-hall
"Nimmings Wood car park, Hagley Wood Lane, near Romsley, Worcestershire, B62 0NL",Worcestershire,United Kingdom,Nationaltrust,"{'brand': 'Nationaltrust', 'fascia': 'Nationaltrust', 'category': 'National sites', 'edit_date': '20250408', 'lat_lon_source': 'Third-party'}",52.424823,-2.092195,FULLY_OPEN,,5233,B62 0NL,Clent Hills,,https://www.nationaltrust.org.uk/visit/worcestershire-herefordshire/clent-hills
"Wembury Beach, Wembury, Devon, PL9 0HP",Devon,United Kingdom,Nationaltrust,"{'brand': 'Nationaltrust', 'fascia': 'Nationaltrust', 'category': 'National sites', 'edit_date': '20250408', 'lat_lon_source': 'Third-party'}",50.316836,-4.084386,FULLY_OPEN,+441548562344,246,PL9 0HP,Wembury,,https://www.nationaltrust.org.uk/visit/devon/wembury
"Longshaw, near Sheffield, Derbyshire",near Sheffield,United Kingdom,Nationaltrust,"{'brand': 'Nationaltrust', 'fascia': 'Nationaltrust', 'category': 'National sites', 'edit_date': '20250408', 'lat_lon_source': 'Third-party'}",53.316263,-1.600686,FULLY_OPEN,+441433631757,213,,"Longshaw, Burbage and the Eastern Moors",,https://www.nationaltrust.org.uk/visit/peak-district-derbyshire/longshaw-burbage-and-the-eastern-moors
"Smallhythe, Tenterden, Kent, TN30 7NG",Kent,United Kingdom,Nationaltrust,"{'brand': 'Nationaltrust', 'fascia': 'Nationaltrust', 'category': 'National sites', 'edit_date': '20250408', 'lat_lon_source': 'Third-party'}",51.0383,0.70182,CLOSED,+441580762334,302,TN30 7NG,Smallhythe Place,,https://www.nationaltrust.org.uk/visit/kent/smallhythe-place
"Chirk Castle, Chirk, Wrexham, LL14 5AF",Wrexham,United Kingdom,Nationaltrust,"{'brand': 'Nationaltrust', 'fascia': 'Nationaltrust', 'category': 'National sites', 'edit_date': '20250408', 'lat_lon_source': 'Third-party'}",52.935902,-3.08353,FULLY_OPEN,+441691777701,76,LL14 5AF,Chirk Castle and Garden,,https://www.nationaltrust.org.uk/visit/wales/chirk-castle
"National Trust Danbury Common, The Armoury, Penny Royal Road, Danbury, Essex, CM3 4ED",Essex,United Kingdom,Nationaltrust,"{'brand': 'Nationaltrust', 'fascia': 'Nationaltrust', 'category': 'National sites', 'edit_date': '20250408', 'lat_lon_source': 'Third-party'}",51.710061,0.576404,FULLY_OPEN,+441245227662,5326,CM3 4ED,Danbury Commons and Blakes Wood,,https://www.nationaltrust.org.uk/visit/essex-bedfordshire-hertfordshire/danbury-commons-and-blakes-wood
"The Old Fort, Box Hill Road, Tadworth, Surrey, KT20 7LB",Surrey,United Kingdom,Nationaltrust,"{'brand': 'Nationaltrust', 'fascia': 'Nationaltrust', 'category': 'National sites', 'edit_date': '20250408', 'lat_lon_source': 'Third-party'}",51.248901,-0.3101,FULLY_OPEN,+441306885502,44,KT20 7LB,Box Hill,,https://www.nationaltrust.org.uk/visit/surrey/box-hill
"Brimham Moor Road, Summerbridge, Harrogate, North Yorkshire, HG3 4DW",North Yorkshire,United Kingdom,Nationaltrust,"{'brand': 'Nationaltrust', 'fascia': 'Nationaltrust', 'category': 'National sites', 'edit_date': '20250408', 'lat_lon_source': 'Third-party'}",54.081699,-1.67613,FULLY_OPEN,+441423780688,52,HG3 4DW,Brimham Rocks,,https://www.nationaltrust.org.uk/visit/yorkshire/brimham-rocks
"Near Bardon Mill, Hexham, Northumberland, NE47 6NN",Northumberland,United Kingdom,Nationaltrust,"{'brand': 'Nationaltrust', 'fascia': 'Nationaltrust', 'category': 'National sites', 'edit_date': '20250408', 'lat_lon_source': 'Third-party'}",55.013199,-2.32881,FULLY_OPEN,+441434344525,157,NE47 6NN,Hadrian's Wall and Housesteads Fort,,https://www.nationaltrust.org.uk/visit/north-east/hadrians-wall-and-housesteads-fort
"Jersey Road, Isleworth, Middlesex, TW7 4RB (sat nav TW7 4RD)",Middlesex,United Kingdom,Nationaltrust,"{'brand': 'Nationaltrust', 'fascia': 'Nationaltrust', 'category': 'National sites', 'edit_date': '20250408', 'lat_lon_source': 'Third-party'}",51.489498,-0.35289,PARTIALLY_OPEN,+442082325050,251,TW7 4RB,Osterley Park and House,,https://www.nationaltrust.org.uk/visit/london/osterley-park-and-house
"Black Down, Portesham, Dorset, DT2 9HY",Dorset,United Kingdom,Nationaltrust,"{'brand': 'Nationaltrust', 'fascia': 'Nationaltrust', 'category': 'National sites', 'edit_date': '20250408', 'lat_lon_source': 'Third-party'}",50.686199,-2.54871,PARTIALLY_OPEN,+441297489481,167,DT2 9HY,Hardy Monument,,https://www.nationaltrust.org.uk/visit/dorset/hardy-monument
"Rangers office, Brownsham, Hartland nr Bideford, Devon, EX39 6AN",Devon,United Kingdom,Nationaltrust,"{'brand': 'Nationaltrust', 'fascia': 'Nationaltrust', 'category': 'National sites', 'edit_date': '20250408', 'lat_lon_source': 'Third-party'}",51.013201,-4.443378,FULLY_OPEN,+441237441976,5060,EX39 6AN,Bideford Bay and Hartland,,https://www.nationaltrust.org.uk/visit/devon/bideford-bay-and-hartland
"Kedleston Road, near Quarndon, Derby, Derbyshire, DE22 5JH",Derbyshire,United Kingdom,Nationaltrust,"{'brand': 'Nationaltrust', 'fascia': 'Nationaltrust', 'category': 'National sites', 'edit_date': '20250408', 'lat_lon_source': 'Third-party'}",52.9585,-1.53348,FULLY_OPEN,+441332842191,185,DE22 5JH,Kedleston Hall,,https://www.nationaltrust.org.uk/visit/peak-district-derbyshire/kedleston-hall
"Hinton Ampner, near Alresford, Hampshire, SO24 0LA",Hampshire,United Kingdom,Nationaltrust,"{'brand': 'Nationaltrust', 'fascia': 'Nationaltrust', 'category': 'National sites', 'edit_date': '20250408', 'lat_lon_source': 'Third-party'}",51.044591,-1.151521,FULLY_OPEN,+441962771305,175,SO24 0LA,Hinton Ampner,,https://www.nationaltrust.org.uk/visit/hampshire/hinton-ampner
"Rowallane Garden, Crossgar Road, Saintfield, County Down, BT24 7LH",County Down,United Kingdom,Nationaltrust,"{'brand': 'Nationaltrust', 'fascia': 'Nationaltrust', 'category': 'National sites', 'edit_date': '20250408', 'lat_lon_source': 'Third-party'}",54.447102,-5.82684,FULLY_OPEN,+442897510131,281,BT24 7LH,Rowallane Garden,,https://www.nationaltrust.org.uk/visit/northern-ireland/rowallane-garden
"North Brink, Wisbech, Cambridgeshire, PE13 1JR",Cambridgeshire,United Kingdom,Nationaltrust,"{'brand': 'Nationaltrust', 'fascia': 'Nationaltrust', 'category': 'National sites', 'edit_date': '20250408', 'lat_lon_source': 'Third-party'}",52.665487,0.154538,CLOSED,+441945583463,258,PE13 1JR,Peckover House and Garden,,https://www.nationaltrust.org.uk/visit/cambridgeshire/peckover-house-and-garden
"School Road, Hanbury, Droitwich Spa, Worcestershire, WR9 7EA",Worcestershire,United Kingdom,Nationaltrust,"{'brand': 'Nationaltrust', 'fascia': 'Nationaltrust', 'category': 'National sites', 'edit_date': '20250408', 'lat_lon_source': 'Third-party'}",52.275398,-2.08633,FULLY_OPEN,+441527821214,160,WR9 7EA,Hanbury Hall,,https://www.nationaltrust.org.uk/visit/worcestershire-herefordshire/hanbury-hall
"Holy Island, Berwick-upon-Tweed, Northumberland, TD15 2SH",Northumberland,United Kingdom,Nationaltrust,"{'brand': 'Nationaltrust', 'fascia': 'Nationaltrust', 'category': 'National sites', 'edit_date': '20250408', 'lat_lon_source': 'Third-party'}",55.6698,-1.78756,FULLY_OPEN,+441289389244,202,TD15 2SH,Lindisfarne Castle,,https://www.nationaltrust.org.uk/visit/north-east/lindisfarne-castle
"Enniskillen, County Fermanagh, BT92 1DB",County Fermanagh,United Kingdom,Nationaltrust,"{'brand': 'Nationaltrust', 'fascia': 'Nationaltrust', 'category': 'National sites', 'edit_date': '20250408', 'lat_lon_source': 'Third-party'}",54.258301,-7.72989,PARTIALLY_OPEN,+442866348249,133,BT92 1DB,Florence Court,,https://www.nationaltrust.org.uk/visit/northern-ireland/florence-court
"Plympton, Plymouth, Devon, PL7 1UH",Devon,United Kingdom,Nationaltrust,"{'brand': 'Nationaltrust', 'fascia': 'Nationaltrust', 'category': 'National sites', 'edit_date': '20250408', 'lat_lon_source': 'Third-party'}",50.3815,-4.08548,FULLY_OPEN,+441752333500,289,PL7 1UH,Saltram,,https://www.nationaltrust.org.uk/visit/devon/saltram
"Sleaford Road, Tattershall, Lincolnshire, LN4 4LR",Lincolnshire,United Kingdom,Nationaltrust,"{'brand': 'Nationaltrust', 'fascia': 'Nationaltrust', 'category': 'National sites', 'edit_date': '20250408', 'lat_lon_source': 'Third-party'}",53.101002,-0.19063,FULLY_OPEN,+441526342543,326,LN4 4LR,Tattershall Castle,,https://www.nationaltrust.org.uk/visit/nottinghamshire-lincolnshire/tattershall-castle
"Ralph Allen Drive, Bath, Somerset, BA2 5AH",Somerset,United Kingdom,Nationaltrust,"{'brand': 'Nationaltrust', 'fascia': 'Nationaltrust', 'category': 'National sites', 'edit_date': '20250408', 'lat_lon_source': 'Third-party'}",51.3658513,-2.3457476,FULLY_OPEN,+441225833977,270,BA2 5AH,Prior Park Landscape Garden,,https://www.nationaltrust.org.uk/visit/bath-bristol/prior-park-landscape-garden
"44 Causeway Road, Bushmills, County Antrim, BT57 8SU",County Antrim,United Kingdom,Nationaltrust,"{'brand': 'Nationaltrust', 'fascia': 'Nationaltrust', 'category': 'National sites', 'edit_date': '20250408', 'lat_lon_source': 'Third-party'}",55.240807,-6.511572,FULLY_OPEN,+442820731855,141,BT57 8SU,Giant's Causeway,,https://www.nationaltrust.org.uk/visit/northern-ireland/giants-causeway
"Ham Street, Ham, Richmond, Surrey, TW10 7RS",Surrey,United Kingdom,Nationaltrust,"{'brand': 'Nationaltrust', 'fascia': 'Nationaltrust', 'category': 'National sites', 'edit_date': '20250408', 'lat_lon_source': 'Third-party'}",51.443199,-0.31505,FULLY_OPEN,+442089401950,159,TW10 7RS,Ham House and Garden,,https://www.nationaltrust.org.uk/visit/london/ham-house-and-garden
"Temple Sowerby, near Penrith, Cumbria, CA10 1SP",Cumbria,United Kingdom,Nationaltrust,"{'brand': 'Nationaltrust', 'fascia': 'Nationaltrust', 'category': 'National sites', 'edit_date': '20250408', 'lat_lon_source': 'Third-party'}",54.646301,-2.59228,PARTIALLY_OPEN,+441768361893,5,CA10 1SP,Acorn Bank,,https://www.nationaltrust.org.uk/visit/lake-district/acorn-bank
"Aberdulais, Neath, Neath Port Talbot, SA10 8EU",Neath Port Talbot,United Kingdom,Nationaltrust,"{'brand': 'Nationaltrust', 'fascia': 'Nationaltrust', 'category': 'National sites', 'edit_date': '20250408', 'lat_lon_source': 'Third-party'}",51.680698,-3.77791,CLOSED,+441639636674,3,SA10 8EU,Aberdulais,,https://www.nationaltrust.org.uk/visit/wales/aberdulais
"Coniston Pier, Lake Road, Coniston, Cumbria, LA21 8AN",Cumbria,United Kingdom,Nationaltrust,"{'brand': 'Nationaltrust', 'fascia': 'Nationaltrust', 'category': 'National sites', 'edit_date': '20250408', 'lat_lon_source': 'Third-party'}",54.363899,-3.06483,FULLY_OPEN,+443442491895,146,LA21 8AN,Historic Steam Yacht Gondola,,https://www.nationaltrust.org.uk/visit/lake-district/steam-yacht-gondola
"Biddenden Road, near Cranbrook, Kent, TN17 2AB",Kent,United Kingdom,Nationaltrust,"{'brand': 'Nationaltrust', 'fascia': 'Nationaltrust', 'category': 'National sites', 'edit_date': '20250408', 'lat_lon_source': 'Third-party'}",51.11576,0.58287,FULLY_OPEN,+441580710700,299,TN17 2AB,Sissinghurst Castle Garden,,https://www.nationaltrust.org.uk/visit/kent/sissinghurst-castle-garden
"Hidcote Bartrim, near Chipping Campden, Gloucestershire, GL55 6LR",Gloucestershire,United Kingdom,Nationaltrust,"{'brand': 'Nationaltrust', 'fascia': 'Nationaltrust', 'category': 'National sites', 'edit_date': '20250408', 'lat_lon_source': 'Third-party'}",52.084,-1.74364,FULLY_OPEN,+441386438333,172,GL55 6LR,Hidcote,,https://www.nationaltrust.org.uk/visit/gloucestershire-cotswolds/hidcote
"Doe Lea, Chesterfield, Derbyshire, S44 5QJ",Derbyshire,United Kingdom,Nationaltrust,"{'brand': 'Nationaltrust', 'fascia': 'Nationaltrust', 'category': 'National sites', 'edit_date': '20250408', 'lat_lon_source': 'Third-party'}",53.167801,-1.30813,FULLY_OPEN,+441246850430,161,S44 5QJ,Hardwick,,https://www.nationaltrust.org.uk/visit/peak-district-derbyshire/hardwick
"27 Tadcaster Road, York, North Yorkshire, YO24 1GG",North Yorkshire,United Kingdom,Nationaltrust,"{'brand': 'Nationaltrust', 'fascia': 'Nationaltrust', 'category': 'National sites', 'edit_date': '20250408', 'lat_lon_source': 'Third-party'}",53.940102,-1.10261,CLOSED,,2361,YO24 1GG,Goddards,,https://www.nationaltrust.org.uk/visit/yorkshire/goddards
"near Bovey Tracey, Devon, TQ13 9JQ",Devon,United Kingdom,Nationaltrust,"{'brand': 'Nationaltrust', 'fascia': 'Nationaltrust', 'category': 'National sites', 'edit_date': '20250408', 'lat_lon_source': 'Third-party'}",50.594692,-3.689277,FULLY_OPEN,+441626834748,5116,TQ13 9JQ,Parke,,https://www.nationaltrust.org.uk/visit/devon/parke
"Tredegar House, Pencarn Way, Newport, NP10 8YW",Newport,United Kingdom,Nationaltrust,"{'brand': 'Nationaltrust', 'fascia': 'Nationaltrust', 'category': 'National sites', 'edit_date': '20250408', 'lat_lon_source': 'Third-party'}",51.561601,-3.028106,PARTIALLY_OPEN,+441633811661,4524,NP10 8YW,Tredegar House,,https://www.nationaltrust.org.uk/visit/wales/tredegar-house
"Bradford Road, Riddlesden, Keighley, West Yorkshire, BD20 5EL",West Yorkshire,United Kingdom,Nationaltrust,"{'brand': 'Nationaltrust', 'fascia': 'Nationaltrust', 'category': 'National sites', 'edit_date': '20250408', 'lat_lon_source': 'Third-party'}",53.873199,-1.87589,FULLY_OPEN,+441535607075,120,BD20 5EL,East Riddlesden Hall,,https://www.nationaltrust.org.uk/visit/yorkshire/east-riddlesden-hall
"Wightwick Bank, Wolverhampton, West Midlands, WV6 8EE  Use SAT NAV WV6 8BN",West Midlands,United Kingdom,Nationaltrust,"{'brand': 'Nationaltrust', 'fascia': 'Nationaltrust', 'category': 'National sites', 'edit_date': '20250408', 'lat_lon_source': 'Third-party'}",52.58214,-2.195,FULLY_OPEN,+441902761400,371,WV6 8EE,Wightwick Manor and Gardens,,https://www.nationaltrust.org.uk/visit/birmingham-west-midlands/wightwick-manor-and-gardens
"Thurlestone, near Kingsbridge, Devon, TQ7 3JY",Devon,United Kingdom,Nationaltrust,"{'brand': 'Nationaltrust', 'fascia': 'Nationaltrust', 'category': 'National sites', 'edit_date': '20250408', 'lat_lon_source': 'Third-party'}",50.259597,-3.857038,FULLY_OPEN,+441548562344,794,TQ7 3JY,South Milton Sands,,https://www.nationaltrust.org.uk/visit/devon/south-milton-sands
"55-63 Hurst Street/50-54 Inge Street, Birmingham, West Midlands, B5 4TE",West Midlands,United Kingdom,Nationaltrust,"{'brand': 'Nationaltrust', 'fascia': 'Nationaltrust', 'category': 'National sites', 'edit_date': '20250408', 'lat_lon_source': 'Third-party'}",52.473999,-1.8963,FULLY_OPEN,,2506,B5 4TE,Birmingham Back to Backs,,https://www.nationaltrust.org.uk/visit/birmingham-west-midlands/birmingham-back-to-backs
"Atcham, Shrewsbury, Shropshire, SY4 4TP",Shropshire,United Kingdom,Nationaltrust,"{'brand': 'Nationaltrust', 'fascia': 'Nationaltrust', 'category': 'National sites', 'edit_date': '20250408', 'lat_lon_source': 'Third-party'}",52.685842,-2.671193,FULLY_OPEN,+441743708170,18,SY4 4TP,Attingham Park,,https://www.nationaltrust.org.uk/visit/shropshire-staffordshire/attingham-park
"Staunton Harold Estate, Ashby-de-la-Zouch, Leicestershire, LE65 1RW",Leicestershire,United Kingdom,Nationaltrust,"{'brand': 'Nationaltrust', 'fascia': 'Nationaltrust', 'category': 'National sites', 'edit_date': '20250408', 'lat_lon_source': 'Third-party'}",52.783401,-1.43658,CLOSED,+441332863822,312,LE65 1RW,Staunton Harold Church,,https://www.nationaltrust.org.uk/visit/peak-district-derbyshire/staunton-harold-church
"The Weir Garden, Swainshill, Hereford, Herefordshire, HR4 7QF",Herefordshire,United Kingdom,Nationaltrust,"{'brand': 'Nationaltrust', 'fascia': 'Nationaltrust', 'category': 'National sites', 'edit_date': '20250408', 'lat_lon_source': 'Third-party'}",52.072899,-2.82203,FULLY_OPEN,+441981590509,356,HR4 7QF,The Weir Garden,,https://www.nationaltrust.org.uk/visit/worcestershire-herefordshire/the-weir-garden
"Moneybury Hill, Ringshall, Near Berkhamsted, Hertfordshire, HP4 1LT",Hertfordshire,United Kingdom,Nationaltrust,"{'brand': 'Nationaltrust', 'fascia': 'Nationaltrust', 'category': 'National sites', 'edit_date': '20250408', 'lat_lon_source': 'Third-party'}",51.805599,-0.58542,FULLY_OPEN,+441442851227,17,HP4 1LT,Ashridge Estate,,https://www.nationaltrust.org.uk/visit/essex-bedfordshire-hertfordshire/ashridge-estate
"Yarpole, near Leominster, Herefordshire, HR6 9PW",Herefordshire,United Kingdom,Nationaltrust,"{'brand': 'Nationaltrust', 'fascia': 'Nationaltrust', 'category': 'National sites', 'edit_date': '20250408', 'lat_lon_source': 'Third-party'}",52.284199,-2.79835,FULLY_OPEN,+441568780246,99,HR6 9PW,Croft Castle and Parkland,,https://www.nationaltrust.org.uk/visit/worcestershire-herefordshire/croft-castle-and-parkland
"near Leominster, Herefordshire, HR6 0DW",Herefordshire,United Kingdom,Nationaltrust,"{'brand': 'Nationaltrust', 'fascia': 'Nationaltrust', 'category': 'National sites', 'edit_date': '20250408', 'lat_lon_source': 'Third-party'}",52.269501,-2.71427,FULLY_OPEN,+441568615721,31,HR6 0DW,Berrington Hall,,https://www.nationaltrust.org.uk/visit/worcestershire-herefordshire/berrington-hall
"Brockhampton Estate, Bringsty, near Bromyard, Herefordshire, WR6 5TB",Herefordshire,United Kingdom,Nationaltrust,"{'brand': 'Nationaltrust', 'fascia': 'Nationaltrust', 'category': 'National sites', 'edit_date': '20250408', 'lat_lon_source': 'Third-party'}",52.1991,-2.4569,FULLY_OPEN,+441885483363,55,WR6 5TB,Brockhampton,,https://www.nationaltrust.org.uk/visit/worcestershire-herefordshire/brockhampton
"Wimborne Minster, Dorset, BH21 4EA",Dorset,United Kingdom,Nationaltrust,"{'brand': 'Nationaltrust', 'fascia': 'Nationaltrust', 'category': 'National sites', 'edit_date': '20250408', 'lat_lon_source': 'Third-party'}",50.81696,-2.030503,FULLY_OPEN,+441202883402,191,BH21 4EA,Kingston Lacy,,https://www.nationaltrust.org.uk/visit/dorset/kingston-lacy
"Eastbury Square, Barking, Essex, IG11 9SN",Essex,United Kingdom,Nationaltrust,"{'brand': 'Nationaltrust', 'fascia': 'Nationaltrust', 'category': 'National sites', 'edit_date': '20250408', 'lat_lon_source': 'Third-party'}",51.534894,0.099462,CLOSED,+442082272942,121,IG11 9SN,Eastbury Manor House,,https://www.nationaltrust.org.uk/visit/london/eastbury-manor-house
"Middle Claydon, near Buckingham, Buckinghamshire, MK18 2EY",Buckinghamshire,United Kingdom,Nationaltrust,"{'brand': 'Nationaltrust', 'fascia': 'Nationaltrust', 'category': 'National sites', 'edit_date': '20250408', 'lat_lon_source': 'Third-party'}",51.924599,-0.95617,CLOSED,+441296730349,81,MK18 2EY,Claydon,,https://www.nationaltrust.org.uk/visit/oxfordshire-buckinghamshire-berkshire/claydon-house
"Huntercombe, near Henley-on-Thames, Oxfordshire, RG9 5RY",Oxfordshire,United Kingdom,Nationaltrust,"{'brand': 'Nationaltrust', 'fascia': 'Nationaltrust', 'category': 'National sites', 'edit_date': '20250408', 'lat_lon_source': 'Third-party'}",51.585772,-1.02099,CLOSED,+441491641224,4521,RG9 5RY,Nuffield Place,,https://www.nationaltrust.org.uk/visit/oxfordshire-buckinghamshire-berkshire/nuffield-place
"Yelverton, Devon, PL20 6EY",Devon,United Kingdom,Nationaltrust,"{'brand': 'Nationaltrust', 'fascia': 'Nationaltrust', 'category': 'National sites', 'edit_date': '20250408', 'lat_lon_source': 'Third-party'}",50.48139,-4.13374,FULLY_OPEN,+441822853607,57,PL20 6EY,Buckland Abbey,,https://www.nationaltrust.org.uk/visit/devon/buckland-abbey
"Pumsaint, Llanwrda, Carmarthenshire, SA19 8US",Carmarthenshire,United Kingdom,Nationaltrust,"{'brand': 'Nationaltrust', 'fascia': 'Nationaltrust', 'category': 'National sites', 'edit_date': '20250408', 'lat_lon_source': 'Third-party'}",52.0443,-3.94824,PARTIALLY_OPEN,+441558650177,108,SA19 8US,Dolaucothi,,https://www.nationaltrust.org.uk/visit/wales/dolaucothi
"Woodhouse Lane, Altrincham, WA14 4SJ",Altrincham,United Kingdom,Nationaltrust,"{'brand': 'Nationaltrust', 'fascia': 'Nationaltrust', 'category': 'National sites', 'edit_date': '20250408', 'lat_lon_source': 'Third-party'}",53.3832,-2.4045,FULLY_OPEN,+441619411025,112,WA14 4SJ,Dunham Massey,,https://www.nationaltrust.org.uk/visit/cheshire-greater-manchester/dunham-massey
"Lydford, near Tavistock, Devon, EX20 4BH",Devon,United Kingdom,Nationaltrust,"{'brand': 'Nationaltrust', 'fascia': 'Nationaltrust', 'category': 'National sites', 'edit_date': '20250408', 'lat_lon_source': 'Third-party'}",50.641089,-4.1102412,FULLY_OPEN,+441822820320,217,EX20 4BH,Lydford Gorge,,https://www.nationaltrust.org.uk/visit/devon/lydford-gorge
"Near Sawrey, Cumbria, LA22 0LF",Cumbria,United Kingdom,Nationaltrust,"{'brand': 'Nationaltrust', 'fascia': 'Nationaltrust', 'category': 'National sites', 'edit_date': '20250408', 'lat_lon_source': 'Third-party'}",54.351101,-2.97054,FULLY_OPEN,+441539436269,174,LA22 0LF,Hill Top and Hawkshead,,https://www.nationaltrust.org.uk/visit/lake-district/hill-top
"118 Strand Road, Portstewart, County Londonderry, BT55 7PG",County Londonderry,United Kingdom,Nationaltrust,"{'brand': 'Nationaltrust', 'fascia': 'Nationaltrust', 'category': 'National sites', 'edit_date': '20250408', 'lat_lon_source': 'Third-party'}",55.172117,-6.724648,PARTIALLY_OPEN,+442870836396,559,BT55 7PG,Portstewart Strand,,https://www.nationaltrust.org.uk/visit/northern-ireland/portstewart-strand
"Flatford, East Bergholt, Suffolk, CO7 6UL",Suffolk,United Kingdom,Nationaltrust,"{'brand': 'Nationaltrust', 'fascia': 'Nationaltrust', 'category': 'National sites', 'edit_date': '20250408', 'lat_lon_source': 'Third-party'}",51.957802,1.0261,PARTIALLY_OPEN,+441206297201,131,CO7 6UL,Flatford,,https://www.nationaltrust.org.uk/visit/suffolk/flatford
"Tranmer House, Sutton Hoo, Woodbridge, Suffolk, IP12 3DJ",Suffolk,United Kingdom,Nationaltrust,"{'brand': 'Nationaltrust', 'fascia': 'Nationaltrust', 'category': 'National sites', 'edit_date': '20250408', 'lat_lon_source': 'Third-party'}",52.095652,1.349691,FULLY_OPEN,+441394389700,323,IP12 3DJ,Sutton Hoo,,https://www.nationaltrust.org.uk/visit/suffolk/sutton-hoo
"Fountains, Ripon, North Yorkshire, HG4 3DY",North Yorkshire,United Kingdom,Nationaltrust,"{'brand': 'Nationaltrust', 'fascia': 'Nationaltrust', 'category': 'National sites', 'edit_date': '20250408', 'lat_lon_source': 'Third-party'}",54.1096,-1.58033,FULLY_OPEN,+441765608888,134,HG4 3DY,Fountains Abbey and Studley Royal Water Garden,,https://www.nationaltrust.org.uk/visit/yorkshire/fountains-abbey-and-studley-royal-water-garden
"Mapleton Road, Westerham, Kent, TN16 1PS",Kent,United Kingdom,Nationaltrust,"{'brand': 'Nationaltrust', 'fascia': 'Nationaltrust', 'category': 'National sites', 'edit_date': '20250408', 'lat_lon_source': 'Third-party'}",51.2459,0.083513,FULLY_OPEN,+441732868381,72,TN16 1PS,Chartwell,,https://www.nationaltrust.org.uk/visit/kent/chartwell
"Coleshill, near Swindon, Oxfordshire, SN7 7NL",Oxfordshire,United Kingdom,Nationaltrust,"{'brand': 'Nationaltrust', 'fascia': 'Nationaltrust', 'category': 'National sites', 'edit_date': '20250408', 'lat_lon_source': 'Third-party'}",51.6505,-1.6227,FULLY_OPEN,+441793762209,6199,SN7 7NL,Badbury,,https://www.nationaltrust.org.uk/visit/oxfordshire-buckinghamshire-berkshire/badbury
"Portaferry Road, Newtownards, County Down, BT22 2AD",County Down,United Kingdom,Nationaltrust,"{'brand': 'Nationaltrust', 'fascia': 'Nationaltrust', 'category': 'National sites', 'edit_date': '20250408', 'lat_lon_source': 'Third-party'}",54.551498,-5.60127,PARTIALLY_OPEN,+442842788387,236,BT22 2AD,Mount Stewart,,https://www.nationaltrust.org.uk/visit/northern-ireland/mount-stewart
"Penmachno, Betws-y-Coed, Conwy, LL25 0HJ",Conwy,United Kingdom,Nationaltrust,"{'brand': 'Nationaltrust', 'fascia': 'Nationaltrust', 'category': 'National sites', 'edit_date': '20250408', 'lat_lon_source': 'Third-party'}",53.052502,-3.83218,PARTIALLY_OPEN,+441766510120,341,LL25 0HJ,T Mawr Wybrnant,,https://www.nationaltrust.org.uk/visit/wales/ty-mawr-wybrnant
"West High Down, Alum Bay, Isle of Wight, PO39 0JH",Isle of Wight,United Kingdom,Nationaltrust,"{'brand': 'Nationaltrust', 'fascia': 'Nationaltrust', 'category': 'National sites', 'edit_date': '20250408', 'lat_lon_source': 'Third-party'}",50.666543,-1.5658388,PARTIALLY_OPEN,+441983754772,237,PO39 0JH,The Needles Old Battery and New Battery,,https://www.nationaltrust.org.uk/visit/isle-of-wight/the-needles-old-battery-and-new-battery
"Coughton Court, Alcester, Warwickshire, B49 5JA",Warwickshire,United Kingdom,Nationaltrust,"{'brand': 'Nationaltrust', 'fascia': 'Nationaltrust', 'category': 'National sites', 'edit_date': '20250408', 'lat_lon_source': 'Third-party'}",52.242802,-1.87794,CLOSED,+441789400777,90,B49 5JA,Coughton Court,,https://www.nationaltrust.org.uk/visit/warwickshire/coughton-court
"Cliveden Road, Taplow, Maidenhead, Buckinghamshire, SL1 8NS",Buckinghamshire,United Kingdom,Nationaltrust,"{'brand': 'Nationaltrust', 'fascia': 'Nationaltrust', 'category': 'National sites', 'edit_date': '20250408', 'lat_lon_source': 'Third-party'}",51.556596,-0.681394,FULLY_OPEN,+441628550320,82,SL1 8NS,Cliveden,,https://www.nationaltrust.org.uk/visit/oxfordshire-buckinghamshire-berkshire/cliveden
"Kynance Cove, The Lizard, Nr. Helston, Cornwall, TR12 7PJ",Cornwall,United Kingdom,Nationaltrust,"{'brand': 'Nationaltrust', 'fascia': 'Nationaltrust', 'category': 'National sites', 'edit_date': '20250408', 'lat_lon_source': 'Third-party'}",49.97421,-5.2251121,,+441326222170,6226,TR12 7PJ,Kynance Cove,,https://www.nationaltrust.org.uk/visit/cornwall/kynance-cove
"Gunwalloe, near Helston, Cornwall, TR12 7QE",Cornwall,United Kingdom,Nationaltrust,"{'brand': 'Nationaltrust', 'fascia': 'Nationaltrust', 'category': 'National sites', 'edit_date': '20250408', 'lat_lon_source': 'Third-party'}",50.041934,-5.2701813,FULLY_OPEN,+441326222170,6215,TR12 7QE,Gunwalloe,,https://www.nationaltrust.org.uk/visit/cornwall/gunwalloe
"Penrose, Helston, Cornwall, TR13 0RD",Cornwall,United Kingdom,Nationaltrust,"{'brand': 'Nationaltrust', 'fascia': 'Nationaltrust', 'category': 'National sites', 'edit_date': '20250408', 'lat_lon_source': 'Third-party'}",50.085971,-5.302186,FULLY_OPEN,+441326222170,1130,TR13 0RD,Penrose,,https://www.nationaltrust.org.uk/visit/cornwall/penrose
"The Lizard, near Helston, Cornwall, TR12 7NT",Cornwall,United Kingdom,Nationaltrust,"{'brand': 'Nationaltrust', 'fascia': 'Nationaltrust', 'category': 'National sites', 'edit_date': '20250408', 'lat_lon_source': 'Third-party'}",49.961129,-5.204415,FULLY_OPEN,+441326222170,207,TR12 7NT,Lizard Point,,https://www.nationaltrust.org.uk/visit/cornwall/lizard-point
"Water Lane, Woolsthorpe by Colsterworth, Grantham, Lincolnshire, NG33 5PD",Lincolnshire,United Kingdom,Nationaltrust,"{'brand': 'Nationaltrust', 'fascia': 'Nationaltrust', 'category': 'National sites', 'edit_date': '20250408', 'lat_lon_source': 'Third-party'}",52.80876,-0.62985,CLOSED,+441476860338,381,NG33 5PD,Woolsthorpe Manor,,https://www.nationaltrust.org.uk/visit/nottinghamshire-lincolnshire/woolsthorpe-manor
"Beningbrough, York, North Yorkshire, YO30 1DD",North Yorkshire,United Kingdom,Nationaltrust,"{'brand': 'Nationaltrust', 'fascia': 'Nationaltrust', 'category': 'National sites', 'edit_date': '20250408', 'lat_lon_source': 'Third-party'}",54.022099,-1.21315,PARTIALLY_OPEN,+441904472027,29,YO30 1DD,Beningbrough,,https://www.nationaltrust.org.uk/visit/yorkshire/beningbrough
"near Bude, Cornwall",near Bude,United Kingdom,Nationaltrust,"{'brand': 'Nationaltrust', 'fascia': 'Nationaltrust', 'category': 'National sites', 'edit_date': '20250408', 'lat_lon_source': 'Third-party'}",50.87657,-4.557695,FULLY_OPEN,+441208863046,6227,,Duckpool,,https://www.nationaltrust.org.uk/visit/cornwall/duckpool
"Bodnant Garden, Tal-y-Cafn, near Colwyn Bay, Conwy, LL28 5RE",Conwy,United Kingdom,Nationaltrust,"{'brand': 'Nationaltrust', 'fascia': 'Nationaltrust', 'category': 'National sites', 'edit_date': '20250408', 'lat_lon_source': 'Third-party'}",53.236099,-3.79996,FULLY_OPEN,+441492650460,37,LL28 5RE,Bodnant Garden,,https://www.nationaltrust.org.uk/visit/wales/bodnant-garden
"Macclesfield Road, Nether Alderley, Macclesfield, Cheshire, SK10 4UB",Cheshire,United Kingdom,Nationaltrust,"{'brand': 'Nationaltrust', 'fascia': 'Nationaltrust', 'category': 'National sites', 'edit_date': '20250408', 'lat_lon_source': 'Third-party'}",53.296501,-2.21235,FULLY_OPEN,+441625584412,473,SK10 4UB,Alderley Edge and Cheshire Countryside,,https://www.nationaltrust.org.uk/visit/cheshire-greater-manchester/alderley-edge-and-cheshire-countryside
"Moseley Old Hall Lane, Fordhouses, Wolverhampton, Staffordshire, WV10 7HY",Staffordshire,United Kingdom,Nationaltrust,"{'brand': 'Nationaltrust', 'fascia': 'Nationaltrust', 'category': 'National sites', 'edit_date': '20250408', 'lat_lon_source': 'Third-party'}",52.635101,-2.10463,CLOSED,+441902782808,231,WV10 7HY,Moseley Old Hall,,https://www.nationaltrust.org.uk/visit/shropshire-staffordshire/moseley-old-hall
"Whipsnade Road, Dunstable, Bedfordshire, LU6 2GY",Bedfordshire,United Kingdom,Nationaltrust,"{'brand': 'Nationaltrust', 'fascia': 'Nationaltrust', 'category': 'National sites', 'edit_date': '20250408', 'lat_lon_source': 'Third-party'}",51.865538,-0.537432,FULLY_OPEN,+441582500920,118,LU6 2GY,Dunstable Downs and Whipsnade Estate,,https://www.nationaltrust.org.uk/visit/essex-bedfordshire-hertfordshire/dunstable-downs-and-whipsnade-estate
"near Daventry, Northamptonshire, NN11 3SD",Northamptonshire,United Kingdom,Nationaltrust,"{'brand': 'Nationaltrust', 'fascia': 'Nationaltrust', 'category': 'National sites', 'edit_date': '20250408', 'lat_lon_source': 'Third-party'}",52.149502,-1.16034,FULLY_OPEN,+441327861900,62,NN11 3SD,Canons Ashby,,https://www.nationaltrust.org.uk/visit/leicestershire-northamptonshire/canons-ashby
"near Watermillock, Penrith, Cumbria, CA11 0JS",Cumbria,United Kingdom,Nationaltrust,"{'brand': 'Nationaltrust', 'fascia': 'Nationaltrust', 'category': 'National sites', 'edit_date': '20250408', 'lat_lon_source': 'Third-party'}",54.5751,-2.92949,PARTIALLY_OPEN,+441768482067,343,CA11 0JS,Aira Force and Gowbarrow Park,,https://www.nationaltrust.org.uk/visit/lake-district/aira-force-and-gowbarrow-park
"Wellesbourne, Warwick, Warwickshire, CV35 9ER",Warwickshire,United Kingdom,Nationaltrust,"{'brand': 'Nationaltrust', 'fascia': 'Nationaltrust', 'category': 'National sites', 'edit_date': '20250408', 'lat_lon_source': 'Third-party'}",52.205101,-1.62103,FULLY_OPEN,+441789470277,71,CV35 9ER,Charlecote Park,,https://www.nationaltrust.org.uk/visit/warwickshire/charlecote-park
"National Trust Formby Countryside Office, Blundell Avenue, Formby, Liverpool, L37 1PH",Liverpool,United Kingdom,Nationaltrust,"{'brand': 'Nationaltrust', 'fascia': 'Nationaltrust', 'category': 'National sites', 'edit_date': '20250408', 'lat_lon_source': 'Third-party'}",53.563,-3.09217,FULLY_OPEN,+441704878591,135,L37 1PH,Formby,,https://www.nationaltrust.org.uk/visit/liverpool-lancashire/formby
"Studland, near Swanage, Dorset",near Swanage,United Kingdom,Nationaltrust,"{'brand': 'Nationaltrust', 'fascia': 'Nationaltrust', 'category': 'National sites', 'edit_date': '20250408', 'lat_lon_source': 'Third-party'}",50.651732,-1.953806,FULLY_OPEN,+441929450500,320,,Studland Bay,,https://www.nationaltrust.org.uk/visit/dorset/studland-bay
"West Wycombe, Buckinghamshire, HP14 3AJ",Buckinghamshire,United Kingdom,Nationaltrust,"{'brand': 'Nationaltrust', 'fascia': 'Nationaltrust', 'category': 'National sites', 'edit_date': '20250408', 'lat_lon_source': 'Third-party'}",51.641701,-0.80065,PARTIALLY_OPEN,+441494755571,360,HP14 3AJ,"West Wycombe Park, Village and Hill",,https://www.nationaltrust.org.uk/visit/oxfordshire-buckinghamshire-berkshire/west-wycombe-park-village-and-hill
"Poole Harbour, Poole, Dorset, BH13 7EE",Dorset,United Kingdom,Nationaltrust,"{'brand': 'Nationaltrust', 'fascia': 'Nationaltrust', 'category': 'National sites', 'edit_date': '20250408', 'lat_lon_source': 'Third-party'}",50.6884,-1.95622,FULLY_OPEN,+441202707744,54,BH13 7EE,Brownsea Island,,https://www.nationaltrust.org.uk/visit/dorset/brownsea-island
"Dyffryn Gardens, St Nicholas, Vale of Glamorgan, CF5 6FZ",Vale of Glamorgan,United Kingdom,Nationaltrust,"{'brand': 'Nationaltrust', 'fascia': 'Nationaltrust', 'category': 'National sites', 'edit_date': '20250408', 'lat_lon_source': 'Third-party'}",51.4439,-3.3029,FULLY_OPEN,+442920593328,5284,CF5 6FZ,Dyffryn Gardens,,https://www.nationaltrust.org.uk/visit/wales/dyffryn-gardens
"Main Road, Sudbury, Ashbourne, Derbyshire, DE6 5HT",Derbyshire,United Kingdom,Nationaltrust,"{'brand': 'Nationaltrust', 'fascia': 'Nationaltrust', 'category': 'National sites', 'edit_date': '20250408', 'lat_lon_source': 'Third-party'}",52.886299,-1.76674,FULLY_OPEN,+441283585337,321,DE6 5HT,The Childrens Country House at Sudbury,,https://www.nationaltrust.org.uk/visit/peak-district-derbyshire/the-childrens-country-house-at-sudbury
"Plas Newydd House and Garden, Llanfairpwll, Anglesey, LL61 6DQ",Anglesey,United Kingdom,Nationaltrust,"{'brand': 'Nationaltrust', 'fascia': 'Nationaltrust', 'category': 'National sites', 'edit_date': '20250408', 'lat_lon_source': 'Third-party'}",53.202599,-4.21541,FULLY_OPEN,+441248714795,263,LL61 6DQ,Plas Newydd House and Garden,,https://www.nationaltrust.org.uk/visit/wales/plas-newydd-house-and-garden
"Headley Common Road, Headley Heath, Surrey, KT18 6NN",Surrey,United Kingdom,Nationaltrust,"{'brand': 'Nationaltrust', 'fascia': 'Nationaltrust', 'category': 'National sites', 'edit_date': '20250408', 'lat_lon_source': 'Third-party'}",51.26353606,-0.28147465,,+441306885502,6122,KT18 6NN,Headley Heath,,https://www.nationaltrust.org.uk/visit/surrey/headley-heath
"Hampstead, London, NW3 1TH",London,United Kingdom,Nationaltrust,"{'brand': 'Nationaltrust', 'fascia': 'Nationaltrust', 'category': 'National sites', 'edit_date': '20250408', 'lat_lon_source': 'Third-party'}",51.557499,-0.16861,CLOSED,+442074356166,374,NW3 1TH,2 Willow Road,,https://www.nationaltrust.org.uk/visit/london/2-willow-road
"Hampstead Grove, Hampstead, London, NW3 6SP",London,United Kingdom,Nationaltrust,"{'brand': 'Nationaltrust', 'fascia': 'Nationaltrust', 'category': 'National sites', 'edit_date': '20250408', 'lat_lon_source': 'Third-party'}",51.558773,-0.180926,CLOSED,+442074353471,129,NW3 6SP,Fenton House and Garden,,https://www.nationaltrust.org.uk/visit/london/fenton-house-and-garden
"Feock, near Truro, Cornwall, TR3 6QL",Cornwall,United Kingdom,Nationaltrust,"{'brand': 'Nationaltrust', 'fascia': 'Nationaltrust', 'category': 'National sites', 'edit_date': '20250408', 'lat_lon_source': 'Third-party'}",50.217241,-5.0337821,FULLY_OPEN,+441872862090,336,TR3 6QL,Trelissick,,https://www.nationaltrust.org.uk/visit/cornwall/trelissick
"Knightshayes, Bolham, Tiverton, Devon, EX16 7RQ",Devon,United Kingdom,Nationaltrust,"{'brand': 'Nationaltrust', 'fascia': 'Nationaltrust', 'category': 'National sites', 'edit_date': '20250408', 'lat_lon_source': 'Third-party'}",50.920777,-3.485064,FULLY_OPEN,+441884254665,192,EX16 7RQ,Knightshayes,,https://www.nationaltrust.org.uk/visit/devon/knightshayes
"Low Wray, Ambleside, Cumbria, LA22 0JA",Cumbria,United Kingdom,Nationaltrust,"{'brand': 'Nationaltrust', 'fascia': 'Nationaltrust', 'category': 'National sites', 'edit_date': '20250408', 'lat_lon_source': 'Third-party'}",54.400611,-2.964237,FULLY_OPEN,+441539433250,6049,LA22 0JA,Wray,,https://www.nationaltrust.org.uk/visit/lake-district/wray
"Fore Street, Tintagel, Cornwall, PL34 0DB",Cornwall,United Kingdom,Nationaltrust,"{'brand': 'Nationaltrust', 'fascia': 'Nationaltrust', 'category': 'National sites', 'edit_date': '20250408', 'lat_lon_source': 'Third-party'}",50.663371,-4.751645,FULLY_OPEN,+441840770024,330,PL34 0DB,Tintagel Old Post Office,,https://www.nationaltrust.org.uk/visit/cornwall/tintagel-old-post-office
"Sizergh, near Kendal, Cumbria, LA8 8DZ",Cumbria,United Kingdom,Nationaltrust,"{'brand': 'Nationaltrust', 'fascia': 'Nationaltrust', 'category': 'National sites', 'edit_date': '20250408', 'lat_lon_source': 'Third-party'}",54.284168,-2.7716124,FULLY_OPEN,+441539560951,300,LA8 8DZ,Sizergh,,https://www.nationaltrust.org.uk/visit/lake-district/sizergh
"High Wycombe, Buckinghamshire, HP14 4LA",Buckinghamshire,United Kingdom,Nationaltrust,"{'brand': 'Nationaltrust', 'fascia': 'Nationaltrust', 'category': 'National sites', 'edit_date': '20250408', 'lat_lon_source': 'Third-party'}",51.650214,-0.7565552,FULLY_OPEN,+441494755565,181,HP14 4LA,Hughenden,,https://www.nationaltrust.org.uk/visit/oxfordshire-buckinghamshire-berkshire/hughenden
"Bodmin, Cornwall, PL30 4AB",Cornwall,United Kingdom,Nationaltrust,"{'brand': 'Nationaltrust', 'fascia': 'Nationaltrust', 'category': 'National sites', 'edit_date': '20250408', 'lat_lon_source': 'Third-party'}",50.450248,-4.694002,FULLY_OPEN,+441208265950,198,PL30 4AB,Lanhydrock,,https://www.nationaltrust.org.uk/visit/cornwall/lanhydrock
"Styal, Wilmslow, Cheshire, SK9 4HP",Cheshire,United Kingdom,Nationaltrust,"{'brand': 'Nationaltrust', 'fascia': 'Nationaltrust', 'category': 'National sites', 'edit_date': '20250408', 'lat_lon_source': 'Third-party'}",53.345158,-2.240885,FULLY_OPEN,+441625527468,272,SK9 4HP,Quarry Bank,,https://www.nationaltrust.org.uk/visit/cheshire-greater-manchester/quarry-bank
"Gwithian, near Hayle, Cornwall, TR27 5ED",Cornwall,United Kingdom,Nationaltrust,"{'brand': 'Nationaltrust', 'fascia': 'Nationaltrust', 'category': 'National sites', 'edit_date': '20250408', 'lat_lon_source': 'Third-party'}",50.238321,-5.393736,FULLY_OPEN,+441872552412,2364,TR27 5ED,Godrevy,,https://www.nationaltrust.org.uk/visit/cornwall/godrevy
"Upper Lough Erne, Newtownbutler, County Fermanagh, BT92 8AJ",County Fermanagh,United Kingdom,Nationaltrust,"{'brand': 'Nationaltrust', 'fascia': 'Nationaltrust', 'category': 'National sites', 'edit_date': '20250408', 'lat_lon_source': 'Third-party'}",54.162601,-7.44284,PARTIALLY_OPEN,+442867738118,100,BT92 8AJ,Crom,,https://www.nationaltrust.org.uk/visit/northern-ireland/crom
"Ascott Estate Office, Wing near Leighton Buzzard, Buckinghamshire, LU7 0PS",Buckinghamshire,United Kingdom,Nationaltrust,"{'brand': 'Nationaltrust', 'fascia': 'Nationaltrust', 'category': 'National sites', 'edit_date': '20250408', 'lat_lon_source': 'Third-party'}",51.902019,-0.700372,FULLY_OPEN,,14,LU7 0PS,Ascott,,https://www.nationaltrust.org.uk/visit/oxfordshire-buckinghamshire-berkshire/ascott
"Snowshill, near Broadway, Gloucestershire, WR12 7JU",Gloucestershire,United Kingdom,Nationaltrust,"{'brand': 'Nationaltrust', 'fascia': 'Nationaltrust', 'category': 'National sites', 'edit_date': '20250408', 'lat_lon_source': 'Third-party'}",52.006093,-1.861509,FULLY_OPEN,+441386852410,303,WR12 7JU,Snowshill Manor and Garden,,https://www.nationaltrust.org.uk/visit/gloucestershire-cotswolds/snowshill-manor-and-garden
"near High Green, Worcester, Worcestershire, WR8 9DW",Worcestershire,United Kingdom,Nationaltrust,"{'brand': 'Nationaltrust', 'fascia': 'Nationaltrust', 'category': 'National sites', 'edit_date': '20250408', 'lat_lon_source': 'Third-party'}",52.105154,-2.1662722,FULLY_OPEN,+441905371006,101,WR8 9DW,Croome,,https://www.nationaltrust.org.uk/visit/worcestershire-herefordshire/croome
"Arlington, near Barnstaple, Devon, EX31 4LP",Devon,United Kingdom,Nationaltrust,"{'brand': 'Nationaltrust', 'fascia': 'Nationaltrust', 'category': 'National sites', 'edit_date': '20250408', 'lat_lon_source': 'Third-party'}",51.145699,-3.98588,FULLY_OPEN,+441271850296,12,EX31 4LP,Arlington Court and the National Trust Carriage Museum,,https://www.nationaltrust.org.uk/visit/devon/arlington-court-and-the-national-trust-carriage-museum
"Tickenham Road, Clevedon, North Somerset, BS21 6QU",North Somerset,United Kingdom,Nationaltrust,"{'brand': 'Nationaltrust', 'fascia': 'Nationaltrust', 'category': 'National sites', 'edit_date': '20250408', 'lat_lon_source': 'Third-party'}",51.439657,-2.831597,CLOSED,+441275872257,84,BS21 6QU,Clevedon Court,,https://www.nationaltrust.org.uk/visit/bath-bristol/clevedon-court
"144 Derrycaw Road, Moy, Dungannon, County Armagh, BT71 6NA",County Armagh,United Kingdom,Nationaltrust,"{'brand': 'Nationaltrust', 'fascia': 'Nationaltrust', 'category': 'National sites', 'edit_date': '20250408', 'lat_lon_source': 'Third-party'}",54.464905,-6.657732,PARTIALLY_OPEN,+442887784753,13,BT71 6NA,The Argory,,https://www.nationaltrust.org.uk/visit/northern-ireland/the-argory
"Trewellard, Pendeen, near St Just, Cornwall, TR19 7SX",Cornwall,United Kingdom,Nationaltrust,"{'brand': 'Nationaltrust', 'fascia': 'Nationaltrust', 'category': 'National sites', 'edit_date': '20250408', 'lat_lon_source': 'Third-party'}",50.151983,-5.685585,FULLY_OPEN,+441736786156,201,TR19 7SX,Levant Mine and Beam Engine,,https://www.nationaltrust.org.uk/visit/cornwall/levant-mine-and-beam-engine
"Barrington, near Ilminster, Somerset, TA19 0NQ",Somerset,United Kingdom,Nationaltrust,"{'brand': 'Nationaltrust', 'fascia': 'Nationaltrust', 'category': 'National sites', 'edit_date': '20250408', 'lat_lon_source': 'Third-party'}",50.960499,-2.85778,FULLY_OPEN,+441460241938,22,TA19 0NQ,Barrington Court,,https://www.nationaltrust.org.uk/visit/somerset/barrington-court
"Mottistone, near Brighstone, Isle of Wight, PO30 4ED",Isle of Wight,United Kingdom,Nationaltrust,"{'brand': 'Nationaltrust', 'fascia': 'Nationaltrust', 'category': 'National sites', 'edit_date': '20250408', 'lat_lon_source': 'Third-party'}",50.652447,-1.4283997,PARTIALLY_OPEN,+441983741302,233,PO30 4ED,Mottistone Gardens and Estate,,https://www.nationaltrust.org.uk/visit/isle-of-wight/mottistone-gardens-and-estate
"The Rotunda, Horringer, Bury St Edmunds, Suffolk, IP29 5QE",Suffolk,United Kingdom,Nationaltrust,"{'brand': 'Nationaltrust', 'fascia': 'Nationaltrust', 'category': 'National sites', 'edit_date': '20250408', 'lat_lon_source': 'Third-party'}",52.220965,0.65704863,FULLY_OPEN,+441284735270,182,IP29 5QE,Ickworth Estate,,https://www.nationaltrust.org.uk/visit/suffolk/ickworth-estate
"Westwood, near Bradford-on-Avon, Wiltshire, BA15 2AF",Wiltshire,United Kingdom,Nationaltrust,"{'brand': 'Nationaltrust', 'fascia': 'Nationaltrust', 'category': 'National sites', 'edit_date': '20250408', 'lat_lon_source': 'Third-party'}",51.329399,-2.27024,FULLY_OPEN,+441249730459,364,BA15 2AF,Westwood Manor,,https://www.nationaltrust.org.uk/visit/wiltshire/westwood-manor
"Mawnan Smith, Falmouth, Cornwall, TR11 5JZ",Cornwall,United Kingdom,Nationaltrust,"{'brand': 'Nationaltrust', 'fascia': 'Nationaltrust', 'category': 'National sites', 'edit_date': '20250408', 'lat_lon_source': 'Third-party'}",50.10914,-5.116531,FULLY_OPEN,+441326252020,144,TR11 5JZ,Glendurgan Garden,,https://www.nationaltrust.org.uk/visit/cornwall/glendurgan-garden
"Montacute, Somerset, TA15 6XP",Somerset,United Kingdom,Nationaltrust,"{'brand': 'Nationaltrust', 'fascia': 'Nationaltrust', 'category': 'National sites', 'edit_date': '20250408', 'lat_lon_source': 'Third-party'}",50.950569,-2.715212,FULLY_OPEN,+441935823289,228,TA15 6XP,Montacute House,,https://www.nationaltrust.org.uk/visit/somerset/montacute-house
"near Ridley Hall, Bardon Mill, Hexham, Northumberland, NE47 7BP",Northumberland,United Kingdom,Nationaltrust,"{'brand': 'Nationaltrust', 'fascia': 'Nationaltrust', 'category': 'National sites', 'edit_date': '20250408', 'lat_lon_source': 'Third-party'}",54.9709,-2.31704,FULLY_OPEN,,7,NE47 7BP,Allen Banks and Staward Gorge,,https://www.nationaltrust.org.uk/visit/north-east/allen-banks-and-staward-gorge
"751 Antrim Road, Templepatrick, County Antrim, BT39 0AP",County Antrim,United Kingdom,Nationaltrust,"{'brand': 'Nationaltrust', 'fascia': 'Nationaltrust', 'category': 'National sites', 'edit_date': '20250408', 'lat_lon_source': 'Third-party'}",54.700777,-6.043718,CLOSED,+442894433619,256,BT39 0AP,Patterson's Spade Mill,,https://www.nationaltrust.org.uk/visit/northern-ireland/pattersons-spade-mill
"Holy Austin Rock Houses, Compton Road, Kinver, near Stourbridge, Staffordshire, DY7 6DL",Staffordshire,United Kingdom,Nationaltrust,"{'brand': 'Nationaltrust', 'fascia': 'Nationaltrust', 'category': 'National sites', 'edit_date': '20250408', 'lat_lon_source': 'Third-party'}",52.450109,-2.242739,PARTIALLY_OPEN,+441384872553,187,DY7 6DL,Kinver Edge and the Rock Houses,,https://www.nationaltrust.org.uk/visit/shropshire-staffordshire/kinver-edge-and-the-rock-houses
"Comer Woods, Quatford, Bridgnorth, Shropshire, WV15 6QL",Shropshire,United Kingdom,Nationaltrust,"{'brand': 'Nationaltrust', 'fascia': 'Nationaltrust', 'category': 'National sites', 'edit_date': '20250408', 'lat_lon_source': 'Third-party'}",52.5072532,-2.3811784,FULLY_OPEN,+441746780866,900043,WV15 6QL,Dudmaston Estate Comer Woods,,https://www.nationaltrust.org.uk/visit/shropshire-staffordshire/dudmaston-estate-comer-woods
"Portsmouth Road, Esher, Surrey, KT10 9JG",Surrey,United Kingdom,Nationaltrust,"{'brand': 'Nationaltrust', 'fascia': 'Nationaltrust', 'category': 'National sites', 'edit_date': '20250408', 'lat_lon_source': 'Third-party'}",51.355785,-0.381433,FULLY_OPEN,+441372467806,80,KT10 9JG,Claremont Landscape Garden,,https://www.nationaltrust.org.uk/visit/surrey/claremont-landscape-garden
"Quatt, near Bridgnorth, Shropshire, WV15 6QN",Shropshire,United Kingdom,Nationaltrust,"{'brand': 'Nationaltrust', 'fascia': 'Nationaltrust', 'category': 'National sites', 'edit_date': '20250408', 'lat_lon_source': 'Third-party'}",52.495701,-2.36803,FULLY_OPEN,+441746780866,111,WV15 6QN,Dudmaston Hall,,https://www.nationaltrust.org.uk/visit/shropshire-staffordshire/dudmaston
"Higher Bockhampton, near Dorchester, Dorset, DT2 8QJ",Dorset,United Kingdom,Nationaltrust,"{'brand': 'Nationaltrust', 'fascia': 'Nationaltrust', 'category': 'National sites', 'edit_date': '20250408', 'lat_lon_source': 'Third-party'}",50.731308,-2.386136,FULLY_OPEN,+441305262366,168,DT2 8QJ,Hardy's Cottage,,https://www.nationaltrust.org.uk/visit/dorset/hardys-cottage
"Oxborough, near Swaffham, Norfolk, PE33 9PS",Norfolk,United Kingdom,Nationaltrust,"{'brand': 'Nationaltrust', 'fascia': 'Nationaltrust', 'category': 'National sites', 'edit_date': '20250408', 'lat_lon_source': 'Third-party'}",52.581215,0.5702691,FULLY_OPEN,+441366328258,254,PE33 9PS,Oxburgh Estate,,https://www.nationaltrust.org.uk/visit/norfolk/oxburgh-estate
"London Road, Hindhead, Surrey, GU26 6AB",Surrey,United Kingdom,Nationaltrust,"{'brand': 'Nationaltrust', 'fascia': 'Nationaltrust', 'category': 'National sites', 'edit_date': '20250408', 'lat_lon_source': 'Third-party'}",51.113998,-0.72858,PARTIALLY_OPEN,+441428681050,106,GU26 6AB,Hindhead Commons and the Devil's Punch Bowl,,https://www.nationaltrust.org.uk/visit/surrey/hindhead-commons-and-the-devils-punch-bowl
"Dinefwr Park, Newton House, Llandeilo, Carmarthenshire, SA19 6RT",Carmarthenshire,United Kingdom,Nationaltrust,"{'brand': 'Nationaltrust', 'fascia': 'Nationaltrust', 'category': 'National sites', 'edit_date': '20250408', 'lat_lon_source': 'Third-party'}",51.882099,-4.01424,FULLY_OPEN,+441558825910,107,SA19 6RT,Dinefwr,,https://www.nationaltrust.org.uk/visit/wales/dinefwr
"4 South Quay, Great Yarmouth, Norfolk, NR30 2QH",Norfolk,United Kingdom,Nationaltrust,"{'brand': 'Nationaltrust', 'fascia': 'Nationaltrust', 'category': 'National sites', 'edit_date': '20250408', 'lat_lon_source': 'Third-party'}",52.605,1.72721,FULLY_OPEN,+441493855746,122,NR30 2QH,Elizabethan House Museum,,https://www.nationaltrust.org.uk/visit/norfolk/elizabethan-house-museum
"Maldon, Essex, CM9 6PP (no parking)",Essex,United Kingdom,Nationaltrust,"{'brand': 'Nationaltrust', 'fascia': 'Nationaltrust', 'category': 'National sites', 'edit_date': '20250408', 'lat_lon_source': 'Third-party'}",51.718012,0.702822,FULLY_OPEN,,5330,CM9 6PP,Northey Island,,https://www.nationaltrust.org.uk/visit/essex-bedfordshire-hertfordshire/northey-island
"Pentire, near Wadebridge, Cornwall, PL27 6QY",Cornwall,United Kingdom,Nationaltrust,"{'brand': 'Nationaltrust', 'fascia': 'Nationaltrust', 'category': 'National sites', 'edit_date': '20250408', 'lat_lon_source': 'Third-party'}",50.581861,-4.9057721,FULLY_OPEN,+441208863046,900010,PL27 6QY,Pentire,,https://www.nationaltrust.org.uk/visit/cornwall/pentire
"Arrington, Royston, Cambridgeshire, SG8 0BW",Cambridgeshire,United Kingdom,Nationaltrust,"{'brand': 'Nationaltrust', 'fascia': 'Nationaltrust', 'category': 'National sites', 'edit_date': '20250408', 'lat_lon_source': 'Third-party'}",52.1400038,-0.0488461,FULLY_OPEN,+441223206000,375,SG8 0BW,Wimpole Estate,,https://www.nationaltrust.org.uk/visit/cambridgeshire/wimpole-estate
"Lower Basildon, Reading, Berkshire, RG8 9NR",Berkshire,United Kingdom,Nationaltrust,"{'brand': 'Nationaltrust', 'fascia': 'Nationaltrust', 'category': 'National sites', 'edit_date': '20250408', 'lat_lon_source': 'Third-party'}",51.4995,-1.11858,FULLY_OPEN,+441491672382,23,RG8 9NR,Basildon Park,,https://www.nationaltrust.org.uk/visit/oxfordshire-buckinghamshire-berkshire/basildon-park
"Allan Bank, Grasmere, Ambleside, Cumbria, LA22 9QB",Cumbria,United Kingdom,Nationaltrust,"{'brand': 'Nationaltrust', 'fascia': 'Nationaltrust', 'category': 'National sites', 'edit_date': '20250408', 'lat_lon_source': 'Third-party'}",54.460536,-3.029754,FULLY_OPEN,+441539435143,5215,LA22 9QB,Allan Bank and Grasmere,,https://www.nationaltrust.org.uk/visit/lake-district/allan-bank-and-grasmere
"Horsey, Great Yarmouth, Norfolk, NR29 4EE",Norfolk,United Kingdom,Nationaltrust,"{'brand': 'Nationaltrust', 'fascia': 'Nationaltrust', 'category': 'National sites', 'edit_date': '20250408', 'lat_lon_source': 'Third-party'}",52.74247,1.638635,FULLY_OPEN,+441263740241,176,NR29 4EE,Horsey Windpump,,https://www.nationaltrust.org.uk/visit/norfolk/horsey-windpump
"The Broadway, Rainham, Havering, London, RM13 9YN",London,United Kingdom,Nationaltrust,"{'brand': 'Nationaltrust', 'fascia': 'Nationaltrust', 'category': 'National sites', 'edit_date': '20250408', 'lat_lon_source': 'Third-party'}",51.521696,0.193162,CLOSED,+441708525579,274,RM13 9YN,Rainham Hall,,https://www.nationaltrust.org.uk/visit/london/rainham-hall
"Dyrham, near Bath, South Gloucestershire, SN14 8HY",South Gloucestershire,United Kingdom,Nationaltrust,"{'brand': 'Nationaltrust', 'fascia': 'Nationaltrust', 'category': 'National sites', 'edit_date': '20250408', 'lat_lon_source': 'Third-party'}",51.4805,-2.3629,FULLY_OPEN,+441179372501,119,SN14 8HY,Dyrham Park,,https://www.nationaltrust.org.uk/visit/bath-bristol/dyrham-park
"Nunnington, near York, North Yorkshire, YO62 5UY",North Yorkshire,United Kingdom,Nationaltrust,"{'brand': 'Nationaltrust', 'fascia': 'Nationaltrust', 'category': 'National sites', 'edit_date': '20250408', 'lat_lon_source': 'Third-party'}",54.204601,-0.97233,FULLY_OPEN,+441439748283,242,YO62 5UY,Nunnington Hall,,https://www.nationaltrust.org.uk/visit/yorkshire/nunnington-hall
"Harts Lane, Burghclere, near Newbury, Hampshire, RG20 9JT",Hampshire,United Kingdom,Nationaltrust,"{'brand': 'Nationaltrust', 'fascia': 'Nationaltrust', 'category': 'National sites', 'edit_date': '20250408', 'lat_lon_source': 'Third-party'}",51.344799,-1.33691,CLOSED,+441635278394,290,RG20 9JT,Sandham Memorial Chapel,,https://www.nationaltrust.org.uk/visit/hampshire/sandham-memorial-chapel
"Red House Lane, Bexleyheath, London, DA6 8JF",London,United Kingdom,Nationaltrust,"{'brand': 'Nationaltrust', 'fascia': 'Nationaltrust', 'category': 'National sites', 'edit_date': '20250408', 'lat_lon_source': 'Third-party'}",51.455623,0.13025478,CLOSED,+442083036359,2503,DA6 8JF,Red House,,https://www.nationaltrust.org.uk/visit/london/red-house
"Coastguard Cottages, Minsmere Road, Dunwich, Suffolk, IP17 3DJ",Suffolk,United Kingdom,Nationaltrust,"{'brand': 'Nationaltrust', 'fascia': 'Nationaltrust', 'category': 'National sites', 'edit_date': '20250408', 'lat_lon_source': 'Third-party'}",52.25889,1.626715,PARTIALLY_OPEN,+441728648501,117,IP17 3DJ,Dunwich Heath and Beach,,https://www.nationaltrust.org.uk/visit/suffolk/dunwich-heath-and-beach
"Tinkley Lane, near Nailsworth, Gloucestershire, GL10 3UH",Gloucestershire,United Kingdom,Nationaltrust,"{'brand': 'Nationaltrust', 'fascia': 'Nationaltrust', 'category': 'National sites', 'edit_date': '20250408', 'lat_lon_source': 'Third-party'}",51.70473,-2.271464,FULLY_OPEN,+441453860037,383,GL10 3UH,Woodchester Park,,https://www.nationaltrust.org.uk/visit/gloucestershire-cotswolds/woodchester-park
"Mill Bay car park, East Portlemouth, Devon, TQ8 8PU",Devon,United Kingdom,Nationaltrust,"{'brand': 'Nationaltrust', 'fascia': 'Nationaltrust', 'category': 'National sites', 'edit_date': '20250408', 'lat_lon_source': 'Third-party'}",50.229439,-3.7666917,FULLY_OPEN,+441548562344,6083,TQ8 8PU,Mill Bay,,https://www.nationaltrust.org.uk/visit/devon/mill-bay
"Quy Road, Lode, Cambridge, Cambridgeshire, CB25 9EJ",Cambridgeshire,United Kingdom,Nationaltrust,"{'brand': 'Nationaltrust', 'fascia': 'Nationaltrust', 'category': 'National sites', 'edit_date': '20250408', 'lat_lon_source': 'Third-party'}",52.235915,0.2448,FULLY_OPEN,+441223810080,9,CB25 9EJ,"Anglesey Abbey, Gardens and Lode Mill",,https://www.nationaltrust.org.uk/visit/cambridgeshire/anglesey-abbey-gardens-and-lode-mill
"Freshwater West and Gupton Farm, Castlemartin, Pembrokeshire, SA71 5HW",Pembrokeshire,United Kingdom,Nationaltrust,"{'brand': 'Nationaltrust', 'fascia': 'Nationaltrust', 'category': 'National sites', 'edit_date': '20250408', 'lat_lon_source': 'Third-party'}",51.65007,-5.04454,FULLY_OPEN,,6245,SA71 5HW,Freshwater West and Gupton Farm,,https://www.nationaltrust.org.uk/visit/wales/freshwater-west-and-gupton-farm
"Little Milford: SA62 4ET, Lawrenny: SA68 0PR, West Williamston: SA68 0TL, Pembrokeshire",West Williamston: SA68 0TL,United Kingdom,Nationaltrust,"{'brand': 'Nationaltrust', 'fascia': 'Nationaltrust', 'category': 'National sites', 'edit_date': '20250408', 'lat_lon_source': 'Third-party'}",51.719232,-4.878005,FULLY_OPEN,+441646623110,6018,SA62 4ET,Cleddau Woodlands,,https://www.nationaltrust.org.uk/visit/wales/cleddau-woodlands
"Woolacombe, Devon, EX34 7DL (Tourist Information)",Devon,United Kingdom,Nationaltrust,"{'brand': 'Nationaltrust', 'fascia': 'Nationaltrust', 'category': 'National sites', 'edit_date': '20250408', 'lat_lon_source': 'Third-party'}",51.178733,-4.167389,FULLY_OPEN,+441271870555,5109,EX34 7DL,Woolacombe,,https://www.nationaltrust.org.uk/visit/devon/woolacombe
"Minster Yard, York, North Yorkshire, YO1 7JL",North Yorkshire,United Kingdom,Nationaltrust,"{'brand': 'Nationaltrust', 'fascia': 'Nationaltrust', 'category': 'National sites', 'edit_date': '20250408', 'lat_lon_source': 'Third-party'}",53.962764,-1.080973,FULLY_OPEN,+441904624247,335,YO1 7JL,"Treasurer's House, York",,https://www.nationaltrust.org.uk/visit/yorkshire/treasurers-house-york
"Rotherfield Greys, Henley-on-Thames, Oxfordshire, RG9 4PG",Oxfordshire,United Kingdom,Nationaltrust,"{'brand': 'Nationaltrust', 'fascia': 'Nationaltrust', 'category': 'National sites', 'edit_date': '20250408', 'lat_lon_source': 'Third-party'}",51.5452,-0.95151,FULLY_OPEN,+441491628529,154,RG9 4PG,Greys Court,,https://www.nationaltrust.org.uk/visit/oxfordshire-buckinghamshire-berkshire/greys-court
"Mote Road, Ivy Hatch, Sevenoaks, Kent, TN15 0NT",Kent,United Kingdom,Nationaltrust,"{'brand': 'Nationaltrust', 'fascia': 'Nationaltrust', 'category': 'National sites', 'edit_date': '20250408', 'lat_lon_source': 'Third-party'}",51.258598,0.27088,FULLY_OPEN,+441732810378,183,TN15 0NT,Ightham Mote,,https://www.nationaltrust.org.uk/visit/kent/ightham-mote
"East Clandon, Guildford, Surrey, GU4 7RT",Surrey,United Kingdom,Nationaltrust,"{'brand': 'Nationaltrust', 'fascia': 'Nationaltrust', 'category': 'National sites', 'edit_date': '20250408', 'lat_lon_source': 'Third-party'}",51.253544,-0.4776021,FULLY_OPEN,+441483222482,162,GU4 7RT,Hatchlands Park,,https://www.nationaltrust.org.uk/visit/surrey/hatchlands-park
"Felbrigg Hall, Gardens and Estate, Norwich, Norfolk, NR11 8PP",Norfolk,United Kingdom,Nationaltrust,"{'brand': 'Nationaltrust', 'fascia': 'Nationaltrust', 'category': 'National sites', 'edit_date': '20250408', 'lat_lon_source': 'Third-party'}",52.907469,1.25942499,FULLY_OPEN,+441263837444,127,NR11 8PP,"Felbrigg Hall, Gardens and Estate",,https://www.nationaltrust.org.uk/visit/norfolk/felbrigg-hall-gardens-and-estate
"Torpoint, Cornwall, PL11 2QA",Cornwall,United Kingdom,Nationaltrust,"{'brand': 'Nationaltrust', 'fascia': 'Nationaltrust', 'category': 'National sites', 'edit_date': '20250408', 'lat_lon_source': 'Third-party'}",50.3848,-4.22563,FULLY_OPEN,+441752812191,10,PL11 2QA,Antony,,https://www.nationaltrust.org.uk/visit/cornwall/antony
"Grantham, Lincolnshire, NG32 2LS",Lincolnshire,United Kingdom,Nationaltrust,"{'brand': 'Nationaltrust', 'fascia': 'Nationaltrust', 'category': 'National sites', 'edit_date': '20250408', 'lat_lon_source': 'Third-party'}",52.94313,-0.62015,FULLY_OPEN,+441476566116,27,NG32 2LS,Belton Estate,,https://www.nationaltrust.org.uk/visit/nottinghamshire-lincolnshire/belton-estate
"Bennett Street, Bath, Somerset, BA1 2QH",Somerset,United Kingdom,Nationaltrust,"{'brand': 'Nationaltrust', 'fascia': 'Nationaltrust', 'category': 'National sites', 'edit_date': '20250408', 'lat_lon_source': 'Third-party'}",51.385799,-2.36123,CLOSED,+441225466414,25,BA1 2QH,Bath Assembly Rooms,,https://www.nationaltrust.org.uk/visit/bath-bristol/bath-assembly-rooms
"Porthor, Aberdaron, Gwynedd, LL53 8LG",Gwynedd,United Kingdom,Nationaltrust,"{'brand': 'Nationaltrust', 'fascia': 'Nationaltrust', 'category': 'National sites', 'edit_date': '20250408', 'lat_lon_source': 'Third-party'}",52.832284,-4.7235739,FULLY_OPEN,+441758703810,5202,LL53 8LG,Porthor,,https://www.nationaltrust.org.uk/visit/wales/porthor
"Gunby, Spilsby, Lincolnshire, PE23 5SS",Lincolnshire,United Kingdom,Nationaltrust,"{'brand': 'Nationaltrust', 'fascia': 'Nationaltrust', 'category': 'National sites', 'edit_date': '20250408', 'lat_lon_source': 'Third-party'}",53.178001,0.19669,FULLY_OPEN,+441754890102,155,PE23 5SS,"Gunby Estate, Hall and Gardens",,https://www.nationaltrust.org.uk/visit/nottinghamshire-lincolnshire/gunby-estate-hall-and-gardens
"The Walk, Speke, Liverpool, L24 1XD",Liverpool,United Kingdom,Nationaltrust,"{'brand': 'Nationaltrust', 'fascia': 'Nationaltrust', 'category': 'National sites', 'edit_date': '20250408', 'lat_lon_source': 'Third-party'}",53.336498,-2.87353,PARTIALLY_OPEN,+441514277231,306,L24 1XD,Speke Hall,,https://www.nationaltrust.org.uk/visit/liverpool-lancashire/speke-hall
"Malthouse Barn, Oulton Street, Norfolk, NR11 6AF",Norfolk,United Kingdom,Nationaltrust,"{'brand': 'Nationaltrust', 'fascia': 'Nationaltrust', 'category': 'National sites', 'edit_date': '20250408', 'lat_lon_source': 'Third-party'}",52.80089,1.191523,,+441263735878,4507,NR11 6AF,The Textile Conservation Studio,,https://www.nationaltrust.org.uk/visit/norfolk/the-textile-conservation-studio
"Watersmeet Road, Lynmouth, Devon, EX35 6NT",Devon,United Kingdom,Nationaltrust,"{'brand': 'Nationaltrust', 'fascia': 'Nationaltrust', 'category': 'National sites', 'edit_date': '20250408', 'lat_lon_source': 'Third-party'}",51.2211,-3.79444,FULLY_OPEN,+441598753348,355,EX35 6NT,Watersmeet,,https://www.nationaltrust.org.uk/visit/devon/watersmeet
"Packwood Lane, Lapworth, Warwickshire, B94 6AT",Warwickshire,United Kingdom,Nationaltrust,"{'brand': 'Nationaltrust', 'fascia': 'Nationaltrust', 'category': 'National sites', 'edit_date': '20250408', 'lat_lon_source': 'Third-party'}",52.3465,-1.74551,FULLY_OPEN,+441564782024,255,B94 6AT,Packwood House,,https://www.nationaltrust.org.uk/visit/warwickshire/packwood-house
"Plaxtol, Borough Green, Kent, TN15 0QX",Kent,United Kingdom,Nationaltrust,"{'brand': 'Nationaltrust', 'fascia': 'Nationaltrust', 'category': 'National sites', 'edit_date': '20250408', 'lat_lon_source': 'Third-party'}",51.263076,0.31999716,CLOSED,+441732810378,247,TN15 0QX,Old Soar Manor,,https://www.nationaltrust.org.uk/visit/kent/old-soar-manor
"Upper Sheringham, Norfolk, NR26 8TL",Norfolk,United Kingdom,Nationaltrust,"{'brand': 'Nationaltrust', 'fascia': 'Nationaltrust', 'category': 'National sites', 'edit_date': '20250408', 'lat_lon_source': 'Third-party'}",52.9240788,1.1814163,FULLY_OPEN,+441263820550,296,NR26 8TL,Sheringham Park,,https://www.nationaltrust.org.uk/visit/norfolk/sheringham-park
"Rising Lane, Baddesley Clinton, Warwickshire, B93 0DQ",Warwickshire,United Kingdom,Nationaltrust,"{'brand': 'Nationaltrust', 'fascia': 'Nationaltrust', 'category': 'National sites', 'edit_date': '20250408', 'lat_lon_source': 'Third-party'}",52.343832,-1.7084634,FULLY_OPEN,+441564783294,21,B93 0DQ,Baddesley Clinton,,https://www.nationaltrust.org.uk/visit/warwickshire/baddesley-clinton
"Rothbury, Morpeth, Northumberland, NE65 7PX",Northumberland,United Kingdom,Nationaltrust,"{'brand': 'Nationaltrust', 'fascia': 'Nationaltrust', 'category': 'National sites', 'edit_date': '20250408', 'lat_lon_source': 'Third-party'}",55.312599,-1.8817,FULLY_OPEN,+441669620333,98,NE65 7PX,Cragside,,https://www.nationaltrust.org.uk/visit/north-east/cragside
"Worksop, Nottinghamshire, S80 3BE",Nottinghamshire,United Kingdom,Nationaltrust,"{'brand': 'Nationaltrust', 'fascia': 'Nationaltrust', 'category': 'National sites', 'edit_date': '20250408', 'lat_lon_source': 'Third-party'}",53.269905,-1.072069,FULLY_OPEN,+441909476592,83,S80 3BE,Clumber Park,,https://www.nationaltrust.org.uk/visit/nottinghamshire-lincolnshire/clumber-park
"Hive Beach Office, Beach Road, Burton Bradstock, Dorset, DT6 4RF",Dorset,United Kingdom,Nationaltrust,"{'brand': 'Nationaltrust', 'fascia': 'Nationaltrust', 'category': 'National sites', 'edit_date': '20250408', 'lat_lon_source': 'Third-party'}",50.696606,-2.722042,FULLY_OPEN,+441297489481,5444,DT6 4RF,Hive Beach,,https://www.nationaltrust.org.uk/visit/dorset/hive-beach
"Main Street, Cockermouth, Cumbria, CA13 9RX",Cumbria,United Kingdom,Nationaltrust,"{'brand': 'Nationaltrust', 'fascia': 'Nationaltrust', 'category': 'National sites', 'edit_date': '20250408', 'lat_lon_source': 'Third-party'}",54.663601,-3.36678,FULLY_OPEN,+441900824805,382,CA13 9RX,Wordsworth House and Garden,,https://www.nationaltrust.org.uk/visit/lake-district/wordsworth-house-and-garden
"Golden Cap Estate, Morcombelake, Bridport, Dorset",Bridport,United Kingdom,Nationaltrust,"{'brand': 'Nationaltrust', 'fascia': 'Nationaltrust', 'category': 'National sites', 'edit_date': '20250408', 'lat_lon_source': 'Third-party'}",50.73693,-2.874292,FULLY_OPEN,+441297489481,5090,,Golden Cap,,https://www.nationaltrust.org.uk/visit/dorset/golden-cap
"Divis Road, Hannahstown, near Belfast, County Antrim, BT17 0NG",County Antrim,United Kingdom,Nationaltrust,"{'brand': 'Nationaltrust', 'fascia': 'Nationaltrust', 'category': 'National sites', 'edit_date': '20250408', 'lat_lon_source': 'Third-party'}",54.60074,-6.041651,FULLY_OPEN,+442890825434,2546,BT17 0NG,Divis and the Black Mountain,,https://www.nationaltrust.org.uk/visit/northern-ireland/divis-and-the-black-mountain
"South East of the city of Bath, Bath and NE Somerset",South East of the city of Bath,United Kingdom,Nationaltrust,"{'brand': 'Nationaltrust', 'fascia': 'Nationaltrust', 'category': 'National sites', 'edit_date': '20250408', 'lat_lon_source': 'Third-party'}",51.3808819,-2.345693,FULLY_OPEN,+441225833977,5055,,Bath Skyline,,https://www.nationaltrust.org.uk/visit/bath-bristol/bath-skyline
"Sevenoaks, Kent, TN15 0RP (Sat Nav TN13 1HX)",Kent,United Kingdom,Nationaltrust,"{'brand': 'Nationaltrust', 'fascia': 'Nationaltrust', 'category': 'National sites', 'edit_date': '20250408', 'lat_lon_source': 'Third-party'}",51.267601,0.20122,FULLY_OPEN,+441732462100,193,TN15 0RP,Knole,,https://www.nationaltrust.org.uk/visit/kent/knole
"Lamberhurst, Tunbridge Wells, Kent, TN3 8JN",Kent,United Kingdom,Nationaltrust,"{'brand': 'Nationaltrust', 'fascia': 'Nationaltrust', 'category': 'National sites', 'edit_date': '20250408', 'lat_lon_source': 'Third-party'}",51.092783,0.408198,PARTIALLY_OPEN,+441892893820,291,TN3 8JN,Scotney Castle,,https://www.nationaltrust.org.uk/visit/kent/scotney-castle
"Broadclyst, Exeter, Devon, EX5 3LE",Devon,United Kingdom,Nationaltrust,"{'brand': 'Nationaltrust', 'fascia': 'Nationaltrust', 'category': 'National sites', 'edit_date': '20250408', 'lat_lon_source': 'Third-party'}",50.792,-3.4565,FULLY_OPEN,+441392881345,189,EX5 3LE,Killerton,,https://www.nationaltrust.org.uk/visit/devon/killerton
"Erddig, Wrexham, LL13 0YT",Wrexham,United Kingdom,Nationaltrust,"{'brand': 'Nationaltrust', 'fascia': 'Nationaltrust', 'category': 'National sites', 'edit_date': '20250408', 'lat_lon_source': 'Third-party'}",53.027302,-3.00296,FULLY_OPEN,+441978355314,124,LL13 0YT,Erddig Hall and Garden,,https://www.nationaltrust.org.uk/visit/wales/erddig
"Castlefield Viaduct, Manchester, Greater Manchester, M3 4LG",Greater Manchester,United Kingdom,Nationaltrust,"{'brand': 'Nationaltrust', 'fascia': 'Nationaltrust', 'category': 'National sites', 'edit_date': '20250408', 'lat_lon_source': 'Third-party'}",53.4751776,-2.2547594,CLOSED,,900022,M3 4LG,Castlefield Viaduct,,https://www.nationaltrust.org.uk/visit/cheshire-greater-manchester/castlefield-viaduct
"Market Place, Lavenham, Sudbury, Suffolk, CO10 9QZ",Suffolk,United Kingdom,Nationaltrust,"{'brand': 'Nationaltrust', 'fascia': 'Nationaltrust', 'category': 'National sites', 'edit_date': '20250408', 'lat_lon_source': 'Third-party'}",52.10876,0.79662,FULLY_OPEN,+441787247646,196,CO10 9QZ,Lavenham Guildhall,,https://www.nationaltrust.org.uk/visit/suffolk/lavenham-guildhall
"St Dominick, near Saltash, Cornwall, PL12 6TA",Cornwall,United Kingdom,Nationaltrust,"{'brand': 'Nationaltrust', 'fascia': 'Nationaltrust', 'category': 'National sites', 'edit_date': '20250408', 'lat_lon_source': 'Third-party'}",50.494301,-4.22487,FULLY_OPEN,+441579351346,96,PL12 6TA,Cotehele,,https://www.nationaltrust.org.uk/visit/cornwall/cotehele
"Ladgate Lane, Middlesbrough, North Yorkshire, TS3 OSR",North Yorkshire,United Kingdom,Nationaltrust,"{'brand': 'Nationaltrust', 'fascia': 'Nationaltrust', 'category': 'National sites', 'edit_date': '20250408', 'lat_lon_source': 'Third-party'}",54.5432,-1.1829,CLOSED,+441642328904,250,,Ormesby Hall,,https://www.nationaltrust.org.uk/visit/north-east/ormesby-hall
"Ticknall, Derby, Derbyshire, DE73 7JF",Derbyshire,United Kingdom,Nationaltrust,"{'brand': 'Nationaltrust', 'fascia': 'Nationaltrust', 'category': 'National sites', 'edit_date': '20250408', 'lat_lon_source': 'Third-party'}",52.808253,-1.472834,FULLY_OPEN,+441332863822,61,DE73 7JF,Calke Abbey,,https://www.nationaltrust.org.uk/visit/peak-district-derbyshire/calke-abbey
"Blickling Estate, Aylsham, Norfolk, NR11 6NF",Norfolk,United Kingdom,Nationaltrust,"{'brand': 'Nationaltrust', 'fascia': 'Nationaltrust', 'category': 'National sites', 'edit_date': '20250408', 'lat_lon_source': 'Third-party'}",52.812,1.23139,PARTIALLY_OPEN,+441263738030,35,NR11 6NF,Blickling Estate,,https://www.nationaltrust.org.uk/visit/norfolk/blickling-estate
"on Exmoor, near Minehead, Somerset",near Minehead,United Kingdom,Nationaltrust,"{'brand': 'Nationaltrust', 'fascia': 'Nationaltrust', 'category': 'National sites', 'edit_date': '20250408', 'lat_lon_source': 'Third-party'}",51.22117,-3.582119,PARTIALLY_OPEN,+441643862452,6239,,Bossington,,https://www.nationaltrust.org.uk/visit/somerset/bossington
"Coleshill Village & Parkland, Coleshill, Nr Swindon, Oxfordshire, SN6 7PT",Oxfordshire,United Kingdom,Nationaltrust,"{'brand': 'Nationaltrust', 'fascia': 'Nationaltrust', 'category': 'National sites', 'edit_date': '20250408', 'lat_lon_source': 'Third-party'}",51.640307,-1.660506,FULLY_OPEN,+441793762209,900017,SN6 7PT,Coleshill Village and Parkland,,https://www.nationaltrust.org.uk/visit/oxfordshire-buckinghamshire-berkshire/coleshill-village-parkland
"Wentworth Castle Gardens, Park Drive, Barnsley, South Yorkshire, S75 3EN",South Yorkshire,United Kingdom,Nationaltrust,"{'brand': 'Nationaltrust', 'fascia': 'Nationaltrust', 'category': 'National sites', 'edit_date': '20250408', 'lat_lon_source': 'Third-party'}",53.527001,-1.5181156,FULLY_OPEN,+441226323070,90008,S75 3EN,Wentworth Castle Gardens,,https://www.nationaltrust.org.uk/visit/yorkshire/wentworth-castle-gardens
"Bush End Road, Takeley, Bishop's Stortford, Essex, CM22 6NE",Essex,United Kingdom,Nationaltrust,"{'brand': 'Nationaltrust', 'fascia': 'Nationaltrust', 'category': 'National sites', 'edit_date': '20250408', 'lat_lon_source': 'Third-party'}",51.8592,0.2363,FULLY_OPEN,+441279870678,163,CM22 6NE,Hatfield Forest,,https://www.nationaltrust.org.uk/visit/essex-bedfordshire-hertfordshire/hatfield-forest
"Coleshill, near Swindon, Wiltshire, SN6 7PT",Wiltshire,United Kingdom,Nationaltrust,"{'brand': 'Nationaltrust', 'fascia': 'Nationaltrust', 'category': 'National sites', 'edit_date': '20250408', 'lat_lon_source': 'Third-party'}",51.640444,-1.660634,PARTIALLY_OPEN,+441793762209,2575,SN6 7PT,Buscot and Coleshill Estates,,https://www.nationaltrust.org.uk/visit/oxfordshire-buckinghamshire-berkshire/buscot-and-coleshill-estates
"on Exmoor, near Minehead, Somerset",near Minehead,United Kingdom,Nationaltrust,"{'brand': 'Nationaltrust', 'fascia': 'Nationaltrust', 'category': 'National sites', 'edit_date': '20250408', 'lat_lon_source': 'Third-party'}",51.184803,-3.585608,FULLY_OPEN,+441643862452,6240,,Horner Wood,,https://www.nationaltrust.org.uk/visit/somerset/horner-wood
"Drewsteignton, near Exeter, Devon, EX6 6PB",Devon,United Kingdom,Nationaltrust,"{'brand': 'Nationaltrust', 'fascia': 'Nationaltrust', 'category': 'National sites', 'edit_date': '20250408', 'lat_lon_source': 'Third-party'}",50.695903,-3.8110956,FULLY_OPEN,+441647433306,68,EX6 6PB,Castle Drogo,,https://www.nationaltrust.org.uk/visit/devon/castle-drogo
"Langdon Cliffs, Upper Road, Dover, Kent, CT16 1HJ",Kent,United Kingdom,Nationaltrust,"{'brand': 'Nationaltrust', 'fascia': 'Nationaltrust', 'category': 'National sites', 'edit_date': '20250408', 'lat_lon_source': 'Third-party'}",51.132046,1.337537,PARTIALLY_OPEN,+441304202756,367,CT16 1HJ,The White Cliffs of Dover,,https://www.nationaltrust.org.uk/visit/kent/the-white-cliffs-of-dover
"Lode Lane, Wicken, Ely, Cambridgeshire, CB7 5XP",Cambridgeshire,United Kingdom,Nationaltrust,"{'brand': 'Nationaltrust', 'fascia': 'Nationaltrust', 'category': 'National sites', 'edit_date': '20250408', 'lat_lon_source': 'Third-party'}",52.3101,0.29291,FULLY_OPEN,+441353720274,370,CB7 5XP,Wicken Fen National Nature Reserve,,https://www.nationaltrust.org.uk/visit/cambridgeshire/wicken-fen-national-nature-reserve
"Brancaster Beach, Beach Road, Brancaster, Norfolk, PE31 8AX",Norfolk,United Kingdom,Nationaltrust,"{'brand': 'Nationaltrust', 'fascia': 'Nationaltrust', 'category': 'National sites', 'edit_date': '20250408', 'lat_lon_source': 'Third-party'}",52.9669,0.66877,FULLY_OPEN,+441263740241,46,PE31 8AX,Brancaster Estate,,https://www.nationaltrust.org.uk/visit/norfolk/brancaster-estate
"Blakeney Office, Friary Farm, Cley Road, Norfolk, NR25 7NW (No Public Access)",Norfolk,United Kingdom,Nationaltrust,"{'brand': 'Nationaltrust', 'fascia': 'Nationaltrust', 'category': 'National sites', 'edit_date': '20250408', 'lat_lon_source': 'Third-party'}",52.957752,0.985829,FULLY_OPEN,+441263740241,33,NR25 7NW,Blakeney National Nature Reserve,,https://www.nationaltrust.org.uk/visit/norfolk/blakeney-national-nature-reserve
"Morston Quay, Quay Lane, Morston, Norfolk, NR25 7BH",Norfolk,United Kingdom,Nationaltrust,"{'brand': 'Nationaltrust', 'fascia': 'Nationaltrust', 'category': 'National sites', 'edit_date': '20250408', 'lat_lon_source': 'Third-party'}",52.956741,0.98656,FULLY_OPEN,+441263740241,900012,NR25 7BH,Morston Quay,,https://www.nationaltrust.org.uk/visit/norfolk/morston-quay
,,United Kingdom,Nationaltrust,"{'brand': 'Nationaltrust', 'fascia': 'Nationaltrust', 'category': 'National sites', 'edit_date': '20250408', 'lat_lon_source': 'Third-party'}",51.114861,-2.365026,CLOSED,+441747841152,900019,,Alfred's Tower,,https://www.nationaltrust.org.uk/visit/wiltshire/king-alfreds-tower
"Chastleton, near Moreton-in-Marsh, Oxfordshire, GL56 0SU",Oxfordshire,United Kingdom,Nationaltrust,"{'brand': 'Nationaltrust', 'fascia': 'Nationaltrust', 'category': 'National sites', 'edit_date': '20250408', 'lat_lon_source': 'Third-party'}",51.960098,-1.63895,CLOSED,+441608674355,73,GL56 0SU,Chastleton,,https://www.nationaltrust.org.uk/visit/oxfordshire-buckinghamshire-berkshire/chastleton
"Ide Hill, Sevenoaks, Kent, TN14 6BA",Kent,United Kingdom,Nationaltrust,"{'brand': 'Nationaltrust', 'fascia': 'Nationaltrust', 'category': 'National sites', 'edit_date': '20250408', 'lat_lon_source': 'Third-party'}",51.250599,0.11573,FULLY_OPEN,+441732868381,123,TN14 6BA,Emmetts Garden,,https://www.nationaltrust.org.uk/visit/kent/emmetts-garden
"Quebec Square, Westerham, Kent, TN16 1TD",Kent,United Kingdom,Nationaltrust,"{'brand': 'Nationaltrust', 'fascia': 'Nationaltrust', 'category': 'National sites', 'edit_date': '20250408', 'lat_lon_source': 'Third-party'}",51.268002,0.07833,CLOSED,+441959567430,273,TN16 1TD,Quebec House,,https://www.nationaltrust.org.uk/visit/kent/quebec-house
"Hafod Estate, Pontrhydygroes, Ystrad Meurig, Ceredigion, SY25 6DX",Ceredigion,United Kingdom,Nationaltrust,"{'brand': 'Nationaltrust', 'fascia': 'Nationaltrust', 'category': 'National sites', 'edit_date': '20250408', 'lat_lon_source': 'Third-party'}",52.347167,-3.809934,FULLY_OPEN,+441974282568,900025,SY25 6DX,Hafod Estate,,https://www.nationaltrust.org.uk/visit/wales/hafod-estate
