
{"addr_full": "17 avenue Phil\u00e9as Fogg - P\u00f4le Jules Verne", "brand": "But", "city": "GLISY", "country": "FR", "extras": {"brand": "But", "facia": "But", "category": "Retail", "edit_date": "2025-03-19", "lat_lon_source": "website"}, "lat": "49.864799444030000000", "lon": "2.379527931213400000", "name": "But Amiens", "phone": null, "ref": "003", "postcode": "80440", "website": "https://www.but.fr//magasins/003/But-Amiens.html"},
{"addr_full": "1 rue Pierre et Marie Curie", "brand": "But", "city": "BEAUVAIS", "country": "FR", "extras": {"brand": "But", "facia": "But", "category": "Retail", "edit_date": "2025-03-19", "lat_lon_source": "website"}, "lat": "49.408195606114000000", "lon": "2.115049668786600000", "name": "But Beauvais", "phone": null, "ref": "004", "postcode": "60000", "website": "https://www.but.fr//magasins/004/But-Beauvais.html"},
{"addr_full": "Zone Actipolis", "brand": "But", "city": "FOUQUIERES LES BETHUNE", "country": "FR", "extras": {"brand": "But", "facia": "But", "category": "Retail", "edit_date": "2025-03-19", "lat_lon_source": "website"}, "lat": "50.514679768756000000", "lon": "2.623335289983500000", "name": "But Bethune", "phone": null, "ref": "005", "postcode": "62232", "website": "https://www.but.fr//magasins/005/But-Bethune.html"},
{"addr_full": "RN1", "brand": "But", "city": "ISQUES", "country": "FR", "extras": {"brand": "But", "facia": "But", "category": "Retail", "edit_date": "2025-03-19", "lat_lon_source": "website"}, "lat": "50.674073127931000000", "lon": "1.655151221102000000", "name": "But Boulogne sur mer", "phone": null, "ref": "006", "postcode": "62360", "website": "https://www.but.fr//magasins/006/But-Boulogne-sur-mer.html"},
{"addr_full": "Zone d'activit\u00e9 des Cailloux - 383 rue Danton -", "brand": "But", "city": "CALAIS", "country": "FR", "extras": {"brand": "But", "facia": "But", "category": "Retail", "edit_date": "2025-03-19", "lat_lon_source": "website"}, "lat": "50.939000000000000000", "lon": "1.847000000000000000", "name": "But Calais", "phone": null, "ref": "007", "postcode": "62100", "website": "https://www.but.fr//magasins/007/But-Calais.html"},
{"addr_full": "Rue des canadiens Les Vertus", "brand": "But", "city": "ST AUBIN SUR SCIE", "country": "FR", "extras": {"brand": "But", "facia": "But", "category": "Retail", "edit_date": "2025-03-19", "lat_lon_source": "website"}, "lat": "49.896000000000000000", "lon": "1.077000000000000000", "name": "But Dieppe", "phone": null, "ref": "009", "postcode": "76550", "website": "https://www.but.fr//magasins/009/But-Dieppe.html"},
{"addr_full": "Centre Carrefour \u2013 RN13 Route de Paris Les Longs Buissons", "brand": "But", "city": "GUICHAINVILLE", "country": "FR", "extras": {"brand": "But", "facia": "But", "category": "Retail", "edit_date": "2025-03-19", "lat_lon_source": "website"}, "lat": "49.017000000000000000", "lon": "1.150000000000000000", "name": "But Evreux", "phone": null, "ref": "010", "postcode": "27930", "website": "https://www.but.fr//magasins/010/But-Evreux.html"},
{"addr_full": "ZA La Marli\u00e8re", "brand": "But", "city": "FOURMIES", "country": "FR", "extras": {"brand": "But", "facia": "But", "category": "Retail", "edit_date": "2025-03-19", "lat_lon_source": "website"}, "lat": "50.023086163212000000", "lon": "4.034187754631000000", "name": "But Fourmies", "phone": null, "ref": "011", "postcode": "59610", "website": "https://www.but.fr//magasins/011/But-Fourmies.html"},
{"addr_full": "11 rue Louis Bleriot Zone commerciale Vendin 2", "brand": "But", "city": "VENDIN LE VEIL", "country": "FR", "extras": {"brand": "But", "facia": "But", "category": "Retail", "edit_date": "2025-03-19", "lat_lon_source": "website"}, "lat": "50.463937355984000000", "lon": "2.826879937852300000", "name": "But Lens", "phone": null, "ref": "012", "postcode": "62880", "website": "https://www.but.fr//magasins/012/But-Lens.html"},
{"addr_full": "484 boulevard de l'europe zac de la carbonniere 3", "brand": "But", "city": "BARENTIN", "country": "FR", "extras": {"brand": "But", "facia": "But", "category": "Retail", "edit_date": "2025-03-19", "lat_lon_source": "website"}, "lat": "49.527000000000000000", "lon": "0.967000000000000000", "name": "But Rouen - Barentin", "phone": null, "ref": "015", "postcode": "76360", "website": "https://www.but.fr//magasins/015/But-Rouen-Barentin.html"},
{"addr_full": "Parc d'activit\u00e9s Eco-clos aux antes - centre commercial CarrefourA13", "brand": "But", "city": "TOURVILLE LA RIVI\u00e8RE", "country": "FR", "extras": {"brand": "But", "facia": "But", "category": "Retail", "edit_date": "2025-03-19", "lat_lon_source": "website"}, "lat": "49.328245502182000000", "lon": "1.092790222168000000", "name": "But Rouen - Tourville", "phone": null, "ref": "016", "postcode": "76410", "website": "https://www.but.fr//magasins/016/But-Rouen-Tourville.html"},
{"addr_full": "Z.A.C. Les marlettes Forum de Picardie", "brand": "But", "city": "FAYET", "country": "FR", "extras": {"brand": "But", "facia": "But", "category": "Retail", "edit_date": "2025-03-19", "lat_lon_source": "website"}, "lat": "49.860220272752000000", "lon": "3.255673091796900000", "name": "But St Quentin", "phone": null, "ref": "017", "postcode": "02100", "website": "https://www.but.fr//magasins/017/But-St-Quentin.html"},
{"addr_full": "RN 30", "brand": "But", "city": "LA SENTINELLE", "country": "FR", "extras": {"brand": "But", "facia": "But", "category": "Retail", "edit_date": "2025-03-19", "lat_lon_source": "website"}, "lat": "50.345213898646000000", "lon": "3.481118499475100000", "name": "But Valenciennes", "phone": null, "ref": "018", "postcode": "59174", "website": "https://www.but.fr//magasins/018/But-Valenciennes.html"},
{"addr_full": "ZAC des Montagnes Ouest Cellule C", "brand": "But", "city": "CHAMPNIERS", "country": "FR", "extras": {"brand": "But", "facia": "But", "category": "Retail", "edit_date": "2025-03-19", "lat_lon_source": "website"}, "lat": "45.624593575997000000", "lon": "0.159716149676230000", "name": "But Angoul\u00eame", "phone": null, "ref": "020", "postcode": "16430", "website": "https://www.but.fr//magasins/020/But-Angouleme.html"},
{"addr_full": "Za le petit coudray route du mans", "brand": "But", "city": "ARCONNAY", "country": "FR", "extras": {"brand": "But", "facia": "But", "category": "Retail", "edit_date": "2025-03-19", "lat_lon_source": "website"}, "lat": "48.403889000000000000", "lon": "0.089972000000000000", "name": "But Alen\u00e7on", "phone": null, "ref": "024", "postcode": "72610", "website": "https://www.but.fr//magasins/024/But-Alencon.html"},
{"addr_full": "Centre Commercial ATOLL - EcoParc du Buisson", "brand": "But", "city": "BEAUCOUZE", "country": "FR", "extras": {"brand": "But", "facia": "But", "category": "Retail", "edit_date": "2025-03-19", "lat_lon_source": "website"}, "lat": "47.483046806564000000", "lon": "-0.624847412109380000", "name": "But Angers", "phone": null, "ref": "025", "postcode": "49070", "website": "https://www.but.fr//magasins/025/But-Angers.html"},
{"addr_full": "Rue Graham Bell - ZI Kergaradec", "brand": "But", "city": "BREST", "country": "FR", "extras": {"brand": "But", "facia": "But", "category": "Retail", "edit_date": "2025-03-19", "lat_lon_source": "website"}, "lat": "48.424787000000000000", "lon": "-4.474893000000000000", "name": "But Brest", "phone": null, "ref": "026", "postcode": "29200", "website": "https://www.but.fr//magasins/026/But-Brest.html"},
{"addr_full": "Centre commercial r\u00e9gional Mondeville 2 Zone de l'\u00e9toile", "brand": "But", "city": "MONDEVILLE", "country": "FR", "extras": {"brand": "But", "facia": "But", "category": "Retail", "edit_date": "2025-03-19", "lat_lon_source": "website"}, "lat": "49.166088227342000000", "lon": "-0.295779271936000000", "name": "But Caen", "phone": null, "ref": "027", "postcode": "14120", "website": "https://www.but.fr//magasins/027/But-Caen.html"},
{"addr_full": "Route de Saint C\u00f4me", "brand": "But", "city": "CARENTAN LES MARAIS", "country": "FR", "extras": {"brand": "But", "facia": "But", "category": "Retail", "edit_date": "2025-03-19", "lat_lon_source": "website"}, "lat": "49.311429723867000000", "lon": "-1.256475556156600000", "name": "But Carentan", "phone": null, "ref": "028", "postcode": "50480", "website": "https://www.but.fr//magasins/028/But-Carentan.html"},
{"addr_full": "2 Rue de Docteur Menguy", "brand": "But", "city": "CARHAIX-PLOUGUER", "country": "FR", "extras": {"brand": "But", "facia": "But", "category": "Retail", "edit_date": "2025-03-19", "lat_lon_source": "website"}, "lat": "48.274172767138000000", "lon": "-3.580035605915200000", "name": "But Carhaix", "phone": null, "ref": "029", "postcode": "29270", "website": "https://www.but.fr//magasins/029/But-Carhaix.html"},
{"addr_full": "Route de St NazaireBP 92", "brand": "But", "city": "CHATEAUBRIANT CEDEX", "country": "FR", "extras": {"brand": "But", "facia": "But", "category": "Retail", "edit_date": "2025-03-19", "lat_lon_source": "website"}, "lat": "47.703783094781000000", "lon": "-1.393763178295900000", "name": "But Chateaubriant", "phone": null, "ref": "032", "postcode": "44110", "website": "https://www.but.fr//magasins/032/But-Chateaubriant.html"},
{"addr_full": "Avenue amiral LemonnierZ.I. de Batavia", "brand": "But", "city": "CHERBOURG EN COTENTIN", "country": "FR", "extras": {"brand": "But", "facia": "But", "category": "Retail", "edit_date": "2025-03-19", "lat_lon_source": "website"}, "lat": "49.633692396617000000", "lon": "-1.602629036462400000", "name": "But Cherbourg", "phone": null, "ref": "033", "postcode": "50470", "website": "https://www.but.fr//magasins/033/But-Cherbourg.html"},
{"addr_full": "39 rue d'Anjou", "brand": "But", "city": "CHOLET", "country": "FR", "extras": {"brand": "But", "facia": "But", "category": "Retail", "edit_date": "2025-03-19", "lat_lon_source": "website"}, "lat": "47.077876900000000000", "lon": "-0.839182705557280000", "name": "But Cholet", "phone": null, "ref": "034", "postcode": "49300", "website": "https://www.but.fr//magasins/034/But-Cholet.html"},
{"addr_full": "Z.A.C. les vignes", "brand": "But", "city": "QUEVERT", "country": "FR", "extras": {"brand": "But", "facia": "But", "category": "Retail", "edit_date": "2025-03-19", "lat_lon_source": "website"}, "lat": "48.444926398634000000", "lon": "-2.070548474278400000", "name": "But Dinan", "phone": null, "ref": "036", "postcode": "22100", "website": "https://www.but.fr//magasins/036/But-Dinan.html"},
{"addr_full": "Zone des 3 canonsAvenue Charles de Gaulle BP 262", "brand": "But", "city": "FONTENAY LE COMTE", "country": "FR", "extras": {"brand": "But", "facia": "But", "category": "Retail", "edit_date": "2025-03-19", "lat_lon_source": "website"}, "lat": "46.465835504762000000", "lon": "-0.824541616015270000", "name": "But Fontenay le comte", "phone": null, "ref": "037", "postcode": "85200", "website": "https://www.but.fr//magasins/037/But-Fontenay-le-comte.html"},
{"addr_full": "Z.A. le parc", "brand": "But", "city": "LECOUSSE", "country": "FR", "extras": {"brand": "But", "facia": "But", "category": "Retail", "edit_date": "2025-03-19", "lat_lon_source": "website"}, "lat": "48.350243070650000000", "lon": "-1.226286096301000000", "name": "But Foug\u00e8res", "phone": null, "ref": "038", "postcode": "35133", "website": "https://www.but.fr//magasins/038/But-Fougeres.html"},
{"addr_full": "435 route de Villedieu", "brand": "But", "city": "GRANVILLE", "country": "FR", "extras": {"brand": "But", "facia": "But", "category": "Retail", "edit_date": "2025-03-19", "lat_lon_source": "website"}, "lat": "48.837894452338000000", "lon": "-1.555657502221700000", "name": "But Granville", "phone": null, "ref": "039", "postcode": "50400", "website": "https://www.but.fr//magasins/039/But-Granville.html"},
{"addr_full": "Kerholo", "brand": "But", "city": "ST AGATHON", "country": "FR", "extras": {"brand": "But", "facia": "But", "category": "Retail", "edit_date": "2025-03-19", "lat_lon_source": "website"}, "lat": "48.558396911789000000", "lon": "-3.123469290917900000", "name": "But Guingamp", "phone": null, "ref": "040", "postcode": "22200", "website": "https://www.but.fr//magasins/040/But-Guingamp.html"},
{"addr_full": "Les bazini\u00e8res Route de Nantes", "brand": "But", "city": "LA ROCHE SUR YON", "country": "FR", "extras": {"brand": "But", "facia": "But", "category": "Retail", "edit_date": "2025-03-19", "lat_lon_source": "website"}, "lat": "46.693920388532000000", "lon": "-1.430110931396499900", "name": "But La roche sur Yon", "phone": null, "ref": "041", "postcode": "85000", "website": "https://www.but.fr//magasins/041/But-La-roche-sur-Yon.html"},
{"addr_full": "Centre commercial \"La Mayenne\" - Rue Duguesclin", "brand": "But", "city": "LAVAL", "country": "FR", "extras": {"brand": "But", "facia": "But", "category": "Retail", "edit_date": "2025-03-19", "lat_lon_source": "website"}, "lat": "48.078765508061000000", "lon": "-0.798134905310010000", "name": "But Laval", "phone": null, "ref": "043", "postcode": "53000", "website": "https://www.but.fr//magasins/043/But-Laval.html"},
{"addr_full": "Parc de l'estuaire", "brand": "But", "city": "GONFREVILLE L ORCHER", "country": "FR", "extras": {"brand": "But", "facia": "But", "category": "Retail", "edit_date": "2025-03-19", "lat_lon_source": "website"}, "lat": "49.509726112278000000", "lon": "0.224459846496530000", "name": "But Le Havre", "phone": null, "ref": "044", "postcode": "76700", "website": "https://www.but.fr//magasins/044/But-Le-Havre.html"},
{"addr_full": "Zone commerciale des Hunaudi\u00e8res ( face \u00e0 Leroy Merlin ) RN138 Route de Tours", "brand": "But", "city": "MULSANNE", "country": "FR", "extras": {"brand": "But", "facia": "But", "category": "Retail", "edit_date": "2025-03-19", "lat_lon_source": "website"}, "lat": "47.939807324249000000", "lon": "0.233271365545650000", "name": "But Le Mans", "phone": null, "ref": "045", "postcode": "72230", "website": "https://www.but.fr//magasins/045/But-Le-Mans.html"},
{"addr_full": "RN 13", "brand": "But", "city": "LISIEUX", "country": "FR", "extras": {"brand": "But", "facia": "But", "category": "Retail", "edit_date": "2025-03-19", "lat_lon_source": "website"}, "lat": "49.145000000000000000", "lon": "0.270000000000000000", "name": "But Lisieux", "phone": null, "ref": "046", "postcode": "14100", "website": "https://www.but.fr//magasins/046/But-Lisieux.html"},
{"addr_full": "Rue du 19 mars 1962", "brand": "But", "city": "LANESTER", "country": "FR", "extras": {"brand": "But", "facia": "But", "category": "Retail", "edit_date": "2025-03-19", "lat_lon_source": "website"}, "lat": "47.775625072997000000", "lon": "-3.339881982803400000", "name": "But Lorient", "phone": null, "ref": "047", "postcode": "56600", "website": "https://www.but.fr//magasins/047/But-Lorient.html"},
{"addr_full": "Centre commercial Atlantis. 1 rue Amerigo Vespucci", "brand": "But", "city": "SAINT HERBLAIN", "country": "FR", "extras": {"brand": "But", "facia": "But", "category": "Retail", "edit_date": "2025-03-19", "lat_lon_source": "website"}, "lat": "47.223261330377000000", "lon": "-1.623947128697200000", "name": "But Nantes", "phone": null, "ref": "050", "postcode": "44800", "website": "https://www.but.fr//magasins/050/But-Nantes.html"},
{"addr_full": "3 rue Schuman", "brand": "But", "city": "PONTIVY", "country": "FR", "extras": {"brand": "But", "facia": "But", "category": "Retail", "edit_date": "2025-03-19", "lat_lon_source": "website"}, "lat": "48.043775025433000000", "lon": "-2.959917659532600000", "name": "But Pontivy", "phone": null, "ref": "051", "postcode": "56300", "website": "https://www.but.fr//magasins/051/But-Pontivy.html"},
{"addr_full": "2 rue Fran\u00e7ois Marie Andr\u00e9 Route de Benodet", "brand": "But", "city": "QUIMPER", "country": "FR", "extras": {"brand": "But", "facia": "But", "category": "Retail", "edit_date": "2025-03-19", "lat_lon_source": "website"}, "lat": "47.964000000000000000", "lon": "-4.084000000000000000", "name": "But Quimper", "phone": null, "ref": "052", "postcode": "29000", "website": "https://www.but.fr//magasins/052/But-Quimper.html"},
{"addr_full": "Route de Rennes Zone de Cotard", "brand": "But", "city": "REDON", "country": "FR", "extras": {"brand": "But", "facia": "But", "category": "Retail", "edit_date": "2025-03-19", "lat_lon_source": "website"}, "lat": "47.672542886601000000", "lon": "-2.065840582953600000", "name": "But Redon", "phone": null, "ref": "053", "postcode": "35600", "website": "https://www.but.fr//magasins/053/But-Redon.html"},
{"addr_full": "Parc rocade sud - Rue de Guerledan", "brand": "But", "city": "CHANTEPIE", "country": "FR", "extras": {"brand": "But", "facia": "But", "category": "Retail", "edit_date": "2025-03-19", "lat_lon_source": "website"}, "lat": "48.085992832982000000", "lon": "-1.630871253967300000", "name": "But Rennes - Chantepie", "phone": null, "ref": "054", "postcode": "35135", "website": "https://www.but.fr//magasins/054/But-Rennes-Chantepie.html"},
{"addr_full": "Route de St Malo - Parc ConforlandMelesse", "brand": "But", "city": "MELESSE", "country": "FR", "extras": {"brand": "But", "facia": "But", "category": "Retail", "edit_date": "2025-03-19", "lat_lon_source": "website"}, "lat": "48.189842644463000000", "lon": "-1.727080466270400000", "name": "But Rennes Melesse", "phone": null, "ref": "055", "postcode": "35520", "website": "https://www.but.fr//magasins/055/But-Rennes-Melesse.html"},
{"addr_full": "3 rue Laennec", "brand": "But", "city": "LANGEUX", "country": "FR", "extras": {"brand": "But", "facia": "But", "category": "Retail", "edit_date": "2025-03-19", "lat_lon_source": "website"}, "lat": "48.494195189682000000", "lon": "-2.725073831352200000", "name": "But St Brieuc", "phone": null, "ref": "057", "postcode": "22360", "website": "https://www.but.fr//magasins/057/But-St-Brieuc.html"},
{"addr_full": "1980 avenue de Paris", "brand": "But", "city": "ST LO", "country": "FR", "extras": {"brand": "But", "facia": "But", "category": "Retail", "edit_date": "2025-03-19", "lat_lon_source": "website"}, "lat": "49.116337143419000000", "lon": "-1.047417784625300000", "name": "But St Lo", "phone": null, "ref": "058", "postcode": "50000", "website": "https://www.but.fr//magasins/058/But-St-Lo.html"},
{"addr_full": "Boulevard des d\u00e9port\u00e9s", "brand": "But", "city": "ST-MALO", "country": "FR", "extras": {"brand": "But", "facia": "But", "category": "Retail", "edit_date": "2025-03-19", "lat_lon_source": "website"}, "lat": "48.658319670622000000", "lon": "-1.970324277387400000", "name": "But St-Malo", "phone": null, "ref": "059", "postcode": "35400", "website": "https://www.but.fr//magasins/059/But-St-Malo.html"},
{"addr_full": "route de la c\u00f4te d\u2019amour /Rond point Oc\u00e9anis", "brand": "But", "city": "ST-NAZAIRE", "country": "FR", "extras": {"brand": "But", "facia": "But", "category": "Retail", "edit_date": "2025-03-19", "lat_lon_source": "website"}, "lat": "47.258383511903000000", "lon": "-2.272231597900400000", "name": "But St-Nazaire", "phone": null, "ref": "060", "postcode": "44600", "website": "https://www.but.fr//magasins/060/But-St-Nazaire.html"},
{"addr_full": "Parc d'activit\u00e9 du Champ Blanchard  - Rue du Pav\u00e9 Riou", "brand": "But", "city": "DISTRE", "country": "FR", "extras": {"brand": "But", "facia": "But", "category": "Retail", "edit_date": "2025-03-19", "lat_lon_source": "website"}, "lat": "47.231000000000000000", "lon": "-0.123000000000000000", "name": "But Saumur", "phone": null, "ref": "061", "postcode": "49400", "website": "https://www.but.fr//magasins/061/But-Saumur.html"},
{"addr_full": "Z.A.C. de Kerlann 26 rue Theophraste Renaudot", "brand": "But", "city": "VANNES", "country": "FR", "extras": {"brand": "But", "facia": "But", "category": "Retail", "edit_date": "2025-03-19", "lat_lon_source": "website"}, "lat": "47.663120640264000000", "lon": "-2.785265842367200000", "name": "But Vannes", "phone": null, "ref": "062", "postcode": "56000", "website": "https://www.but.fr//magasins/062/But-Vannes.html"},
{"addr_full": "Route de Caen", "brand": "But", "city": "VIRE NORMANDIE", "country": "FR", "extras": {"brand": "But", "facia": "But", "category": "Retail", "edit_date": "2025-03-19", "lat_lon_source": "website"}, "lat": "48.857732171976000000", "lon": "-0.876816490985110000", "name": "But Vire", "phone": null, "ref": "063", "postcode": "14500", "website": "https://www.but.fr//magasins/063/But-Vire.html"},
{"addr_full": "Zone de Bel Air Boulevard Youri Gagarine", "brand": "But", "city": "BRESSUIRE", "country": "FR", "extras": {"brand": "But", "facia": "But", "category": "Retail", "edit_date": "2025-03-19", "lat_lon_source": "website"}, "lat": "46.846073469623000000", "lon": "-0.504464281089780030", "name": "But Bressuire", "phone": null, "ref": "064", "postcode": "79300", "website": "https://www.but.fr//magasins/064/But-Bressuire.html"},
{"addr_full": "ZAC du Mazaud - Av Pierre Mendes France", "brand": "But", "city": "BRIVE LA GAILLARDE", "country": "FR", "extras": {"brand": "But", "facia": "But", "category": "Retail", "edit_date": "2025-03-19", "lat_lon_source": "website"}, "lat": "45.142420000000000000", "lon": "1.471039000000000000", "name": "But Brive", "phone": null, "ref": "065", "postcode": "19100", "website": "https://www.but.fr//magasins/065/But-Brive.html"},
{"addr_full": "Avenue Honor\u00e9 de BalzacRN 10 SUD", "brand": "But", "city": "CHATELLERAULT", "country": "FR", "extras": {"brand": "But", "facia": "But", "category": "Retail", "edit_date": "2025-03-19", "lat_lon_source": "website"}, "lat": "46.789133177670000000", "lon": "0.526194515344290000", "name": "But Chatellerault", "phone": null, "ref": "066", "postcode": "86100", "website": "https://www.but.fr//magasins/066/But-Chatellerault.html"},
{"addr_full": "Rue du Torpilleur Sirocco BP 184", "brand": "But", "city": "CLERMONT FERRAND", "country": "FR", "extras": {"brand": "But", "facia": "But", "category": "Retail", "edit_date": "2025-03-19", "lat_lon_source": "website"}, "lat": "45.814000000000000000", "lon": "3.108000000000000000", "name": "But Clermont Ferrand Nord", "phone": null, "ref": "067", "postcode": "63100", "website": "https://www.but.fr//magasins/067/But-Clermont-Ferrand-Nord.html"},
{"addr_full": "Rue de Varennes", "brand": "But", "city": "AUBI\u00e8RE", "country": "FR", "extras": {"brand": "But", "facia": "But", "category": "Retail", "edit_date": "2025-03-19", "lat_lon_source": "website"}, "lat": "45.754282525850000000", "lon": "3.131702824575800000", "name": "But Clermont Ferrand Sud", "phone": null, "ref": "068", "postcode": "63170", "website": "https://www.but.fr//magasins/068/But-Clermont-Ferrand-Sud.html"},
{"addr_full": "ZI Le fief du roi Chateaubernard", "brand": "But", "city": "COGNAC", "country": "FR", "extras": {"brand": "But", "facia": "But", "category": "Retail", "edit_date": "2025-03-19", "lat_lon_source": "website"}, "lat": "45.680000000000000000", "lon": "-0.311000000000000000", "name": "But Cognac - Chateaubernard", "phone": null, "ref": "069", "postcode": "16100", "website": "https://www.but.fr//magasins/069/But-Cognac-Chateaubernard.html"},
{"addr_full": "102 avenue du Limousin route de Tulle", "brand": "But", "city": "GUERET", "country": "FR", "extras": {"brand": "But", "facia": "But", "category": "Retail", "edit_date": "2025-03-19", "lat_lon_source": "website"}, "lat": "46.155833000000000000", "lon": "1.868611000000000000", "name": "But Gueret", "phone": null, "ref": "070", "postcode": "23000", "website": "https://www.but.fr//magasins/070/But-Gueret.html"},
{"addr_full": "Centre commercial de Beaulieu, 1 rue du 11 Novembre", "brand": "But", "city": "PUILBOREAU", "country": "FR", "extras": {"brand": "But", "facia": "But", "category": "Retail", "edit_date": "2025-03-19", "lat_lon_source": "website"}, "lat": "46.174474044266000000", "lon": "-1.120185791679400000", "name": "But La Rochelle", "phone": null, "ref": "071", "postcode": "17138", "website": "https://www.but.fr//magasins/071/But-La-Rochelle.html"},
{"addr_full": "Family Village - Rue Am\u00e9d\u00e9e Gordini", "brand": "But", "city": "LIMOGES", "country": "FR", "extras": {"brand": "But", "facia": "But", "category": "Retail", "edit_date": "2025-03-19", "lat_lon_source": "website"}, "lat": "45.897154187425000000", "lon": "1.282137792419800000", "name": "But Limoges", "phone": null, "ref": "072", "postcode": "87280", "website": "https://www.but.fr//magasins/072/But-Limoges.html"},
{"addr_full": "Boulevard Mend\u00e8s France", "brand": "But", "city": "NIORT", "country": "FR", "extras": {"brand": "But", "facia": "But", "category": "Retail", "edit_date": "2025-03-19", "lat_lon_source": "website"}, "lat": "46.333214903568000000", "lon": "-0.413534223556550000", "name": "But Niort", "phone": null, "ref": "073", "postcode": "79000", "website": "https://www.but.fr//magasins/073/But-Niort.html"},
{"addr_full": "Z.C. Les portes du futur - 6 rue du commerce -RN10", "brand": "But", "city": "CHASSENEUIL DU POITOU", "country": "FR", "extras": {"brand": "But", "facia": "But", "category": "Retail", "edit_date": "2025-03-19", "lat_lon_source": "website"}, "lat": "46.647913958098000000", "lon": "0.363372538996830000", "name": "But Poitiers", "phone": null, "ref": "074", "postcode": "86360", "website": "https://www.but.fr//magasins/074/But-Poitiers.html"},
{"addr_full": "RD 117 Route de Toulouse", "brand": "But", "city": "ST LIZIER", "country": "FR", "extras": {"brand": "But", "facia": "But", "category": "Retail", "edit_date": "2025-03-19", "lat_lon_source": "website"}, "lat": "43.006235373780000000", "lon": "1.125230669975300000", "name": "But St Girons", "phone": null, "ref": "075", "postcode": "09190", "website": "https://www.but.fr//magasins/075/But-St-Girons.html"},
{"addr_full": "Parc Atlantique - Zone commerciale Leclerc ZA LES COTTEAUX RUE BELLEGARDE", "brand": "But", "city": "SAINTES", "country": "FR", "extras": {"brand": "But", "facia": "But", "category": "Retail", "edit_date": "2025-03-19", "lat_lon_source": "website"}, "lat": "45.748891443998000000", "lon": "-0.674999999999950000", "name": "But Saintes", "phone": null, "ref": "076", "postcode": "17100", "website": "https://www.but.fr//magasins/076/But-Saintes.html"},
{"addr_full": "Centre commercial E.Leclerc Place du foirail", "brand": "But", "city": "TULLE", "country": "FR", "extras": {"brand": "But", "facia": "But", "category": "Retail", "edit_date": "2025-03-19", "lat_lon_source": "website"}, "lat": "45.253130286679000000", "lon": "1.762230669975200000", "name": "But Tulle", "phone": null, "ref": "077", "postcode": "19000", "website": "https://www.but.fr//magasins/077/But-Tulle.html"},
{"addr_full": "Lieu dit Gresailles Route  de Layrac", "brand": "But", "city": "BOE", "country": "FR", "extras": {"brand": "But", "facia": "But", "category": "Retail", "edit_date": "2025-03-19", "lat_lon_source": "website"}, "lat": "44.180780717846000000", "lon": "0.634160932540910000", "name": "But Agen", "phone": null, "ref": "078", "postcode": "47550", "website": "https://www.but.fr//magasins/078/But-Agen.html"},
{"addr_full": "Z.A. Garban Route de Castres", "brand": "But", "city": "PUYGOUZON", "country": "FR", "extras": {"brand": "But", "facia": "But", "category": "Retail", "edit_date": "2025-03-19", "lat_lon_source": "website"}, "lat": "43.891033223665000000", "lon": "2.164943811571700000", "name": "But Albi", "phone": null, "ref": "079", "postcode": "81120", "website": "https://www.but.fr//magasins/079/But-Albi.html"},
{"addr_full": "Avenue Roger Maylie Zone commerciale BAB2", "brand": "But", "city": "BAYONNE", "country": "FR", "extras": {"brand": "But", "facia": "But", "category": "Retail", "edit_date": "2025-03-19", "lat_lon_source": "website"}, "lat": "43.489880539738000000", "lon": "-1.494872550926200000", "name": "But Bayonne", "phone": null, "ref": "080", "postcode": "64100", "website": "https://www.but.fr//magasins/080/But-Bayonne.html"},
{"addr_full": "Route de Bordeaux", "brand": "But", "city": "BERGERAC", "country": "FR", "extras": {"brand": "But", "facia": "But", "category": "Retail", "edit_date": "2025-03-19", "lat_lon_source": "website"}, "lat": "44.837979969131000000", "lon": "0.457462688668780000", "name": "But Bergerac", "phone": null, "ref": "081", "postcode": "24100", "website": "https://www.but.fr//magasins/081/But-Bergerac.html"},
{"addr_full": "Avenue de PeyrouRoute de Libourne", "brand": "But", "city": "ARTIGUES", "country": "FR", "extras": {"brand": "But", "facia": "But", "category": "Retail", "edit_date": "2025-03-19", "lat_lon_source": "website"}, "lat": "44.868668881660000000", "lon": "-0.493627176017870000", "name": "But Bordeaux - Artigues", "phone": null, "ref": "082", "postcode": "33370", "website": "https://www.but.fr//magasins/082/But-Bordeaux-Artigues.html"},
{"addr_full": "RN 113 - 3271 avenue de TOULOUSE Le Bouscault - Cadaujac", "brand": "But", "city": "CADAUJAC", "country": "FR", "extras": {"brand": "But", "facia": "But", "category": "Retail", "edit_date": "2025-03-19", "lat_lon_source": "website"}, "lat": "44.733000000000000000", "lon": "-0.534000000000000000", "name": "But Bordeaux - Cadaujac", "phone": null, "ref": "083", "postcode": "33140", "website": "https://www.but.fr//magasins/083/But-Bordeaux-Cadaujac.html"},
{"addr_full": "26 avenue Jean Perrin", "brand": "But", "city": "MERIGNAC", "country": "FR", "extras": {"brand": "But", "facia": "But", "category": "Retail", "edit_date": "2025-03-19", "lat_lon_source": "website"}, "lat": "44.834973371124000000", "lon": "-0.670688863754320000", "name": "But Bordeaux - Merignac", "phone": null, "ref": "084", "postcode": "33700", "website": "https://www.but.fr//magasins/084/But-Bordeaux-Merignac.html"},
{"addr_full": "Route de Toulouse", "brand": "But", "city": "CAHORS", "country": "FR", "extras": {"brand": "But", "facia": "But", "category": "Retail", "edit_date": "2025-03-19", "lat_lon_source": "website"}, "lat": "44.427614778201000000", "lon": "1.441790904850900000", "name": "But Cahors", "phone": null, "ref": "085", "postcode": "46000", "website": "https://www.but.fr//magasins/085/But-Cahors.html"},
{"addr_full": "Z.A.E. La Ferraudi\u00e8re 2", "brand": "But", "city": "CARCASSONNE", "country": "FR", "extras": {"brand": "But", "facia": "But", "category": "Retail", "edit_date": "2025-03-19", "lat_lon_source": "website"}, "lat": "43.205720454625000000", "lon": "2.308106848313200000", "name": "But Carcassonne", "phone": null, "ref": "086", "postcode": "11000", "website": "https://www.but.fr//magasins/086/But-Carcassonne.html"},
{"addr_full": "2477 avenue de la R\u00e9sistance", "brand": "But", "city": "ST PAUL LES DAX", "country": "FR", "extras": {"brand": "But", "facia": "But", "category": "Retail", "edit_date": "2025-03-19", "lat_lon_source": "website"}, "lat": "43.726845567413000000", "lon": "-1.081732283467100000", "name": "But Dax", "phone": null, "ref": "088", "postcode": "40990", "website": "https://www.but.fr//magasins/088/But-Dax.html"},
{"addr_full": "Avenue de Cahors ( pr\u00e8s usine Ratier)", "brand": "But", "city": "FIGEAC", "country": "FR", "extras": {"brand": "But", "facia": "But", "category": "Retail", "edit_date": "2025-03-19", "lat_lon_source": "website"}, "lat": "44.603170185956000000", "lon": "2.012042915344200000", "name": "But Figeac", "phone": null, "ref": "089", "postcode": "46100", "website": "https://www.but.fr//magasins/089/But-Figeac.html"},
{"addr_full": "RN 20 Peysales", "brand": "But", "city": "FOIX", "country": "FR", "extras": {"brand": "But", "facia": "But", "category": "Retail", "edit_date": "2025-03-19", "lat_lon_source": "website"}, "lat": "42.949784043323000000", "lon": "1.625603033065800000", "name": "But Foix", "phone": null, "ref": "090", "postcode": "09000", "website": "https://www.but.fr//magasins/090/But-Foix.html"},
{"addr_full": "RN 113Z.I. Frimont", "brand": "But", "city": "GIRONDE SUR DROPT", "country": "FR", "extras": {"brand": "But", "facia": "But", "category": "Retail", "edit_date": "2025-03-19", "lat_lon_source": "website"}, "lat": "44.584344672312000000", "lon": "-0.069593924575770000", "name": "But La Reole", "phone": null, "ref": "091", "postcode": "33190", "website": "https://www.but.fr//magasins/091/But-La-Reole.html"},
{"addr_full": "RN 89 LIEU DIT \"LES PELLES\"", "brand": "But", "city": "ARVEYRES", "country": "FR", "extras": {"brand": "But", "facia": "But", "category": "Retail", "edit_date": "2025-03-19", "lat_lon_source": "website"}, "lat": "44.897412000000000000", "lon": "-0.270174000000000000", "name": "But Libourne", "phone": null, "ref": "093", "postcode": "33500", "website": "https://www.but.fr//magasins/093/But-Libourne.html"},
{"addr_full": "1195 Avenue du marechal Juin", "brand": "But", "city": "MONT-DE-MARSAN", "country": "FR", "extras": {"brand": "But", "facia": "But", "category": "Retail", "edit_date": "2025-03-19", "lat_lon_source": "website"}, "lat": "43.905298000000000000", "lon": "-0.476342000000000000", "name": "But Mont-de-Marsan", "phone": null, "ref": "094", "postcode": "40000", "website": "https://www.but.fr//magasins/094/But-Mont-de-Marsan.html"},
{"addr_full": "Centre commercial Pyre-Sud", "brand": "But", "city": "PAMIERS", "country": "FR", "extras": {"brand": "But", "facia": "But", "category": "Retail", "edit_date": "2025-03-19", "lat_lon_source": "website"}, "lat": "43.100910956777000000", "lon": "1.623430579376200000", "name": "But Pamiers", "phone": null, "ref": "095", "postcode": "09100", "website": "https://www.but.fr//magasins/095/But-Pamiers.html"},
{"addr_full": "Centre commercial de la feuilleraie  BP 101", "brand": "But", "city": "TRELISSAC", "country": "FR", "extras": {"brand": "But", "facia": "But", "category": "Retail", "edit_date": "2025-03-19", "lat_lon_source": "website"}, "lat": "45.190207933541000000", "lon": "0.767010728836110000", "name": "But P\u00e9rigueux", "phone": null, "ref": "096", "postcode": "24750", "website": "https://www.but.fr//magasins/096/But-Perigueux.html"},
{"addr_full": "Route de Pau", "brand": "But", "city": "IBOS", "country": "FR", "extras": {"brand": "But", "facia": "But", "category": "Retail", "edit_date": "2025-03-19", "lat_lon_source": "website"}, "lat": "43.240000000000000000", "lon": "0.020000000000000000", "name": "But Tarbes", "phone": null, "ref": "097", "postcode": "65420", "website": "https://www.but.fr//magasins/097/But-Tarbes.html"},
{"addr_full": "71, rue Max Planck", "brand": "But", "city": "LAB\u00e8GE", "country": "FR", "extras": {"brand": "But", "facia": "But", "category": "Retail", "edit_date": "2025-03-19", "lat_lon_source": "website"}, "lat": "43.551932000000000000", "lon": "1.511078000000000000", "name": "But Toulouse - Labege", "phone": null, "ref": "098", "postcode": "31670", "website": "https://www.but.fr//magasins/098/But-Toulouse-Labege.html"},
{"addr_full": "33 route de ParisLieu dit Lacourtensour - RN 20", "brand": "But", "city": "AUCAMVILLE", "country": "FR", "extras": {"brand": "But", "facia": "But", "category": "Retail", "edit_date": "2025-03-19", "lat_lon_source": "website"}, "lat": "43.669433374369000000", "lon": "1.411174531390000000", "name": "But Toulouse nord", "phone": null, "ref": "099", "postcode": "31140", "website": "https://www.but.fr//magasins/099/But-Toulouse-nord.html"},
{"addr_full": "avenue du Quercy", "brand": "But", "city": "VILLEFRANCHE DE ROUERGUE", "country": "FR", "extras": {"brand": "But", "facia": "But", "category": "Retail", "edit_date": "2025-03-19", "lat_lon_source": "website"}, "lat": "44.360281000000000000", "lon": "2.015724000000000000", "name": "But Villefranche de Rouergue", "phone": null, "ref": "101", "postcode": "12200", "website": "https://www.but.fr//magasins/101/But-Villefranche-de-Rouergue.html"},
{"addr_full": "Route de Bordeaux BIAS", "brand": "But", "city": "BIAS", "country": "FR", "extras": {"brand": "But", "facia": "But", "category": "Retail", "edit_date": "2025-03-19", "lat_lon_source": "website"}, "lat": "44.402000000000000000", "lon": "0.650000000000000000", "name": "But Villeneuve sur Lot", "phone": null, "ref": "102", "postcode": "47300", "website": "https://www.but.fr//magasins/102/But-Villeneuve-sur-Lot.html"},
{"addr_full": "Z.A.C. des Perri\u00e8res Rue Bernard Palissy", "brand": "But", "city": "VINEUIL", "country": "FR", "extras": {"brand": "But", "facia": "But", "category": "Retail", "edit_date": "2025-03-19", "lat_lon_source": "website"}, "lat": "47.571000000000000000", "lon": "1.369000000000000000", "name": "But Blois Vineuil", "phone": null, "ref": "103", "postcode": "41350", "website": "https://www.but.fr//magasins/103/But-Blois-Vineuil.html"},
{"addr_full": "Route de la charit\u00e9", "brand": "But", "city": "BOURGES", "country": "FR", "extras": {"brand": "But", "facia": "But", "category": "Retail", "edit_date": "2025-03-19", "lat_lon_source": "website"}, "lat": "47.095482095954000000", "lon": "2.434249973910500000", "name": "But Bourges", "phone": null, "ref": "104", "postcode": "18000", "website": "https://www.but.fr//magasins/104/But-Bourges.html"},
{"addr_full": "1 Rue Raoul Ponchon", "brand": "But", "city": "CHALON SUR SAONE", "country": "FR", "extras": {"brand": "But", "facia": "But", "category": "Retail", "edit_date": "2025-03-19", "lat_lon_source": "website"}, "lat": "46.793081828115000000", "lon": "4.833984375000000000", "name": "But Chalon sur Saone", "phone": null, "ref": "105", "postcode": "71100", "website": "https://www.but.fr//magasins/105/But-Chalon-sur-Saone.html"},
{"addr_full": "Z.U.P. la madeleine - Avenue de Sully", "brand": "But", "city": "CHARTRES", "country": "FR", "extras": {"brand": "But", "facia": "But", "category": "Retail", "edit_date": "2025-03-19", "lat_lon_source": "website"}, "lat": "48.451451674133000000", "lon": "1.521473924636900000", "name": "But Chartres", "phone": null, "ref": "106", "postcode": "28000", "website": "https://www.but.fr//magasins/106/But-Chartres.html"},
{"addr_full": "RN 10, Route de tours", "brand": "But", "city": "CHATEAUDUN", "country": "FR", "extras": {"brand": "But", "facia": "But", "category": "Retail", "edit_date": "2025-03-19", "lat_lon_source": "website"}, "lat": "48.059336417129000000", "lon": "1.328489452362100000", "name": "But Chateaudun", "phone": null, "ref": "107", "postcode": "28200", "website": "https://www.but.fr//magasins/107/But-Chateaudun.html"},
{"addr_full": "111, avenue d'Occitanie Cap Sud", "brand": "But", "city": "ST MAUR", "country": "FR", "extras": {"brand": "But", "facia": "But", "category": "Retail", "edit_date": "2025-03-19", "lat_lon_source": "website"}, "lat": "46.776211052565000000", "lon": "1.649500897503000000", "name": "But Chateauroux", "phone": null, "ref": "108", "postcode": "36250", "website": "https://www.but.fr//magasins/108/But-Chateauroux.html"},
{"addr_full": "ZAC des charmes, Avenue de l'Europe", "brand": "But", "city": "DIGOIN", "country": "FR", "extras": {"brand": "But", "facia": "But", "category": "Retail", "edit_date": "2025-03-19", "lat_lon_source": "website"}, "lat": "46.465304000000000000", "lon": "4.108511000000000000", "name": "But Digoin", "phone": null, "ref": "110", "postcode": "71160", "website": "https://www.but.fr//magasins/110/But-Digoin.html"},
{"addr_full": "26 rue des bas buissons - Zone commerciale CORA", "brand": "But", "city": "DREUX", "country": "FR", "extras": {"brand": "But", "facia": "But", "category": "Retail", "edit_date": "2025-03-19", "lat_lon_source": "website"}, "lat": "48.749717771462000000", "lon": "1.347536805340600000", "name": "But Dreux", "phone": null, "ref": "111", "postcode": "28100", "website": "https://www.but.fr//magasins/111/But-Dreux.html"},
{"addr_full": "RN 6 Z.A.C. des bouchardes BP 9", "brand": "But", "city": "CR\u00eaCHES SUR SAONE CEDEX", "country": "FR", "extras": {"brand": "But", "facia": "But", "category": "Retail", "edit_date": "2025-03-19", "lat_lon_source": "website"}, "lat": "46.253509136327000000", "lon": "4.790456541061400000", "name": "But Macon", "phone": null, "ref": "112", "postcode": "71680", "website": "https://www.but.fr//magasins/112/But-Macon.html"},
{"addr_full": "Avenue d'Antibes KM 110", "brand": "But", "city": "AMILLY", "country": "FR", "extras": {"brand": "But", "facia": "But", "category": "Retail", "edit_date": "2025-03-19", "lat_lon_source": "website"}, "lat": "47.978309038196000000", "lon": "2.732691615160200000", "name": "But Montargis", "phone": null, "ref": "113", "postcode": "45200", "website": "https://www.but.fr//magasins/113/But-Montargis.html"},
{"addr_full": "ZI du bois du verneRoute de Soisson", "brand": "But", "city": "MONTCEAU LES MINES", "country": "FR", "extras": {"brand": "But", "facia": "But", "category": "Retail", "edit_date": "2025-03-19", "lat_lon_source": "website"}, "lat": "46.689353046409000000", "lon": "4.359675177946200000", "name": "But Montceau les mines", "phone": null, "ref": "114", "postcode": "71300", "website": "https://www.but.fr//magasins/114/But-Montceau-les-mines.html"},
{"addr_full": "70 boulevard Camille Dagonneau", "brand": "But", "city": "VARENNES - VAUZELLES", "country": "FR", "extras": {"brand": "But", "facia": "But", "category": "Retail", "edit_date": "2025-03-19", "lat_lon_source": "website"}, "lat": "47.018604161810000000", "lon": "3.148347279229100000", "name": "But Nevers", "phone": null, "ref": "115", "postcode": "58640", "website": "https://www.but.fr//magasins/115/But-Nevers.html"},
{"addr_full": "31 avenue de Paris - Margon", "brand": "But", "city": "NOGENT LE ROTROU", "country": "FR", "extras": {"brand": "But", "facia": "But", "category": "Retail", "edit_date": "2025-03-19", "lat_lon_source": "website"}, "lat": "48.328777869484000000", "lon": "0.828872157147200000", "name": "But Nogent le Rotrou", "phone": null, "ref": "116", "postcode": "28400", "website": "https://www.but.fr//magasins/116/But-Nogent-le-Rotrou.html"},
{"addr_full": "280 Rue d'Artois", "brand": "But", "city": "OLIVET", "country": "FR", "extras": {"brand": "But", "facia": "But", "category": "Retail", "edit_date": "2025-03-19", "lat_lon_source": "website"}, "lat": "47.844963997310000000", "lon": "1.915388456344500000", "name": "But Orl\u00e9ans", "phone": null, "ref": "117", "postcode": "45160", "website": "https://www.but.fr//magasins/117/But-Orleans.html"},
{"addr_full": "Avenue du 8 mai route de Malesherbes", "brand": "But", "city": "PITHIVIERS", "country": "FR", "extras": {"brand": "But", "facia": "But", "category": "Retail", "edit_date": "2025-03-19", "lat_lon_source": "website"}, "lat": "48.179812684864000000", "lon": "2.257744209014800000", "name": "But Pithiviers", "phone": null, "ref": "118", "postcode": "45300", "website": "https://www.but.fr//magasins/118/But-Pithiviers.html"},
{"addr_full": "35 avenue de Paris", "brand": "But", "city": "ROMORANTIN LANTHENAY", "country": "FR", "extras": {"brand": "But", "facia": "But", "category": "Retail", "edit_date": "2025-03-19", "lat_lon_source": "website"}, "lat": "47.372687569154000000", "lon": "1.737871253967300000", "name": "But Romorantin", "phone": null, "ref": "119", "postcode": "41200", "website": "https://www.but.fr//magasins/119/But-Romorantin.html"},
{"addr_full": "Route de Paris", "brand": "But", "city": "ST CL\u00e9MENT", "country": "FR", "extras": {"brand": "But", "facia": "But", "category": "Retail", "edit_date": "2025-03-19", "lat_lon_source": "website"}, "lat": "48.215696817627000000", "lon": "3.276834557502800000", "name": "But Sens", "phone": null, "ref": "120", "postcode": "89100", "website": "https://www.but.fr//magasins/120/But-Sens.html"},
{"addr_full": "RN 10 89 avenue du grand sud", "brand": "But", "city": "CHAMBRAY LES TOURS", "country": "FR", "extras": {"brand": "But", "facia": "But", "category": "Retail", "edit_date": "2025-03-19", "lat_lon_source": "website"}, "lat": "47.340000000000000000", "lon": "0.704000000000000000", "name": "But Tours", "phone": null, "ref": "121", "postcode": "37170", "website": "https://www.but.fr//magasins/121/But-Tours.html"},
{"addr_full": "Zone commerciale RN 10", "brand": "But", "city": "VILLERABLE", "country": "FR", "extras": {"brand": "But", "facia": "But", "category": "Retail", "edit_date": "2025-03-19", "lat_lon_source": "website"}, "lat": "47.761839273909000000", "lon": "1.050700337634200000", "name": "But Vendome", "phone": null, "ref": "122", "postcode": "41100", "website": "https://www.but.fr//magasins/122/But-Vendome.html"},
{"addr_full": "Route de Neuvy", "brand": "But", "city": "VIERZON", "country": "FR", "extras": {"brand": "But", "facia": "But", "category": "Retail", "edit_date": "2025-03-19", "lat_lon_source": "website"}, "lat": "47.239532285603000000", "lon": "2.091089794351200000", "name": "But Vierzon", "phone": null, "ref": "123", "postcode": "18100", "website": "https://www.but.fr//magasins/123/But-Vierzon.html"},
{"addr_full": "10 route de Grignon", "brand": "But", "city": "ALBERTVILLE", "country": "FR", "extras": {"brand": "But", "facia": "But", "category": "Retail", "edit_date": "2025-03-19", "lat_lon_source": "website"}, "lat": "45.661449902672000000", "lon": "6.387482797622600000", "name": "But Albertville", "phone": null, "ref": "124", "postcode": "73200", "website": "https://www.but.fr//magasins/124/But-Albertville.html"},
{"addr_full": "ZI avenue de la lib\u00e9ration", "brand": "But", "city": "AMBERIEU EN BUGEY", "country": "FR", "extras": {"brand": "But", "facia": "But", "category": "Retail", "edit_date": "2025-03-19", "lat_lon_source": "website"}, "lat": "45.961000000000000000", "lon": "5.340000000000000000", "name": "But Amberieu", "phone": null, "ref": "125", "postcode": "01500", "website": "https://www.but.fr//magasins/125/But-Amberieu.html"},
{"addr_full": "Centre commercial Le grand epagny", "brand": "But", "city": "SILLINGY", "country": "FR", "extras": {"brand": "But", "facia": "But", "category": "Retail", "edit_date": "2025-03-19", "lat_lon_source": "website"}, "lat": "45.946000000000000000", "lon": "6.035000000000000000", "name": "But Annecy-Sillingy", "phone": null, "ref": "126", "postcode": "74330", "website": "https://www.but.fr//magasins/126/But-Annecy-Sillingy.html"},
{"addr_full": "5, rue de Montr\u00e9al", "brand": "But", "city": "VILLE LA GRAND", "country": "FR", "extras": {"brand": "But", "facia": "But", "category": "Retail", "edit_date": "2025-03-19", "lat_lon_source": "website"}, "lat": "46.203473200000000000", "lon": "6.275548900000000000", "name": "But Annemasse", "phone": null, "ref": "127", "postcode": "74100", "website": "https://www.but.fr//magasins/127/But-Annemasse.html"},
{"addr_full": "ZAC de Jonchain Nord", "brand": "But", "city": "SALAISE SUR SANNE", "country": "FR", "extras": {"brand": "But", "facia": "But", "category": "Retail", "edit_date": "2025-03-19", "lat_lon_source": "website"}, "lat": "45.344279006983000000", "lon": "4.805495744705200000", "name": "But Salaise", "phone": null, "ref": "128", "postcode": "38150", "website": "https://www.but.fr//magasins/128/But-Salaise.html"},
{"addr_full": "1200 route d'Al\u00e8s", "brand": "But", "city": "LACHAPELLE SOUS AUBENAS", "country": "FR", "extras": {"brand": "But", "facia": "But", "category": "Retail", "edit_date": "2025-03-19", "lat_lon_source": "website"}, "lat": "44.617000000000000000", "lon": "4.383000000000000000", "name": "But Aubenas", "phone": null, "ref": "129", "postcode": "07200", "website": "https://www.but.fr//magasins/129/But-Aubenas.html"},
{"addr_full": "126 avenue Charles de Gaulle ", "brand": "But", "city": "AURILLAC", "country": "FR", "extras": {"brand": "But", "facia": "But", "category": "Retail", "edit_date": "2025-03-19", "lat_lon_source": "website"}, "lat": "44.909225398021000000", "lon": "2.423241063102600000", "name": "But Aurillac", "phone": null, "ref": "130", "postcode": "15000", "website": "https://www.but.fr//magasins/130/But-Aurillac.html"},
{"addr_full": "Rue des pr\u00e9s de Brou", "brand": "But", "city": "BOURG EN BRESSE", "country": "FR", "extras": {"brand": "But", "facia": "But", "category": "Retail", "edit_date": "2025-03-19", "lat_lon_source": "website"}, "lat": "46.200000000000000000", "lon": "5.217000000000000000", "name": "But Bourg en Bresse", "phone": null, "ref": "131", "postcode": "01000", "website": "https://www.but.fr//magasins/131/But-Bourg-en-Bresse.html"},
{"addr_full": "170 rue Nouvelle", "brand": "But", "city": "DOMARIN", "country": "FR", "extras": {"brand": "But", "facia": "But", "category": "Retail", "edit_date": "2025-03-19", "lat_lon_source": "website"}, "lat": "45.589109000000000000", "lon": "5.245910000000000000", "name": "But Bourgoin", "phone": null, "ref": "132", "postcode": "38300", "website": "https://www.but.fr//magasins/132/But-Bourgoin.html"},
{"addr_full": "RN 102 route de CLERMONT", "brand": "But", "city": "BRIOUDE", "country": "FR", "extras": {"brand": "But", "facia": "But", "category": "Retail", "edit_date": "2025-03-19", "lat_lon_source": "website"}, "lat": "45.315120713627000000", "lon": "3.373032186508200000", "name": "But Brioude", "phone": null, "ref": "133", "postcode": "43100", "website": "https://www.but.fr//magasins/133/But-Brioude.html"},
{"addr_full": "1135 rue JUMEL", "brand": "But", "city": "CLUSES", "country": "FR", "extras": {"brand": "But", "facia": "But", "category": "Retail", "edit_date": "2025-03-19", "lat_lon_source": "website"}, "lat": "46.050265851871000000", "lon": "6.591379380226200000", "name": "But Cluses", "phone": null, "ref": "135", "postcode": "74300", "website": "https://www.but.fr//magasins/135/But-Cluses.html"},
{"addr_full": "75, rue des javaux", "brand": "But", "city": "EYBENS", "country": "FR", "extras": {"brand": "But", "facia": "But", "category": "Retail", "edit_date": "2025-03-19", "lat_lon_source": "website"}, "lat": "45.154332051249000000", "lon": "5.745678142327800000", "name": "But Grenoble Eybens", "phone": null, "ref": "138", "postcode": "38320", "website": "https://www.but.fr//magasins/138/But-Grenoble-Eybens.html"},
{"addr_full": "Zone commerciale \"Le Chirel\"", "brand": "But", "city": "LE PUY-EN-VELAY", "country": "FR", "extras": {"brand": "But", "facia": "But", "category": "Retail", "edit_date": "2025-03-19", "lat_lon_source": "website"}, "lat": "45.022677676755000000", "lon": "3.882503955567700000", "name": "But Le Puy", "phone": null, "ref": "139", "postcode": "43000", "website": "https://www.but.fr//magasins/139/But-Le-Puy.html"},
{"addr_full": "192 route de Grenoble", "brand": "But", "city": "ST PRIEST", "country": "FR", "extras": {"brand": "But", "facia": "But", "category": "Retail", "edit_date": "2025-03-19", "lat_lon_source": "website"}, "lat": "45.714592566708000000", "lon": "4.966356754303000000", "name": "But Lyon", "phone": null, "ref": "140", "postcode": "69800", "website": "https://www.but.fr//magasins/140/But-Lyon.html"},
{"addr_full": "Z.I.sudBP 107 MONTELIMAR Cedex", "brand": "But", "city": "MONTELIMAR", "country": "FR", "extras": {"brand": "But", "facia": "But", "category": "Retail", "edit_date": "2025-03-19", "lat_lon_source": "website"}, "lat": "44.532330038910000000", "lon": "4.740752593948400000", "name": "But Montelimar", "phone": null, "ref": "141", "postcode": "26200", "website": "https://www.but.fr//magasins/141/But-Montelimar.html"},
{"addr_full": "Rue Albert Einstein", "brand": "But", "city": "MONTLUCON", "country": "FR", "extras": {"brand": "But", "facia": "But", "category": "Retail", "edit_date": "2025-03-19", "lat_lon_source": "website"}, "lat": "46.333000000000000000", "lon": "2.600000000000000000", "name": "But Montlucon", "phone": null, "ref": "142", "postcode": "03100", "website": "https://www.but.fr//magasins/142/But-Montlucon.html"},
{"addr_full": "RD 707 - Fromenteau", "brand": "But", "city": "TOULON SUR ALLIER", "country": "FR", "extras": {"brand": "But", "facia": "But", "category": "Retail", "edit_date": "2025-03-19", "lat_lon_source": "website"}, "lat": "46.536848911636000000", "lon": "3.346275921914400000", "name": "But Moulins", "phone": null, "ref": "143", "postcode": "03400", "website": "https://www.but.fr//magasins/143/But-Moulins.html"},
{"addr_full": "210 avenue de la lib\u00e9ration", "brand": "But", "city": "LE COTEAU", "country": "FR", "extras": {"brand": "But", "facia": "But", "category": "Retail", "edit_date": "2025-03-19", "lat_lon_source": "website"}, "lat": "46.013411400000000000", "lon": "4.093599100000000000", "name": "But Roanne", "phone": null, "ref": "144", "postcode": "42120", "website": "https://www.but.fr//magasins/144/But-Roanne.html"},
{"addr_full": "40 B, Route des Chasses", "brand": "But", "city": "ST PAUL LES ROMANS", "country": "FR", "extras": {"brand": "But", "facia": "But", "category": "Retail", "edit_date": "2025-03-19", "lat_lon_source": "website"}, "lat": "45.057966923133000000", "lon": "5.098672260964800000", "name": "But Romans", "phone": null, "ref": "145", "postcode": "26750", "website": "https://www.but.fr//magasins/145/But-Romans.html"},
{"addr_full": "RN 82", "brand": "But", "city": "LA FOUILLOUSE", "country": "FR", "extras": {"brand": "But", "facia": "But", "category": "Retail", "edit_date": "2025-03-19", "lat_lon_source": "website"}, "lat": "45.482648824342000000", "lon": "4.348097531318700000", "name": "But St Etienne", "phone": null, "ref": "146", "postcode": "42480", "website": "https://www.but.fr//magasins/146/But-St-Etienne.html"},
{"addr_full": "Centre commercial de la font long", "brand": "But", "city": "ST FLOUR", "country": "FR", "extras": {"brand": "But", "facia": "But", "category": "Retail", "edit_date": "2025-03-19", "lat_lon_source": "website"}, "lat": "45.038000000000000000", "lon": "3.090000000000000000", "name": "But St Flour", "phone": null, "ref": "147", "postcode": "15100", "website": "https://www.but.fr//magasins/147/But-St-Flour.html"},
{"addr_full": "Boulevard du Pr\u00e9 Biollat", "brand": "But", "city": "ANTHY SUR L\u00e9MAN", "country": "FR", "extras": {"brand": "But", "facia": "But", "category": "Retail", "edit_date": "2025-03-19", "lat_lon_source": "website"}, "lat": "46.349357000000000000", "lon": "6.437789000000000000", "name": "But Thonon-Les-Bains", "phone": null, "ref": "149", "postcode": "74200", "website": "https://www.but.fr//magasins/149/But-Thonon-Les-Bains.html"},
{"addr_full": "560 Avenue Salvador Allende", "brand": "But", "city": "PORTE LES VALENCE", "country": "FR", "extras": {"brand": "But", "facia": "But", "category": "Retail", "edit_date": "2025-03-19", "lat_lon_source": "website"}, "lat": "44.888851800521000000", "lon": "4.879525069836400000", "name": "But Valence", "phone": null, "ref": "150", "postcode": "26800", "website": "https://www.but.fr//magasins/150/But-Valence.html"},
{"addr_full": "Route de Bourg Z.I. blanchisserie", "brand": "But", "city": "VOIRON", "country": "FR", "extras": {"brand": "But", "facia": "But", "category": "Retail", "edit_date": "2025-03-19", "lat_lon_source": "website"}, "lat": "45.381143180358000000", "lon": "5.579820291996000000", "name": "But Voiron", "phone": null, "ref": "152", "postcode": "38500", "website": "https://www.but.fr//magasins/152/But-Voiron.html"},
{"addr_full": "Centre commercial \"Croix Dampierre\" Avenue Mercuria", "brand": "But", "city": "ST MEMMIE", "country": "FR", "extras": {"brand": "But", "facia": "But", "category": "Retail", "edit_date": "2025-03-19", "lat_lon_source": "website"}, "lat": "48.945321054679000000", "lon": "4.385042128260000000", "name": "But Chalons en Champagne", "phone": null, "ref": "154", "postcode": "51470", "website": "https://www.but.fr//magasins/154/But-Chalons-en-Champagne.html"},
{"addr_full": "Centre commercial des Ayvelles", "brand": "But", "city": "VILLERS SEMEUSE", "country": "FR", "extras": {"brand": "But", "facia": "But", "category": "Retail", "edit_date": "2025-03-19", "lat_lon_source": "website"}, "lat": "49.732157440299000000", "lon": "4.753926753997800000", "name": "But Charleville Mezi\u00e8res", "phone": null, "ref": "155", "postcode": "08000", "website": "https://www.but.fr//magasins/155/But-Charleville-Mezieres.html"},
{"addr_full": "Faubourg du moulin neuf", "brand": "But", "city": "CHAUMONT", "country": "FR", "extras": {"brand": "But", "facia": "But", "category": "Retail", "edit_date": "2025-03-19", "lat_lon_source": "website"}, "lat": "48.122555856713000000", "lon": "5.149299126580400000", "name": "But Chaumont", "phone": null, "ref": "156", "postcode": "52000", "website": "https://www.but.fr//magasins/156/But-Chaumont.html"},
{"addr_full": "Zone commerciale", "brand": "But", "city": "CHOISEY", "country": "FR", "extras": {"brand": "But", "facia": "But", "category": "Retail", "edit_date": "2025-03-19", "lat_lon_source": "website"}, "lat": "47.064193704803000000", "lon": "5.454168312072700000", "name": "But Dole", "phone": null, "ref": "158", "postcode": "39100", "website": "https://www.but.fr//magasins/158/But-Dole.html"},
{"addr_full": "Route de Cumi\u00e8res", "brand": "But", "city": "DIZY", "country": "FR", "extras": {"brand": "But", "facia": "But", "category": "Retail", "edit_date": "2025-03-19", "lat_lon_source": "website"}, "lat": "49.065621000000000000", "lon": "3.961694000000000000", "name": "But Epernay", "phone": null, "ref": "159", "postcode": "51530", "website": "https://www.but.fr//magasins/159/But-Epernay.html"},
{"addr_full": "26 rue de la  Bazaine, Parc \u00e9conomique Le saut le cerf", "brand": "But", "city": "EPINAL", "country": "FR", "extras": {"brand": "But", "facia": "But", "category": "Retail", "edit_date": "2025-03-19", "lat_lon_source": "website"}, "lat": "48.198283010848000000", "lon": "6.469147988022800000", "name": "But Epinal", "phone": null, "ref": "160", "postcode": "88000", "website": "https://www.but.fr//magasins/160/But-Epinal.html"},
{"addr_full": "Z.A.C. Gray sud", "brand": "But", "city": "GRAY", "country": "FR", "extras": {"brand": "But", "facia": "But", "category": "Retail", "edit_date": "2025-03-19", "lat_lon_source": "website"}, "lat": "47.436611749611000000", "lon": "5.599965131282800000", "name": "But Gray", "phone": null, "ref": "162", "postcode": "70100", "website": "https://www.but.fr//magasins/162/But-Gray.html"},
{"addr_full": "Z.I. de Sts Geosmes", "brand": "But", "city": "LANGRES", "country": "FR", "extras": {"brand": "But", "facia": "But", "category": "Retail", "edit_date": "2025-03-19", "lat_lon_source": "website"}, "lat": "47.831341219483000000", "lon": "5.336455356900000000", "name": "But Langres", "phone": null, "ref": "164", "postcode": "52200", "website": "https://www.but.fr//magasins/164/But-Langres.html"},
{"addr_full": "92 rue de Longwy", "brand": "But", "city": "LEXY", "country": "FR", "extras": {"brand": "But", "facia": "But", "category": "Retail", "edit_date": "2025-03-19", "lat_lon_source": "website"}, "lat": "49.513714407051000000", "lon": "5.735743214352900000", "name": "But Longwy", "phone": null, "ref": "165", "postcode": "54720", "website": "https://www.but.fr//magasins/165/But-Longwy.html"},
{"addr_full": "Espace commercial Chantrans Route de bourg en Bresse - RN 83", "brand": "But", "city": "MONTMOROT", "country": "FR", "extras": {"brand": "But", "facia": "But", "category": "Retail", "edit_date": "2025-03-19", "lat_lon_source": "website"}, "lat": "46.671635587316000000", "lon": "5.527246763229400000", "name": "But Lons le Saunier", "phone": null, "ref": "166", "postcode": "39570", "website": "https://www.but.fr//magasins/166/But-Lons-le-Saunier.html"},
{"addr_full": "Actisud zone St JEAN", "brand": "But", "city": "JOUY AUX ARCHES", "country": "FR", "extras": {"brand": "But", "facia": "But", "category": "Retail", "edit_date": "2025-03-19", "lat_lon_source": "website"}, "lat": "49.077579795200000000", "lon": "6.099806880950900000", "name": "But Metz", "phone": null, "ref": "168", "postcode": "57130", "website": "https://www.but.fr//magasins/168/But-Metz.html"},
{"addr_full": "1 Route de Delle - Carrefour des oeufs frais", "brand": "But", "city": "SEVENANS", "country": "FR", "extras": {"brand": "But", "facia": "But", "category": "Retail", "edit_date": "2025-03-19", "lat_lon_source": "website"}, "lat": "47.483000000000000000", "lon": "6.833000000000000000", "name": "But Belfort", "phone": null, "ref": "169", "postcode": "90400", "website": "https://www.but.fr//magasins/169/But-Belfort.html"},
{"addr_full": "95 rue de Guebwiller", "brand": "But", "city": "KINGERSHEIM", "country": "FR", "extras": {"brand": "But", "facia": "But", "category": "Retail", "edit_date": "2025-03-19", "lat_lon_source": "website"}, "lat": "47.792681182840000000", "lon": "7.314231875491100000", "name": "But Mulhouse", "phone": null, "ref": "170", "postcode": "68260", "website": "https://www.but.fr//magasins/170/But-Mulhouse.html"},
{"addr_full": "Rue Pierre Dechanet Zone commerciale LES GRANDS PLANCHANTS", "brand": "But", "city": "PONTARLIER", "country": "FR", "extras": {"brand": "But", "facia": "But", "category": "Retail", "edit_date": "2025-03-19", "lat_lon_source": "website"}, "lat": "46.903887623513000000", "lon": "6.332858887696800000", "name": "But Pontarlier", "phone": null, "ref": "172", "postcode": "25300", "website": "https://www.but.fr//magasins/172/But-Pontarlier.html"},
{"addr_full": "Avenue des Goisses - ZA des Blancs Monts", "brand": "But", "city": "CORMONTREUIL", "country": "FR", "extras": {"brand": "But", "facia": "But", "category": "Retail", "edit_date": "2025-03-19", "lat_lon_source": "website"}, "lat": "49.214257000000000000", "lon": "4.061198000000000000", "name": "But Reims Cormontreuil", "phone": null, "ref": "173", "postcode": "51350", "website": "https://www.but.fr//magasins/173/But-Reims-Cormontreuil.html"},
{"addr_full": "520, rue du haut des rangs", "brand": "But", "city": "DOMMARTIN LES REMIREMONT", "country": "FR", "extras": {"brand": "But", "facia": "But", "category": "Retail", "edit_date": "2025-03-19", "lat_lon_source": "website"}, "lat": "48.011636000000000000", "lon": "6.604048000000000000", "name": "But Remiremont", "phone": null, "ref": "174", "postcode": "88200", "website": "https://www.but.fr//magasins/174/But-Remiremont.html"},
{"addr_full": "6 bvd Antoine de St Exupery", "brand": "But", "city": "MAIZI\u00e8RES LA GRANDE PAROISSE", "country": "FR", "extras": {"brand": "But", "facia": "But", "category": "Retail", "edit_date": "2025-03-19", "lat_lon_source": "website"}, "lat": "48.510583771884000000", "lon": "3.716449807304700000", "name": "But Romilly", "phone": null, "ref": "175", "postcode": "10510", "website": "https://www.but.fr//magasins/175/But-Romilly.html"},
{"addr_full": "ZAC du Ch\u00eane Saint Amand", "brand": "But", "city": "ST DIZIER", "country": "FR", "extras": {"brand": "But", "facia": "But", "category": "Retail", "edit_date": "2025-03-19", "lat_lon_source": "website"}, "lat": "48.623621017039000000", "lon": "4.967959665844500000", "name": "But St Dizier", "phone": null, "ref": "177", "postcode": "52100", "website": "https://www.but.fr//magasins/177/But-St-Dizier.html"},
{"addr_full": "Rte de Sarrebourg", "brand": "But", "city": "IMLING", "country": "FR", "extras": {"brand": "But", "facia": "But", "category": "Retail", "edit_date": "2025-03-19", "lat_lon_source": "website"}, "lat": "48.724859000000000000", "lon": "7.020043000000000000", "name": "But Sarrebourg", "phone": null, "ref": "178", "postcode": "57400", "website": "https://www.but.fr//magasins/178/But-Sarrebourg.html"},
{"addr_full": "Rue Lamy", "brand": "But", "city": "SARREGUEMINES", "country": "FR", "extras": {"brand": "But", "facia": "But", "category": "Retail", "edit_date": "2025-03-19", "lat_lon_source": "website"}, "lat": "49.115446132606000000", "lon": "7.093123938900800000", "name": "But Sarreguemines", "phone": null, "ref": "179", "postcode": "57200", "website": "https://www.but.fr//magasins/179/But-Sarreguemines.html"},
{"addr_full": "6 rue Westrich Z.I. nord", "brand": "But", "city": "SELESTAT", "country": "FR", "extras": {"brand": "But", "facia": "But", "category": "Retail", "edit_date": "2025-03-19", "lat_lon_source": "website"}, "lat": "48.280259909792000000", "lon": "7.464671259663400000", "name": "But Selestat", "phone": null, "ref": "180", "postcode": "67600", "website": "https://www.but.fr//magasins/180/But-Selestat.html"},
{"addr_full": "36 route de strasbourg", "brand": "But", "city": "VENDENHEIM", "country": "FR", "extras": {"brand": "But", "facia": "But", "category": "Retail", "edit_date": "2025-03-19", "lat_lon_source": "website"}, "lat": "48.658889776106000000", "lon": "7.720972595770300000", "name": "But Strasbourg nord", "phone": null, "ref": "181", "postcode": "67550", "website": "https://www.but.fr//magasins/181/But-Strasbourg-nord.html"},
{"addr_full": "2 rue de Brack", "brand": "But", "city": "ST AVOLD", "country": "FR", "extras": {"brand": "But", "facia": "But", "category": "Retail", "edit_date": "2025-03-19", "lat_lon_source": "website"}, "lat": "49.115181520484000000", "lon": "6.709013148496500000", "name": "But St Avold", "phone": null, "ref": "183", "postcode": "57500", "website": "https://www.but.fr//magasins/183/But-St-Avold.html"},
{"addr_full": "Rue du Linkling ZI du Linkling", "brand": "But", "city": "TERVILLE", "country": "FR", "extras": {"brand": "But", "facia": "But", "category": "Retail", "edit_date": "2025-03-19", "lat_lon_source": "website"}, "lat": "49.352244046454000000", "lon": "6.137000419012000000", "name": "But Thionville", "phone": null, "ref": "184", "postcode": "57180", "website": "https://www.but.fr//magasins/184/But-Thionville.html"},
{"addr_full": "Centre commercial L'aire des moissons RN 19", "brand": "But", "city": "ST PARRES AUX TERTRES", "country": "FR", "extras": {"brand": "But", "facia": "But", "category": "Retail", "edit_date": "2025-03-19", "lat_lon_source": "website"}, "lat": "48.296052692787000000", "lon": "4.129401678897700000", "name": "But Troyes", "phone": null, "ref": "185", "postcode": "10410", "website": "https://www.but.fr//magasins/185/But-Troyes.html"},
{"addr_full": "Z.I. avenue d'Etain", "brand": "But", "city": "VERDUN", "country": "FR", "extras": {"brand": "But", "facia": "But", "category": "Retail", "edit_date": "2025-03-19", "lat_lon_source": "website"}, "lat": "49.163912637405000000", "lon": "5.414246849737500000", "name": "But Verdun", "phone": null, "ref": "186", "postcode": "55100", "website": "https://www.but.fr//magasins/186/But-Verdun.html"},
{"addr_full": "Z.I. de la fosse Barbi\u00e8re", "brand": "But", "city": "AULNAY SOUS BOIS", "country": "FR", "extras": {"brand": "But", "facia": "But", "category": "Retail", "edit_date": "2025-03-19", "lat_lon_source": "website"}, "lat": "48.954605472443000000", "lon": "2.480107288360600000", "name": "But Aulnay sous bois", "phone": null, "ref": "188", "postcode": "93600", "website": "https://www.but.fr//magasins/188/But-Aulnay-sous-bois.html"},
{"addr_full": "4-7 all\u00e9e des Platanes", "brand": "But", "city": "FRESNES", "country": "FR", "extras": {"brand": "But", "facia": "But", "category": "Retail", "edit_date": "2025-03-19", "lat_lon_source": "website"}, "lat": "48.757816384412000000", "lon": "2.330587909787000000", "name": "But Fresnes", "phone": null, "ref": "192", "postcode": "94260", "website": "https://www.but.fr//magasins/192/But-Fresnes.html"},
{"addr_full": "Route de noiseau RN 4 La Croix St Nicolas entre Pontault-Combault et Ormesson", "brand": "But", "city": "LA QUEUE EN BRIE", "country": "FR", "extras": {"brand": "But", "facia": "But", "category": "Retail", "edit_date": "2025-03-19", "lat_lon_source": "website"}, "lat": "48.781448575429000000", "lon": "2.569679062843300000", "name": "But La Queue en Brie", "phone": null, "ref": "194", "postcode": "94510", "website": "https://www.but.fr//magasins/194/But-La-Queue-en-Brie.html"},
{"addr_full": "171 avenue du B\u00e9arn", "brand": "But", "city": "BUCHELAY", "country": "FR", "extras": {"brand": "But", "facia": "But", "category": "Retail", "edit_date": "2025-03-19", "lat_lon_source": "website"}, "lat": "48.989507000000000000", "lon": "1.663849000000000000", "name": "But Mantes la jolie - Buchelay", "phone": null, "ref": "195", "postcode": "78200", "website": "https://www.but.fr//magasins/195/But-Mantes-la-jolie-Buchelay.html"},
{"addr_full": "Route de Sens", "brand": "But", "city": "NEMOURS", "country": "FR", "extras": {"brand": "But", "facia": "But", "category": "Retail", "edit_date": "2025-03-19", "lat_lon_source": "website"}, "lat": "48.259826928291000000", "lon": "2.717306360821600000", "name": "But Nemours", "phone": null, "ref": "199", "postcode": "77140", "website": "https://www.but.fr//magasins/199/But-Nemours.html"},
{"addr_full": "Parc d'activit\u00e9 de l'Oseraie", "brand": "But", "city": "OSNY", "country": "FR", "extras": {"brand": "But", "facia": "But", "category": "Retail", "edit_date": "2025-03-19", "lat_lon_source": "website"}, "lat": "49.075792000000000000", "lon": "2.080039000000000000", "name": "But Pontoise", "phone": null, "ref": "201", "postcode": "95520", "website": "https://www.but.fr//magasins/201/But-Pontoise.html"},
{"addr_full": "7 rue Marcel Vatelot", "brand": "But", "city": "PROVINS", "country": "FR", "extras": {"brand": "But", "facia": "But", "category": "Retail", "edit_date": "2025-03-19", "lat_lon_source": "website"}, "lat": "48.551879629937000000", "lon": "3.299831348548900000", "name": "But Provins", "phone": null, "ref": "202", "postcode": "77160", "website": "https://www.but.fr//magasins/202/But-Provins.html"},
{"addr_full": "38-40 avenue de Hurepoix Z.A.C. de la Croix blanche", "brand": "But", "city": "STE GENEVIEVE DES BOIS", "country": "FR", "extras": {"brand": "But", "facia": "But", "category": "Retail", "edit_date": "2025-03-19", "lat_lon_source": "website"}, "lat": "48.622873899399000000", "lon": "2.350835064235000000", "name": "But Ste Genevieve des bois", "phone": null, "ref": "203", "postcode": "91700", "website": "https://www.but.fr//magasins/203/But-Ste-Genevieve-des-bois.html"},
{"addr_full": "39 boulevard du Soleil", "brand": "But", "city": "AGDE", "country": "FR", "extras": {"brand": "But", "facia": "But", "category": "Retail", "edit_date": "2025-03-19", "lat_lon_source": "website"}, "lat": "43.304230324970000000", "lon": "3.485597668647800000", "name": "But Agde", "phone": null, "ref": "205", "postcode": "34300", "website": "https://www.but.fr//magasins/205/But-Agde.html"},
{"addr_full": "Z.I. Baleone RN 193 Sortie Ajaccio Mezzavia", "brand": "But", "city": "AJACCIO", "country": "FR", "extras": {"brand": "But", "facia": "But", "category": "Retail", "edit_date": "2025-03-19", "lat_lon_source": "website"}, "lat": "41.954772606219000000", "lon": "8.792348687172000000", "name": "But Ajaccio", "phone": null, "ref": "206", "postcode": "20000", "website": "https://www.but.fr//magasins/206/But-Ajaccio.html"},
{"addr_full": "Route de N\u00eemes B.P.20", "brand": "But", "city": "ST HILAIRE DE BRETHMAS", "country": "FR", "extras": {"brand": "But", "facia": "But", "category": "Retail", "edit_date": "2025-03-19", "lat_lon_source": "website"}, "lat": "44.107000000000000000", "lon": "4.101000000000000000", "name": "But Al\u00e8s", "phone": null, "ref": "207", "postcode": "30560", "website": "https://www.but.fr//magasins/207/But-Ales.html"},
{"addr_full": "1966 route nationale 7", "brand": "But", "city": "VILLENEUVE LOUBET", "country": "FR", "extras": {"brand": "But", "facia": "But", "category": "Retail", "edit_date": "2025-03-19", "lat_lon_source": "website"}, "lat": "43.631838000000000000", "lon": "7.134423000000000000", "name": "But Villeneuve Loubet", "phone": null, "ref": "208", "postcode": "06270", "website": "https://www.but.fr//magasins/208/But-Villeneuve-Loubet.html"},
{"addr_full": "L'aurelienne - Quartier Fourchon", "brand": "But", "city": "ARLES", "country": "FR", "extras": {"brand": "But", "facia": "But", "category": "Retail", "edit_date": "2025-03-19", "lat_lon_source": "website"}, "lat": "43.663193081909000000", "lon": "4.636468656920300000", "name": "But Arles", "phone": null, "ref": "209", "postcode": "13200", "website": "https://www.but.fr//magasins/209/But-Arles.html"},
{"addr_full": "Le pontet (centre commercial St Anne) Avignon nord", "brand": "But", "city": "SORGUES", "country": "FR", "extras": {"brand": "But", "facia": "But", "category": "Retail", "edit_date": "2025-03-19", "lat_lon_source": "website"}, "lat": "43.986480945760000000", "lon": "4.883361474990800000", "name": "But Avignon", "phone": null, "ref": "210", "postcode": "84700", "website": "https://www.but.fr//magasins/210/But-Avignon.html"},
{"addr_full": "92 route de Nimes", "brand": "But", "city": "BAGNOLS SUR CEZE", "country": "FR", "extras": {"brand": "But", "facia": "But", "category": "Retail", "edit_date": "2025-03-19", "lat_lon_source": "website"}, "lat": "44.147352497785000000", "lon": "4.614858582650800000", "name": "But Bagnols sur Ceze", "phone": null, "ref": "211", "postcode": "30200", "website": "https://www.but.fr//magasins/211/But-Bagnols-sur-Ceze.html"},
{"addr_full": "RN 193", "brand": "But", "city": "BASTIA", "country": "FR", "extras": {"brand": "But", "facia": "But", "category": "Retail", "edit_date": "2025-03-19", "lat_lon_source": "website"}, "lat": "42.700000000000000000", "lon": "9.450000000000000000", "name": "But Bastia", "phone": null, "ref": "212", "postcode": "20600", "website": "https://www.but.fr//magasins/212/But-Bastia.html"},
{"addr_full": "6 Rue Rond point des Entreprises", "brand": "But", "city": "BEZIERS", "country": "FR", "extras": {"brand": "But", "facia": "But", "category": "Retail", "edit_date": "2025-03-19", "lat_lon_source": "website"}, "lat": "43.344233000000000000", "lon": "3.215795000000000000", "name": "But B\u00e9ziers", "phone": null, "ref": "213", "postcode": "34500", "website": "https://www.but.fr//magasins/213/But-Beziers.html"},
{"addr_full": "Avenue des Arlucs", "brand": "But", "city": "LA BOCCA", "country": "FR", "extras": {"brand": "But", "facia": "But", "category": "Retail", "edit_date": "2025-03-19", "lat_lon_source": "website"}, "lat": "43.548342568534000000", "lon": "6.963381021161000000", "name": "But Cannes", "phone": null, "ref": "214", "postcode": "06150", "website": "https://www.but.fr//magasins/214/But-Cannes.html"},
{"addr_full": "Z.A. quartier St Christophe", "brand": "But", "city": "DIGNE LES BAINS", "country": "FR", "extras": {"brand": "But", "facia": "But", "category": "Retail", "edit_date": "2025-03-19", "lat_lon_source": "website"}, "lat": "44.095000000000000000", "lon": "6.240000000000000000", "name": "But Digne", "phone": null, "ref": "215", "postcode": "04000", "website": "https://www.but.fr//magasins/215/But-Digne.html"},
{"addr_full": "ZAC LES MEISSUGUES", "brand": "But", "city": "PUGET SUR ARGENS", "country": "FR", "extras": {"brand": "But", "facia": "But", "category": "Retail", "edit_date": "2025-03-19", "lat_lon_source": "website"}, "lat": "43.446781578755000000", "lon": "6.696884334349200000", "name": "But Fr\u00e9jus", "phone": null, "ref": "216", "postcode": "83480", "website": "https://www.but.fr//magasins/216/But-Frejus.html"},
{"addr_full": "27 route de la luye", "brand": "But", "city": "GAP", "country": "FR", "extras": {"brand": "But", "facia": "But", "category": "Retail", "edit_date": "2025-03-19", "lat_lon_source": "website"}, "lat": "44.539467595311000000", "lon": "6.064021376481000000", "name": "But Gap", "phone": null, "ref": "217", "postcode": "05000", "website": "https://www.but.fr//magasins/217/But-Gap.html"},
{"addr_full": "Centre commercial Auchan", "brand": "But", "city": "AUBAGNE", "country": "FR", "extras": {"brand": "But", "facia": "But", "category": "Retail", "edit_date": "2025-03-19", "lat_lon_source": "website"}, "lat": "43.291195636776000000", "lon": "5.592760862635400000", "name": "But Marseille Aubagne", "phone": null, "ref": "218", "postcode": "13400", "website": "https://www.but.fr//magasins/218/But-Marseille-Aubagne.html"},
{"addr_full": "Centre commercial Barneoud", "brand": "But", "city": "CABRIES", "country": "FR", "extras": {"brand": "But", "facia": "But", "category": "Retail", "edit_date": "2025-03-19", "lat_lon_source": "website"}, "lat": "43.417000000000000000", "lon": "5.361000000000000000", "name": "But Marseille Cabries", "phone": null, "ref": "219", "postcode": "13480", "website": "https://www.but.fr//magasins/219/But-Marseille-Cabries.html"},
{"addr_full": "ZAC des Ramilles", "brand": "But", "city": "MENDE", "country": "FR", "extras": {"brand": "But", "facia": "But", "category": "Retail", "edit_date": "2025-03-19", "lat_lon_source": "website"}, "lat": "44.517000000000000000", "lon": "3.500000000000000000", "name": "But Mende", "phone": null, "ref": "220", "postcode": "48000", "website": "https://www.but.fr//magasins/220/But-Mende.html"},
{"addr_full": "Le Soriech - Route de Carnon", "brand": "But", "city": "LATTES", "country": "FR", "extras": {"brand": "But", "facia": "But", "category": "Retail", "edit_date": "2025-03-19", "lat_lon_source": "website"}, "lat": "43.580969506631000000", "lon": "3.923343941555800000", "name": "But Montpellier", "phone": null, "ref": "223", "postcode": "34970", "website": "https://www.but.fr//magasins/223/But-Montpellier.html"},
{"addr_full": "21 rue Alfred CHAUCHARD", "brand": "But", "city": "NARBONNE", "country": "FR", "extras": {"brand": "But", "facia": "But", "category": "Retail", "edit_date": "2025-03-19", "lat_lon_source": "website"}, "lat": "43.177517000000000000", "lon": "3.030075000000000000", "name": "But Narbonne", "phone": null, "ref": "224", "postcode": "11100", "website": "https://www.but.fr//magasins/224/But-Narbonne.html"},
{"addr_full": "193 avenue du languedoc", "brand": "But", "city": "PERPIGNAN", "country": "FR", "extras": {"brand": "But", "facia": "But", "category": "Retail", "edit_date": "2025-03-19", "lat_lon_source": "website"}, "lat": "42.732244231570000000", "lon": "2.888859638146000000", "name": "But Perpignan Nord", "phone": null, "ref": "226", "postcode": "66000", "website": "https://www.but.fr//magasins/226/But-Perpignan-Nord.html"},
{"addr_full": "RN9 Route de perthus", "brand": "But", "city": "PERPIGNAN", "country": "FR", "extras": {"brand": "But", "facia": "But", "category": "Retail", "edit_date": "2025-03-19", "lat_lon_source": "website"}, "lat": "42.675714715302000000", "lon": "2.889918505568900000", "name": "But Perpignan sud", "phone": null, "ref": "227", "postcode": "66000", "website": "https://www.but.fr//magasins/227/But-Perpignan-sud.html"},
{"addr_full": "Centre midi multiple Autoroute de Nice", "brand": "But", "city": "SOLLIES-PONT", "country": "FR", "extras": {"brand": "But", "facia": "But", "category": "Retail", "edit_date": "2025-03-19", "lat_lon_source": "website"}, "lat": "43.204685406635000000", "lon": "6.047239268807100000", "name": "But Toulon", "phone": null, "ref": "236", "postcode": "83210", "website": "https://www.but.fr//magasins/236/But-Toulon.html"},
{"addr_full": "Zone Actisud 4, rue Louis Lumi\u00e8re", "brand": "But", "city": "MARSANNAY-LA-C\u00f4TE", "country": "FR", "extras": {"brand": "But", "facia": "But", "category": "Retail", "edit_date": "2025-03-19", "lat_lon_source": "website"}, "lat": "47.280828159784000000", "lon": "5.013284350262400000", "name": "But Dijon", "phone": null, "ref": "256", "postcode": "21160", "website": "https://www.but.fr//magasins/256/But-Dijon.html"},
{"addr_full": "rue du 8 mai 1945", "brand": "But", "city": "ST JEAN DE MAURIENNE", "country": "FR", "extras": {"brand": "But", "facia": "But", "category": "Retail", "edit_date": "2025-03-19", "lat_lon_source": "website"}, "lat": "45.272398254675000000", "lon": "6.362119301297000000", "name": "BUT St Jean de Maurienne", "phone": null, "ref": "257", "postcode": "73300", "website": "https://www.but.fr//magasins/257/BUT-St-Jean-de-Maurienne.html"},
{"addr_full": "Avenue Santos Dumont", "brand": "But", "city": "LESCAR", "country": "FR", "extras": {"brand": "But", "facia": "But", "category": "Retail", "edit_date": "2025-03-19", "lat_lon_source": "website"}, "lat": "43.321955222133000000", "lon": "-0.422462930556090000", "name": "But Pau", "phone": null, "ref": "258", "postcode": "64230", "website": "https://www.but.fr//magasins/258/But-Pau.html"},
{"addr_full": "Avenue de l'Europe", "brand": "But", "city": "VILLEFRANCHE SUR SA\u00f4NE", "country": "FR", "extras": {"brand": "But", "facia": "But", "category": "Retail", "edit_date": "2025-03-19", "lat_lon_source": "website"}, "lat": "45.988282574127000000", "lon": "4.743690503318800000", "name": "But Villefranche sur Sa\u00f4ne", "phone": null, "ref": "259", "postcode": "69400", "website": "https://www.but.fr//magasins/259/But-Villefranche-sur-Saone.html"},
{"addr_full": "48 \u00e0 52 avenue du 11 novembre 1918", "brand": "But", "city": "ROCHEFORT", "country": "FR", "extras": {"brand": "But", "facia": "But", "category": "Retail", "edit_date": "2025-03-19", "lat_lon_source": "website"}, "lat": "45.927000000000000000", "lon": "-0.960000000000000000", "name": "But Rochefort", "phone": null, "ref": "260", "postcode": "17300", "website": "https://www.but.fr//magasins/260/But-Rochefort.html"},
{"addr_full": "RN 20 - Route de Paris", "brand": "But", "city": "MONTAUBAN", "country": "FR", "extras": {"brand": "But", "facia": "But", "category": "Retail", "edit_date": "2025-03-19", "lat_lon_source": "website"}, "lat": "44.036687742113000000", "lon": "1.379205140506000000", "name": "But Montauban", "phone": null, "ref": "261", "postcode": "82000", "website": "https://www.but.fr//magasins/261/But-Montauban.html"},
{"addr_full": "311, rue de la R\u00e9volution Francaise", "brand": "But", "city": "SAINT-MAXIMIN", "country": "FR", "extras": {"brand": "But", "facia": "But", "category": "Retail", "edit_date": "2025-03-19", "lat_lon_source": "website"}, "lat": "49.235000000000000000", "lon": "2.465000000000000000", "name": "But Creil", "phone": null, "ref": "262", "postcode": "60740", "website": "https://www.but.fr//magasins/262/But-Creil.html"},
{"addr_full": "zone commerciale Auchan Louvroil", "brand": "But", "city": "HAUMONT", "country": "FR", "extras": {"brand": "But", "facia": "But", "category": "Retail", "edit_date": "2025-03-19", "lat_lon_source": "website"}, "lat": "50.252982256012000000", "lon": "3.935029283575400000", "name": "But Maubeuge - Hautmont", "phone": null, "ref": "263", "postcode": "59330", "website": "https://www.but.fr//magasins/263/But-Maubeuge-Hautmont.html"},
{"addr_full": "285 route d'Espagne", "brand": "But", "city": "TOULOUSE", "country": "FR", "extras": {"brand": "But", "facia": "But", "category": "Retail", "edit_date": "2025-03-19", "lat_lon_source": "website"}, "lat": "43.547086120524000000", "lon": "1.419765892065500000", "name": "But Toulouse Portet", "phone": null, "ref": "264", "postcode": "31100", "website": "https://www.but.fr//magasins/264/But-Toulouse-Portet.html"},
{"addr_full": "ZAC du Mas des Abeilles / rue Michel Debre", "brand": "But", "city": "N\u00eeMES", "country": "FR", "extras": {"brand": "But", "facia": "But", "category": "Retail", "edit_date": "2025-03-19", "lat_lon_source": "website"}, "lat": "43.809983623339000000", "lon": "4.370210521704200000", "name": "But N\u00eemes", "phone": null, "ref": "265", "postcode": "30900", "website": "https://www.but.fr//magasins/265/But-Nimes.html"},
{"addr_full": "158 route de toulouse", "brand": "But", "city": "CASTRES", "country": "FR", "extras": {"brand": "But", "facia": "But", "category": "Retail", "edit_date": "2025-03-19", "lat_lon_source": "website"}, "lat": "43.591566118180000000", "lon": "2.205457090633000000", "name": "But Castres", "phone": null, "ref": "267", "postcode": "81100", "website": "https://www.but.fr//magasins/267/But-Castres.html"},
{"addr_full": "ZAC Chemin des Eaux - 1 rue Jean de la Fontaine", "brand": "But", "city": "LES CLAYES SOUS BOIS", "country": "FR", "extras": {"brand": "But", "facia": "But", "category": "Retail", "edit_date": "2025-03-19", "lat_lon_source": "website"}, "lat": "48.826473239355000000", "lon": "1.969225305557300000", "name": "But Clayes ss Bois PLAISIR", "phone": null, "ref": "268", "postcode": "78340", "website": "https://www.but.fr//magasins/268/But-Clayes-ss-Bois-PLAISIR.html"},
{"addr_full": "RD817 - ZAC Europa", "brand": "But", "city": "LANDORTHE", "country": "FR", "extras": {"brand": "But", "facia": "But", "category": "Retail", "edit_date": "2025-03-19", "lat_lon_source": "website"}, "lat": "43.113067684890000000", "lon": "0.780134126752960000", "name": "But St Gaudens", "phone": null, "ref": "269", "postcode": "31800", "website": "https://www.but.fr//magasins/269/But-St-Gaudens.html"},
{"addr_full": "ZAC Descartes", "brand": "But", "city": "CHAMBRY", "country": "FR", "extras": {"brand": "But", "facia": "But", "category": "Retail", "edit_date": "2025-03-19", "lat_lon_source": "website"}, "lat": "49.589692272790000000", "lon": "3.647093545616100000", "name": "But Laon", "phone": null, "ref": "270", "postcode": "02000", "website": "https://www.but.fr//magasins/270/But-Laon.html"},
{"addr_full": "Rue de la Fran\u00e7on", "brand": "But", "city": "VOGLANS", "country": "FR", "extras": {"brand": "But", "facia": "But", "category": "Retail", "edit_date": "2025-03-19", "lat_lon_source": "website"}, "lat": "45.616845255155000000", "lon": "5.887852659948900000", "name": "But Voglans", "phone": null, "ref": "271", "postcode": "73420", "website": "https://www.but.fr//magasins/271/But-Voglans.html"},
{"addr_full": "3 Rue Gutenberg - ZA Nord", "brand": "But", "city": "BIGANOS", "country": "France", "extras": {"brand": "But", "facia": "But", "category": "Retail", "edit_date": "2025-03-19", "lat_lon_source": "website"}, "lat": "44.638890946538000000", "lon": "-0.956683030787870000", "name": "But Biganos", "phone": null, "ref": "272", "postcode": "33380", "website": "https://www.but.fr//magasins/272/But-Biganos.html"},
{"addr_full": "1 rue de l'Auge - ZAC Les Breandes", "brand": "But", "city": "AUXERRE", "country": "FR", "extras": {"brand": "But", "facia": "But", "category": "Retail", "edit_date": "2025-03-19", "lat_lon_source": "website"}, "lat": "47.821000000000000000", "lon": "3.555000000000000000", "name": "BUT Auxerre", "phone": null, "ref": "273", "postcode": "89000", "website": "https://www.but.fr//magasins/273/BUT-Auxerre.html"},
{"addr_full": "16 rue de Lisbonne - Centre Commercial DOMUS - Niveau 2", "brand": "But", "city": "ROSNY SOUS BOIS", "country": "FRANCE", "extras": {"brand": "But", "facia": "But", "category": "Retail", "edit_date": "2025-03-19", "lat_lon_source": "website"}, "lat": "48.882479765635000000", "lon": "2.468028112411500000", "name": "But Rosny-sous-Bois (DOMUS)", "phone": null, "ref": "274", "postcode": "93110", "website": "https://www.but.fr//magasins/274/But-Rosny-sous-Bois-DOMUS.html"},
{"addr_full": "Centre Commercial le Comtal - lieudit l\u2019Estreniol", "brand": "But", "city": "ONET LE CHATEAU", "country": "FRANCE", "extras": {"brand": "But", "facia": "But", "category": "Retail", "edit_date": "2025-03-19", "lat_lon_source": "website"}, "lat": "44.394297000000000000", "lon": "2.602043000000000000", "name": "BUT Rodez", "phone": null, "ref": "275", "postcode": "12850", "website": "https://www.but.fr//magasins/275/BUT-Rodez.html"},
{"addr_full": "Parc d'activit\u00e9s .", "brand": "But", "city": "VAUCHELLES LES QUESNOY", "country": "FRANCE", "extras": {"brand": "But", "facia": "But", "category": "Retail", "edit_date": "2025-03-19", "lat_lon_source": "website"}, "lat": "50.097430000000000000", "lon": "1.870080000000000000", "name": "But Abbeville", "phone": null, "ref": "277", "postcode": "80132", "website": "https://www.but.fr//magasins/277/But-Abbeville.html"},
{"addr_full": "P\u00f4le Commercial Jeanne d\u2019Arc", "brand": "But", "city": "DOMMARTIN LES TOUL", "country": "FRANCE", "extras": {"brand": "But", "facia": "But", "category": "Retail", "edit_date": "2025-03-19", "lat_lon_source": "website"}, "lat": "48.670905000000000000", "lon": "5.929186000000000000", "name": "But Toul", "phone": null, "ref": "278", "postcode": "54200", "website": "https://www.but.fr//magasins/278/But-Toul.html"},
{"addr_full": "Route de Nancy", "brand": "But", "city": "NEUFCHATEAU", "country": "FRANCE", "extras": {"brand": "But", "facia": "But", "category": "Retail", "edit_date": "2025-03-19", "lat_lon_source": "website"}, "lat": "48.368336000000000000", "lon": "5.701992000000000000", "name": "But Neufchateau", "phone": null, "ref": "279", "postcode": "88300", "website": "https://www.but.fr//magasins/279/But-Neufchateau.html"},
{"addr_full": "RN 4", "brand": "But", "city": "MARMOUTIER", "country": "FRANCE", "extras": {"brand": "But", "facia": "But", "category": "Retail", "edit_date": "2025-03-19", "lat_lon_source": "website"}, "lat": "48.699567000000000000", "lon": "7.374811000000000000", "name": "But Marmoutier", "phone": null, "ref": "280", "postcode": "67440", "website": "https://www.but.fr//magasins/280/But-Marmoutier.html"},
{"addr_full": "Espace de la Motte", "brand": "But", "city": "VESOUL", "country": "FRANCE", "extras": {"brand": "But", "facia": "But", "category": "Retail", "edit_date": "2025-03-19", "lat_lon_source": "website"}, "lat": "47.637067000000000000", "lon": "6.148108000000000000", "name": "But Vesoul", "phone": null, "ref": "281", "postcode": "70000", "website": "https://www.but.fr//magasins/281/But-Vesoul.html"},
{"addr_full": "221 rue de l'H\u00f4tellerie", "brand": "But", "city": "SECLIN", "country": "FRANCE", "extras": {"brand": "But", "facia": "But", "category": "Retail", "edit_date": "2025-03-19", "lat_lon_source": "website"}, "lat": "50.546367000000000000", "lon": "3.054060000000000000", "name": "But Seclin", "phone": null, "ref": "282", "postcode": "59113", "website": "https://www.but.fr//magasins/282/But-Seclin.html"},
{"addr_full": "4 Avenue de l'Europe", "brand": "But", "city": "PERONNE", "country": "FRANCE", "extras": {"brand": "But", "facia": "But", "category": "Retail", "edit_date": "2025-03-19", "lat_lon_source": "website"}, "lat": "49.939806000000000000", "lon": "2.926860000000000000", "name": "But Peronne", "phone": null, "ref": "283", "postcode": "80200", "website": "https://www.but.fr//magasins/283/But-Peronne.html"},
{"addr_full": "Avenue Jean Moulin", "brand": "But", "city": "BOLLENE", "country": "FRANCE", "extras": {"brand": "But", "facia": "But", "category": "Retail", "edit_date": "2025-03-19", "lat_lon_source": "website"}, "lat": "44.307433000000000000", "lon": "4.747233000000000000", "name": "But Boll\u00e8ne", "phone": null, "ref": "284", "postcode": "84500", "website": "https://www.but.fr//magasins/284/But-Bollene.html"},
{"addr_full": "ZAC du Mont Renaud", "brand": "But", "city": "NOYON", "country": "FRANCE", "extras": {"brand": "But", "facia": "But", "category": "Retail", "edit_date": "2025-03-19", "lat_lon_source": "website"}, "lat": "49.570271000000000000", "lon": "2.979700000000000000", "name": "But Noyon", "phone": null, "ref": "285", "postcode": "60400", "website": "https://www.but.fr//magasins/285/But-Noyon.html"},
{"addr_full": "15 rue du pergasan - Lieu dit Labourdas", "brand": "But", "city": "JUVIGNAC", "country": "FRANCE", "extras": {"brand": "But", "facia": "But", "category": "Retail", "edit_date": "2025-03-19", "lat_lon_source": "website"}, "lat": "43.617440000000000000", "lon": "3.794912000000000000", "name": "But Juvignac", "phone": null, "ref": "286", "postcode": "34990", "website": "https://www.but.fr//magasins/286/But-Juvignac.html"},
{"addr_full": "Bd Winston Churchill", "brand": "But", "city": "ST VIGOR LE GRAND", "country": "FRANCE", "extras": {"brand": "But", "facia": "But", "category": "Retail", "edit_date": "2025-03-19", "lat_lon_source": "website"}, "lat": "49.284637000000000000", "lon": "-0.697298000000000000", "name": "But Bayeux", "phone": null, "ref": "287", "postcode": "14400", "website": "https://www.but.fr//magasins/287/But-Bayeux.html"},
{"addr_full": "6 rue Fran\u00e7ois Mitterrand", "brand": "But", "city": "MARMANDE", "country": "France", "extras": {"brand": "But", "facia": "But", "category": "Retail", "edit_date": "2025-03-19", "lat_lon_source": "website"}, "lat": "44.509912000000000000", "lon": "0.141331000000000000", "name": "BUT Marmande", "phone": null, "ref": "288", "postcode": "47200", "website": "https://www.but.fr//magasins/288/BUT-Marmande.html"},
{"addr_full": "ZAC GRANDE TERRE - 5 voie des Romains", "brand": "But", "city": "LONGEVILLE EN BARROIS", "country": "FRANCE", "extras": {"brand": "But", "facia": "But", "category": "Retail", "edit_date": "2025-03-19", "lat_lon_source": "website"}, "lat": "48.754340000000000000", "lon": "5.200080000000000000", "name": "But Bar le Duc", "phone": null, "ref": "289", "postcode": "55000", "website": "https://www.but.fr//magasins/289/But-Bar-le-Duc.html"},
{"addr_full": "RUE DES ENTREPRENEURS", "brand": "But", "city": "JOIGNY", "country": "FRANCE", "extras": {"brand": "But", "facia": "But", "category": "Retail", "edit_date": "2025-03-19", "lat_lon_source": "website"}, "lat": "47.976931000000000000", "lon": "3.373828000000000000", "name": "But Joigny", "phone": null, "ref": "290", "postcode": "89300", "website": "https://www.but.fr//magasins/290/But-Joigny.html"},
{"addr_full": "ZI CHAMPAGNE", "brand": "But", "city": "BOURGUIGNON", "country": "FRANCE", "extras": {"brand": "But", "facia": "But", "category": "Retail", "edit_date": "2025-03-19", "lat_lon_source": "website"}, "lat": "47.415554000000000000", "lon": "6.777701000000000000", "name": "But Bourguignon", "phone": null, "ref": "291", "postcode": "25150", "website": "https://www.but.fr//magasins/291/But-Bourguignon.html"},
{"addr_full": "320 rue Ren\u00e9 CASSIN - ZAC MONT RIVEL", "brand": "But", "city": "CHAMPAGNOLE", "country": "FRANCE", "extras": {"brand": "But", "facia": "But", "category": "Retail", "edit_date": "2025-03-19", "lat_lon_source": "website"}, "lat": "46.749556000000000000", "lon": "5.916022000000000000", "name": "But Champagnole", "phone": null, "ref": "292", "postcode": "39300", "website": "https://www.but.fr//magasins/292/But-Champagnole.html"},
{"addr_full": "131 boulevard Fran\u00e7ois Mitterand - ZA des Haras", "brand": "But", "city": "MAYENNE", "country": "France", "extras": {"brand": "But", "facia": "But", "category": "Retail", "edit_date": "2025-03-19", "lat_lon_source": "website"}, "lat": "48.287080000000000000", "lon": "-0.616503000000000000", "name": "But Mayenne", "phone": null, "ref": "293", "postcode": "53100", "website": "https://www.but.fr//magasins/293/But-Mayenne.html"},
{"addr_full": "1 rue de la Gu\u00e9rie - Route de St-Lo", "brand": "But", "city": "COUTANCES", "country": "France", "extras": {"brand": "But", "facia": "But", "category": "Retail", "edit_date": "2025-03-19", "lat_lon_source": "website"}, "lat": "49.059287000000000000", "lon": "-1.425616000000000000", "name": "But Coutances", "phone": null, "ref": "294", "postcode": "50200", "website": "https://www.but.fr//magasins/294/But-Coutances.html"},
{"addr_full": "ZAC de la Gravelle", "brand": "But", "city": "ARGENTAN", "country": "France", "extras": {"brand": "But", "facia": "But", "category": "Retail", "edit_date": "2025-03-19", "lat_lon_source": "website"}, "lat": "48.732439000000000000", "lon": "-0.038035000000000000", "name": "But Argentan", "phone": null, "ref": "295", "postcode": "61200", "website": "https://www.but.fr//magasins/295/But-Argentan.html"},
{"addr_full": "Le Fer des Champs", "brand": "But", "city": "PERIERS EN AUGE", "country": "France", "extras": {"brand": "But", "facia": "But", "category": "Retail", "edit_date": "2025-03-19", "lat_lon_source": "website"}, "lat": "49.274737000000000000", "lon": "-0.102681000000000000", "name": "But Dives sur Mer", "phone": null, "ref": "296", "postcode": "14160", "website": "https://www.but.fr//magasins/296/But-Dives-sur-Mer.html"},
{"addr_full": "1 rue Victor Lemarchand", "brand": "But", "city": "ST SENIER SOUS AVRANCHES", "country": "France", "extras": {"brand": "But", "facia": "But", "category": "Retail", "edit_date": "2025-03-19", "lat_lon_source": "website"}, "lat": "48.680651000000000000", "lon": "-1.336508000000000000", "name": "But Avranches", "phone": null, "ref": "297", "postcode": "50300", "website": "https://www.but.fr//magasins/297/But-Avranches.html"},
{"addr_full": "18 impasse Jean Baptiste Gambut - Zi les Vignoles", "brand": "But", "city": "BEAUNE", "country": "France", "extras": {"brand": "But", "facia": "But", "category": "Retail", "edit_date": "2025-03-19", "lat_lon_source": "website"}, "lat": "47.022975000000000000", "lon": "4.860704000000000000", "name": "But Beaune", "phone": null, "ref": "298", "postcode": "21200", "website": "https://www.but.fr//magasins/298/But-Beaune.html"},
{"addr_full": "Z.A. du Bois du Cours - Route de Broglie", "brand": "But", "city": "BERNAY", "country": "France", "extras": {"brand": "But", "facia": "But", "category": "Retail", "edit_date": "2025-03-19", "lat_lon_source": "website"}, "lat": "49.075089000000000000", "lon": "0.581196000000000000", "name": "But Bernay", "phone": null, "ref": "299", "postcode": "27300", "website": "https://www.but.fr//magasins/299/But-Bernay.html"},
{"addr_full": "5, Boulevard Andr\u00e9-Georges Voisin", "brand": "But", "city": "SAINT CYR SUR LOIRE", "country": "FRANCE", "extras": {"brand": "But", "facia": "But", "category": "Retail", "edit_date": "2025-03-19", "lat_lon_source": "website"}, "lat": "47.427123000000000000", "lon": "0.655714000000000000", "name": "But Saint Cyr sur Loire", "phone": null, "ref": "300", "postcode": "37540", "website": "https://www.but.fr//magasins/300/But-Saint-Cyr-sur-Loire.html"},
{"addr_full": "La Bascule - Route Nationale 15", "brand": "But", "city": "SAINTE-MARIE DES CHAMPS", "country": "France", "extras": {"brand": "But", "facia": "But", "category": "Retail", "edit_date": "2025-03-19", "lat_lon_source": "website"}, "lat": "49.624497000000000000", "lon": "0.788542000000000000", "name": "But Yvetot", "phone": null, "ref": "301", "postcode": "76190", "website": "https://www.but.fr//magasins/301/But-Yvetot.html"},
{"addr_full": "Espace Cial des Oc\u00e9anes - 57 Avenue de Talmont", "brand": "But", "city": "CHATEAU D'OLONNE", "country": "France", "extras": {"brand": "But", "facia": "But", "category": "Retail", "edit_date": "2025-03-19", "lat_lon_source": "website"}, "lat": "46.487064000000000000", "lon": "-1.740545000000000000", "name": "But Ch\u00e2teau d'Olonne", "phone": null, "ref": "302", "postcode": "85180", "website": "https://www.but.fr//magasins/302/But-Chateau-d-Olonne.html"},
{"addr_full": "Avenue Jean Monnet", "brand": "But", "city": "PONT AUDEMER", "country": "France", "extras": {"brand": "But", "facia": "But", "category": "Retail", "edit_date": "2025-03-19", "lat_lon_source": "website"}, "lat": "49.347619000000000000", "lon": "0.542253000000000000", "name": "But Pont Audemer", "phone": null, "ref": "303", "postcode": "27500", "website": "https://www.but.fr//magasins/303/But-Pont-Audemer.html"},
{"addr_full": "Kervidanou 3 - 12 rue Albert Schweitzer", "brand": "But", "city": "MELLAC", "country": "France", "extras": {"brand": "But", "facia": "But", "category": "Retail", "edit_date": "2025-03-19", "lat_lon_source": "website"}, "lat": "47.869323100000000000", "lon": "-3.589724700000000000", "name": "But Quimperle", "phone": null, "ref": "304", "postcode": "29300", "website": "https://www.but.fr//magasins/304/But-Quimperle.html"},
{"addr_full": "Route de Saumur", "brand": "But", "city": "THOUARS", "country": "France", "extras": {"brand": "But", "facia": "But", "category": "Retail", "edit_date": "2025-03-19", "lat_lon_source": "website"}, "lat": "47.009344000000000000", "lon": "-0.202084000000000000", "name": "But Thouars", "phone": null, "ref": "306", "postcode": "79100", "website": "https://www.but.fr//magasins/306/But-Thouars.html"},
{"addr_full": "8 Route de Sabl\u00e9 Zone Cap Mermoz", "brand": "But", "city": "CHATEAU GONTIER SUR MAYENNE", "country": "FRANCE", "extras": {"brand": "But", "facia": "But", "category": "Retail", "edit_date": "2025-03-19", "lat_lon_source": "website"}, "lat": "47.831008931450000000", "lon": "-0.690605387188940000", "name": "But Ch\u00e2teau Gontier", "phone": null, "ref": "308", "postcode": "53200", "website": "https://www.but.fr//magasins/308/But-Chateau-Gontier.html"},
{"addr_full": "Centre commercial les Templiers", "brand": "But", "city": "GISORS", "country": "FRANCE", "extras": {"brand": "But", "facia": "But", "category": "Retail", "edit_date": "2025-03-19", "lat_lon_source": "website"}, "lat": "49.276765000000000000", "lon": "1.759762000000000000", "name": "But Gisors", "phone": null, "ref": "309", "postcode": "27140", "website": "https://www.but.fr//magasins/309/But-Gisors.html"},
{"addr_full": "Parc d'activit\u00e9s de La Creule", "brand": "But", "city": "HAZEBROUCK", "country": "FRANCE", "extras": {"brand": "But", "facia": "But", "category": "Retail", "edit_date": "2025-03-19", "lat_lon_source": "website"}, "lat": "50.736781000000000000", "lon": "2.552505000000000000", "name": "But Hazebrouck", "phone": null, "ref": "310", "postcode": "59190", "website": "https://www.but.fr//magasins/310/But-Hazebrouck.html"},
{"addr_full": "Rue du pont - Zone Industrielle du pont", "brand": "But", "city": "SABLE SUR SARTHE", "country": "FRANCE", "extras": {"brand": "But", "facia": "But", "category": "Retail", "edit_date": "2025-03-19", "lat_lon_source": "website"}, "lat": "47.823925000000000000", "lon": "-0.303510000000000000", "name": "But Sable", "phone": null, "ref": "311", "postcode": "72300", "website": "https://www.but.fr//magasins/311/But-Sable.html"},
{"addr_full": "20 rue des Lauriers", "brand": "But", "city": "ST GEREON", "country": "FRANCE", "extras": {"brand": "But", "facia": "But", "category": "Retail", "edit_date": "2025-03-19", "lat_lon_source": "website"}, "lat": "47.372779636500000000", "lon": "-1.189055442800000000", "name": "But Ancenis", "phone": null, "ref": "312", "postcode": "44150", "website": "https://www.but.fr//magasins/312/But-Ancenis.html"},
{"addr_full": "594 Chemin de la Chaumi\u00e8re - Z.I de l'Artel", "brand": "But", "city": "CASTELSARRASIN", "country": "FRANCE", "extras": {"brand": "But", "facia": "But", "category": "Retail", "edit_date": "2025-03-19", "lat_lon_source": "website"}, "lat": "44.062549744900000000", "lon": "1.099147796600000000", "name": "But Castelsarrasin", "phone": null, "ref": "313", "postcode": "82100", "website": "https://www.but.fr//magasins/313/But-Castelsarrasin.html"},
{"addr_full": "Rue du Chardonnay - PAE de la Vall\u00e9e de l'H\u00e9rault", "brand": "But", "city": "CLERMONT L'HERAULT", "country": "FRANCE", "extras": {"brand": "But", "facia": "But", "category": "Retail", "edit_date": "2025-03-19", "lat_lon_source": "website"}, "lat": "43.619673500000000000", "lon": "3.450973000000000000", "name": "But Clermont l'H\u00e9rault", "phone": null, "ref": "314", "postcode": "34800", "website": "https://www.but.fr//magasins/314/But-Clermont-l-Herault.html"},
{"addr_full": "Rue De Lattre de Tassigny ZI DE LA LIMOISE", "brand": "But", "city": "ISSOUDUN", "country": "FRANCE", "extras": {"brand": "But", "facia": "But", "category": "Retail", "edit_date": "2025-03-19", "lat_lon_source": "website"}, "lat": "46.954851000000000000", "lon": "2.005015000000000000", "name": "But Issoudun", "phone": null, "ref": "315", "postcode": "36100", "website": "https://www.but.fr//magasins/315/But-Issoudun.html"},
{"addr_full": "Rue des Malifestes - ZAC de Calin", "brand": "But", "city": "CLISSON", "country": "FRANCE", "extras": {"brand": "But", "facia": "But", "category": "Retail", "edit_date": "2025-03-19", "lat_lon_source": "website"}, "lat": "47.098949000000000000", "lon": "-1.279567000000000000", "name": "But Clisson", "phone": null, "ref": "316", "postcode": "44190", "website": "https://www.but.fr//magasins/316/But-Clisson.html"},
{"addr_full": "Rue Lavoisier - BP 101", "brand": "But", "city": "EU", "country": "FRANCE", "extras": {"brand": "But", "facia": "But", "category": "Retail", "edit_date": "2025-03-19", "lat_lon_source": "website"}, "lat": "50.057607000000000000", "lon": "1.412899000000000000", "name": "But Eu", "phone": null, "ref": "317", "postcode": "76260", "website": "https://www.but.fr//magasins/317/But-Eu.html"},
{"addr_full": "Lotissement Le Grand Tour", "brand": "But", "city": "MARCONNE", "country": "FRANCE", "extras": {"brand": "But", "facia": "But", "category": "Retail", "edit_date": "2025-03-19", "lat_lon_source": "website"}, "lat": "50.367146000000000000", "lon": "2.028884000000000100", "name": "But Hesdin Marconne", "phone": null, "ref": "318", "postcode": "62140", "website": "https://www.but.fr//magasins/318/But-Hesdin-Marconne.html"},
{"addr_full": "Zone Commerciale Les Martines", "brand": "But", "city": "SAINT JUNIEN", "country": "FRANCE", "extras": {"brand": "But", "facia": "But", "category": "Retail", "edit_date": "2025-03-19", "lat_lon_source": "website"}, "lat": "45.896116000000000000", "lon": "0.918924000000000000", "name": "But Saint Junien", "phone": null, "ref": "319", "postcode": "87200", "website": "https://www.but.fr//magasins/319/But-Saint-Junien.html"},
{"addr_full": "ZA de la bosserie", "brand": "But", "city": "GIEN", "country": "FRANCE", "extras": {"brand": "But", "facia": "But", "category": "Retail", "edit_date": "2025-03-19", "lat_lon_source": "website"}, "lat": "47.706298000000000000", "lon": "2.641914000000000000", "name": "But Gien", "phone": null, "ref": "322", "postcode": "45500", "website": "https://www.but.fr//magasins/322/But-Gien.html"},
{"addr_full": "RN 10 ZI Nord", "brand": "But", "city": "RUFFEC", "country": "FRANCE", "extras": {"brand": "But", "facia": "But", "category": "Retail", "edit_date": "2025-03-19", "lat_lon_source": "website"}, "lat": "46.042855000000000000", "lon": "0.197899000000000000", "name": "But Ruffec", "phone": null, "ref": "323", "postcode": "16700", "website": "https://www.but.fr//magasins/323/But-Ruffec.html"},
{"addr_full": "4 boulevard des Industries", "brand": "But", "city": "POCE SUR CISSE", "country": "FRANCE", "extras": {"brand": "But", "facia": "But", "category": "Retail", "edit_date": "2025-03-19", "lat_lon_source": "website"}, "lat": "47.425300000000000000", "lon": "0.983702000000000000", "name": "But Amboise", "phone": null, "ref": "324", "postcode": "37530", "website": "https://www.but.fr//magasins/324/But-Amboise.html"},
{"addr_full": "5 Rue Charente-Maritime - Lotissement de la Sacristinerie", "brand": "But", "city": "SAINT JEAN D'ANGELY", "country": "FRANCE", "extras": {"brand": "But", "facia": "But", "category": "Retail", "edit_date": "2025-03-19", "lat_lon_source": "website"}, "lat": "45.946256000000000000", "lon": "-0.507616000000000000", "name": "But Saint Jean d'Angely", "phone": null, "ref": "325", "postcode": "17400", "website": "https://www.but.fr//magasins/325/But-Saint-Jean-d-Angely.html"},
{"addr_full": "Zone Commerciale de la Monnerie", "brand": "But", "city": "LA FLECHE", "country": "FRANCE", "extras": {"brand": "But", "facia": "But", "category": "Retail", "edit_date": "2025-03-19", "lat_lon_source": "website"}, "lat": "47.705314000000000000", "lon": "-0.051083000000000000", "name": "But La Fl\u00e8che", "phone": null, "ref": "326", "postcode": "72200", "website": "https://www.but.fr//magasins/326/But-La-Fleche.html"},
{"addr_full": "ZAC Nord kerd'Herv\u00e9 8 rue Jean le Cam", "brand": "But", "city": "LOUDEAC", "country": "FRANCE", "extras": {"brand": "But", "facia": "But", "category": "Retail", "edit_date": "2025-03-19", "lat_lon_source": "website"}, "lat": "48.194300000000000000", "lon": "-2.764620000000000000", "name": "But Loudeac", "phone": null, "ref": "327", "postcode": "22600", "website": "https://www.but.fr//magasins/327/But-Loudeac.html"},
{"addr_full": "96 route de Bourges", "brand": "But", "city": "SAINT AMAND MONTROND", "country": "FRANCE", "extras": {"brand": "But", "facia": "But", "category": "Retail", "edit_date": "2025-03-19", "lat_lon_source": "website"}, "lat": "46.736758000000000000", "lon": "2.488851000000000000", "name": "But Saint Amand", "phone": null, "ref": "328", "postcode": "18200", "website": "https://www.but.fr//magasins/328/But-Saint-Amand.html"},
{"addr_full": "Route de Longu\u00e9", "brand": "But", "city": "BEAUFORT EN ANJOU", "country": "FRANCE", "extras": {"brand": "But", "facia": "But", "category": "Retail", "edit_date": "2025-03-19", "lat_lon_source": "website"}, "lat": "47.432326000000000000", "lon": "-0.199388000000000000", "name": "But Beaufort", "phone": null, "ref": "329", "postcode": "49250", "website": "https://www.but.fr//magasins/329/But-Beaufort.html"},
{"addr_full": "2 rue des margats - Lieu dit Les longs sillons", "brand": "But", "city": "COULOMMIERS", "country": "FRANCE", "extras": {"brand": "But", "facia": "But", "category": "Retail", "edit_date": "2025-03-19", "lat_lon_source": "website"}, "lat": "48.808812000000000000", "lon": "3.094258000000000000", "name": "But Coulommiers", "phone": null, "ref": "330", "postcode": "77120", "website": "https://www.but.fr//magasins/330/But-Coulommiers.html"},
{"addr_full": "Avenue de Bastia - Immeuble Luciani", "brand": "But", "city": "PORTO VECCHIO", "country": "FRANCE", "extras": {"brand": "But", "facia": "But", "category": "Retail", "edit_date": "2025-03-19", "lat_lon_source": "website"}, "lat": "41.609628000000000000", "lon": "9.276641000000000000", "name": "But Porto Vecchio", "phone": null, "ref": "331", "postcode": "20137", "website": "https://www.but.fr//magasins/331/But-Porto-Vecchio.html"},
{"addr_full": "Z.I. du Peuron", "brand": "But", "city": "CHAUVIGNY", "country": "FRANCE", "extras": {"brand": "But", "facia": "But", "category": "Retail", "edit_date": "2025-03-19", "lat_lon_source": "website"}, "lat": "46.556670000000000000", "lon": "0.624974000000000000", "name": "But Chauvigny", "phone": null, "ref": "332", "postcode": "86300", "website": "https://www.but.fr//magasins/332/But-Chauvigny.html"},
{"addr_full": "1 Avenue Faidherbe", "brand": "But", "city": "JONZAC", "country": "FRANCE", "extras": {"brand": "But", "facia": "But", "category": "Retail", "edit_date": "2025-03-19", "lat_lon_source": "website"}, "lat": "45.448151000000000000", "lon": "-0.438740000000000020", "name": "But Jonzac", "phone": null, "ref": "333", "postcode": "17500", "website": "https://www.but.fr//magasins/333/But-Jonzac.html"},
{"addr_full": "ZAC de Bellevue", "brand": "But", "city": "AUTUN", "country": "FRANCE", "extras": {"brand": "But", "facia": "But", "category": "Retail", "edit_date": "2025-03-19", "lat_lon_source": "website"}, "lat": "46.970297000000000000", "lon": "4.274178000000000000", "name": "But Autun", "phone": null, "ref": "334", "postcode": "71400", "website": "https://www.but.fr//magasins/334/But-Autun.html"},
{"addr_full": "Route de Dijon", "brand": "But", "city": "SEMUR EN AUXOIS", "country": "FRANCE", "extras": {"brand": "But", "facia": "But", "category": "Retail", "edit_date": "2025-03-19", "lat_lon_source": "website"}, "lat": "47.488942000000000000", "lon": "4.353879000000000000", "name": "But Semur", "phone": null, "ref": "335", "postcode": "21140", "website": "https://www.but.fr//magasins/335/But-Semur.html"},
{"addr_full": "Rue Louis Desprez", "brand": "But", "city": "BAR SUR AUBE", "country": "FRANCE", "extras": {"brand": "But", "facia": "But", "category": "Retail", "edit_date": "2025-03-19", "lat_lon_source": "website"}, "lat": "48.225968000000000000", "lon": "4.713181000000000000", "name": "But Bar sur Aube", "phone": null, "ref": "336", "postcode": "10200", "website": "https://www.but.fr//magasins/336/But-Bar-sur-Aube.html"},
{"addr_full": "Rue Paul Filliot ZAC de Val de L'Orne", "brand": "But", "city": "CONFLANS EN JARNISY", "country": "FRANCE", "extras": {"brand": "But", "facia": "But", "category": "Retail", "edit_date": "2025-03-19", "lat_lon_source": "website"}, "lat": "49.162798405175000000", "lon": "5.837723223739000000", "name": "But Conflans", "phone": null, "ref": "337", "postcode": "54800", "website": "https://www.but.fr//magasins/337/But-Conflans.html"},
{"addr_full": "ZI aux Cloyes", "brand": "But", "city": "LURE", "country": "FRANCE", "extras": {"brand": "But", "facia": "But", "category": "Retail", "edit_date": "2025-03-19", "lat_lon_source": "website"}, "lat": "47.682159000000000000", "lon": "6.516904000000000000", "name": "But Lure", "phone": null, "ref": "338", "postcode": "70200", "website": "https://www.but.fr//magasins/338/But-Lure.html"},
{"addr_full": "Route de Paris", "brand": "But", "city": "TONNERRE", "country": "FRANCE", "extras": {"brand": "But", "facia": "But", "category": "Retail", "edit_date": "2025-03-19", "lat_lon_source": "website"}, "lat": "47.870731000000000000", "lon": "3.968801000000000000", "name": "But Tonnerre", "phone": null, "ref": "339", "postcode": "89700", "website": "https://www.but.fr//magasins/339/But-Tonnerre.html"},
{"addr_full": "76-84 avenue Gilbert Roux", "brand": "But", "city": "CUSSET", "country": "FRANCE", "extras": {"brand": "But", "facia": "But", "category": "Retail", "edit_date": "2025-03-19", "lat_lon_source": "website"}, "lat": "46.138661000000000000", "lon": "3.439128000000000000", "name": "But Vichy", "phone": null, "ref": "340", "postcode": "03300", "website": "https://www.but.fr//magasins/340/But-Vichy.html"},
{"addr_full": "Z.A. Villejame 3", "brand": "But", "city": "GUERANDE", "country": "FRANCE", "extras": {"brand": "But", "facia": "But", "category": "Retail", "edit_date": "2025-03-19", "lat_lon_source": "website"}, "lat": "47.324516000000000000", "lon": "-2.408185000000000000", "name": "But Guerande", "phone": null, "ref": "341", "postcode": "44350", "website": "https://www.but.fr//magasins/341/But-Guerande.html"},
{"addr_full": "ZA les Plantes - Rue Andr\u00e9 Boulle", "brand": "But", "city": "NOYERS SUR CHER", "country": "FRANCE", "extras": {"brand": "But", "facia": "But", "category": "Retail", "edit_date": "2025-03-19", "lat_lon_source": "website"}, "lat": "47.284126000000000000", "lon": "1.373104000000000000", "name": "But Noyers", "phone": null, "ref": "342", "postcode": "41140", "website": "https://www.but.fr//magasins/342/But-Noyers.html"},
{"addr_full": "Zone Commerciale Rive Sud", "brand": "But", "city": "SAINTE ANNE SUR BRIVET", "country": "FRANCE", "extras": {"brand": "But", "facia": "But", "category": "Retail", "edit_date": "2025-03-19", "lat_lon_source": "website"}, "lat": "47.435299809375000000", "lon": "-2.076483660224900000", "name": "But Pontch\u00e2teau", "phone": null, "ref": "343", "postcode": "44160", "website": "https://www.but.fr//magasins/343/But-Pontchateau.html"},
{"addr_full": "Z.A.E. de l'Ebeaupini\u00e8res", "brand": "But", "city": "SAINTE GEMMES D'ANDIGNE", "country": "FRANCE", "extras": {"brand": "But", "facia": "But", "category": "Retail", "edit_date": "2025-03-19", "lat_lon_source": "website"}, "lat": "47.688563000000000000", "lon": "-0.891468000000000000", "name": "But Segre", "phone": null, "ref": "344", "postcode": "49500", "website": "https://www.but.fr//magasins/344/But-Segre.html"},
{"addr_full": "Route de Poitiers", "brand": "But", "city": "AZAY LE BRULE", "country": "FRANCE", "extras": {"brand": "But", "facia": "But", "category": "Retail", "edit_date": "2025-03-19", "lat_lon_source": "website"}, "lat": "46.403761000000000000", "lon": "-0.230810000000000000", "name": "But Saint Maixent", "phone": null, "ref": "345", "postcode": "79400", "website": "https://www.but.fr//magasins/345/But-Saint-Maixent.html"},
{"addr_full": "Rue des Oustalots", "brand": "But", "city": "OLORON SAINTE MARIE", "country": "FRANCE", "extras": {"brand": "But", "facia": "But", "category": "Retail", "edit_date": "2025-03-19", "lat_lon_source": "website"}, "lat": "43.180186000000000000", "lon": "-0.613458000000000000", "name": "But Oloron", "phone": null, "ref": "346", "postcode": "64400", "website": "https://www.but.fr//magasins/346/But-Oloron.html"},
{"addr_full": "Avenue Montseigneur Batiot - ZI du pont Corn\u00e9", "brand": "But", "city": "CHANTONNAY", "country": "FRANCE", "extras": {"brand": "But", "facia": "But", "category": "Retail", "edit_date": "2025-03-19", "lat_lon_source": "website"}, "lat": "46.695626000000000000", "lon": "-1.055954000000000000", "name": "But Chantonnay", "phone": null, "ref": "347", "postcode": "85110", "website": "https://www.but.fr//magasins/347/But-Chantonnay.html"},
{"addr_full": "La Clouti\u00e8re - Perrusson", "brand": "But", "city": "LOCHES", "country": "FRANCE", "extras": {"brand": "But", "facia": "But", "category": "Retail", "edit_date": "2025-03-19", "lat_lon_source": "website"}, "lat": "47.112326000000000000", "lon": "1.004909000000000000", "name": "But Loches", "phone": null, "ref": "348", "postcode": "37600", "website": "https://www.but.fr//magasins/348/But-Loches.html"},
{"addr_full": "Z.A.C de la sucrerie - Route de Sens", "brand": "But", "city": "MONTEREAU FAULT YONNE", "country": "FRANCE", "extras": {"brand": "But", "facia": "But", "category": "Retail", "edit_date": "2025-03-19", "lat_lon_source": "website"}, "lat": "48.375952000000000000", "lon": "2.956232000000000000", "name": "But Montereau", "phone": null, "ref": "349", "postcode": "77130", "website": "https://www.but.fr//magasins/349/But-Montereau.html"},
{"addr_full": "95 av du Mar\u00e9chal de Lattre de Tassigny", "brand": "But", "city": "LUCON", "country": "FRANCE", "extras": {"brand": "But", "facia": "But", "category": "Retail", "edit_date": "2025-03-19", "lat_lon_source": "website"}, "lat": "46.452033500000000000", "lon": "-1.161629900000000000", "name": "But Lu\u00e7on", "phone": null, "ref": "350", "postcode": "85400", "website": "https://www.but.fr//magasins/350/But-Lucon.html"},
{"addr_full": "84 avenue de Bretagne", "brand": "But", "city": "GENESTON", "country": "FRANCE", "extras": {"brand": "But", "facia": "But", "category": "Retail", "edit_date": "2025-03-19", "lat_lon_source": "website"}, "lat": "47.064390000000000000", "lon": "-1.517091000000000000", "name": "But Geneston", "phone": null, "ref": "351", "postcode": "44140", "website": "https://www.but.fr//magasins/351/But-Geneston.html"},
{"addr_full": "5 RUE DES GRATTELIEVRES", "brand": "But", "city": "TAVERS", "country": "FRANCE", "extras": {"brand": "But", "facia": "But", "category": "Retail", "edit_date": "2025-03-19", "lat_lon_source": "website"}, "lat": "47.763978000000000000", "lon": "1.610696000000000000", "name": "But Tavers", "phone": null, "ref": "352", "postcode": "45190", "website": "https://www.but.fr//magasins/352/But-Tavers.html"},
{"addr_full": "30 Rue Antoine-Laurent de Lavoisier - ZC Concorde", "brand": "But", "city": "ROYAN", "country": "FRANCE", "extras": {"brand": "But", "facia": "But", "category": "Retail", "edit_date": "2025-03-19", "lat_lon_source": "website"}, "lat": "45.632046000000000000", "lon": "-0.985418000000000020", "name": "But Royan", "phone": null, "ref": "353", "postcode": "17200", "website": "https://www.but.fr//magasins/353/But-Royan.html"},
{"addr_full": "Parc commercial \u00ab les portes de Soissons \u00bb", "brand": "But", "city": "VAUXBUIN", "country": "FRANCE", "extras": {"brand": "But", "facia": "But", "category": "Retail", "edit_date": "2025-03-19", "lat_lon_source": "website"}, "lat": "49.357851000000000000", "lon": "3.296810000000000000", "name": "But Soissons", "phone": null, "ref": "354", "postcode": "02200", "website": "https://www.but.fr//magasins/354/But-Soissons.html"},
{"addr_full": "ZAC DU BLANC CARROI", "brand": "But", "city": "CHINON", "country": "FRANCE", "extras": {"brand": "But", "facia": "But", "category": "Retail", "edit_date": "2025-03-19", "lat_lon_source": "website"}, "lat": "47.172801000000000000", "lon": "0.251135000000000000", "name": "But Chinon", "phone": null, "ref": "355", "postcode": "37500", "website": "https://www.but.fr//magasins/355/But-Chinon.html"},
{"addr_full": "Boulevard de L'Europe - ZAC des Loges", "brand": "But", "city": "PARTHENAY", "country": "FRANCE", "extras": {"brand": "But", "facia": "But", "category": "Retail", "edit_date": "2025-03-19", "lat_lon_source": "website"}, "lat": "46.648031500000000000", "lon": "-0.220354800000000000", "name": "But Parthenay", "phone": null, "ref": "356", "postcode": "79200", "website": "https://www.but.fr//magasins/356/But-Parthenay.html"},
{"addr_full": "5 rue Emile Durkeim", "brand": "But", "city": "SAINT DIE DES VOSGES", "country": "FRANCE", "extras": {"brand": "But", "facia": "But", "category": "Retail", "edit_date": "2025-03-19", "lat_lon_source": "website"}, "lat": "48.292854000000000000", "lon": "6.938019000000000000", "name": "But Saint Die", "phone": null, "ref": "357", "postcode": "88100", "website": "https://www.but.fr//magasins/357/But-Saint-Die.html"},
{"addr_full": "2 rue des M\u00e9tiers", "brand": "But", "city": "COLMAR", "country": "FRANCE", "extras": {"brand": "But", "facia": "But", "category": "Retail", "edit_date": "2025-03-19", "lat_lon_source": "website"}, "lat": "48.110461500000000000", "lon": "7.364457100000000000", "name": "But Colmar", "phone": null, "ref": "358", "postcode": "68000", "website": "https://www.but.fr//magasins/358/But-Colmar.html"},
{"addr_full": "6 avenue des Erables", "brand": "But", "city": "HOUDEMONT", "country": "FRANCE", "extras": {"brand": "But", "facia": "But", "category": "Retail", "edit_date": "2025-03-19", "lat_lon_source": "website"}, "lat": "48.643013000000000000", "lon": "6.184167000000000000", "name": "But Nancy", "phone": null, "ref": "359", "postcode": "54180", "website": "https://www.but.fr//magasins/359/But-Nancy.html"},
{"addr_full": "Rue Cl\u00e9ment Ader", "brand": "But", "city": "CLAYE SOUILLY", "country": "France", "extras": {"brand": "But", "facia": "But", "category": "Retail", "edit_date": "2025-03-19", "lat_lon_source": "website"}, "lat": "48.945466000000000000", "lon": "2.668072000000000000", "name": "But Claye Souilly", "phone": null, "ref": "360", "postcode": "77410", "website": "https://www.but.fr//magasins/360/But-Claye-Souilly.html"},
{"addr_full": "106 av du Vieux chemin de Saint Denis", "brand": "But", "city": "GENNEVILLIERS", "country": "FRANCE", "extras": {"brand": "But", "facia": "But", "category": "Retail", "edit_date": "2025-03-19", "lat_lon_source": "website"}, "lat": "48.932265200000000000", "lon": "2.315651800000100000", "name": "But Gennevilliers", "phone": null, "ref": "362", "postcode": "92230", "website": "https://www.but.fr//magasins/362/But-Gennevilliers.html"},
{"addr_full": "Route de Domont", "brand": "But", "city": "EZANVILLE", "country": "FRANCE", "extras": {"brand": "But", "facia": "But", "category": "Retail", "edit_date": "2025-03-19", "lat_lon_source": "website"}, "lat": "49.036282000000000000", "lon": "2.345872000000000000", "name": "But Ezanville", "phone": null, "ref": "363", "postcode": "95460", "website": "https://www.but.fr//magasins/363/But-Ezanville.html"},
{"addr_full": "1 avenue Marechal Foch", "brand": "But", "city": "CRETEIL", "country": "FRANCE", "extras": {"brand": "But", "facia": "But", "category": "Retail", "edit_date": "2025-03-19", "lat_lon_source": "website"}, "lat": "48.771995000000000000", "lon": "2.438700000000000000", "name": "But Cr\u00e9teil", "phone": null, "ref": "364", "postcode": "94000", "website": "https://www.but.fr//magasins/364/But-Creteil.html"},
{"addr_full": "13 rue de la sabli\u00e8re", "brand": "But", "city": "SCHWEIGHOUSE SUR MODER", "country": "FRANCE", "extras": {"brand": "But", "facia": "But", "category": "Retail", "edit_date": "2025-03-19", "lat_lon_source": "website"}, "lat": "48.828916000000000000", "lon": "7.749638000000000000", "name": "BUT Haguenau", "phone": null, "ref": "365", "postcode": "67590", "website": "https://www.but.fr//magasins/365/BUT-Haguenau.html"},
{"addr_full": "63 Boulevard du Havre", "brand": "But", "city": "HERBLAY", "country": "FRANCE", "extras": {"brand": "But", "facia": "But", "category": "Retail", "edit_date": "2025-03-19", "lat_lon_source": "website"}, "lat": "49.002297000000000000", "lon": "2.178376000000000000", "name": "But Herblay", "phone": null, "ref": "366", "postcode": "95220", "website": "https://www.but.fr//magasins/366/But-Herblay.html"},
{"addr_full": "3 Avenue de l'Ile Brune", "brand": "But", "city": "SAINT EGREVE", "country": "FRANCE", "extras": {"brand": "But", "facia": "But", "category": "Retail", "edit_date": "2025-03-19", "lat_lon_source": "website"}, "lat": "45.215587400000000000", "lon": "5.683009300000000000", "name": "But Grenoble Saint Egreve", "phone": null, "ref": "367", "postcode": "38120", "website": "https://www.but.fr//magasins/367/But-Grenoble-Saint-Egreve.html"},
{"addr_full": "1170 Route des Quarante Sous RN13-Les Glaisi\u00e8res", "brand": "But", "city": "ORGEVAL", "country": "FRANCE", "extras": {"brand": "But", "facia": "But", "category": "Retail", "edit_date": "2025-03-19", "lat_lon_source": "website"}, "lat": "48.927470000000000000", "lon": "1.984740000000000000", "name": "But Orgeval", "phone": null, "ref": "368", "postcode": "78630", "website": "https://www.but.fr//magasins/368/But-Orgeval.html"},
{"addr_full": "ZAC du bas terrroir Route de Tournai", "brand": "But", "city": "WAZIERS", "country": "FRANCE", "extras": {"brand": "But", "facia": "But", "category": "Retail", "edit_date": "2025-03-19", "lat_lon_source": "website"}, "lat": "50.393028000000000000", "lon": "3.113789000000000000", "name": "But Douai", "phone": null, "ref": "369", "postcode": "59119", "website": "https://www.but.fr//magasins/369/But-Douai.html"},
{"addr_full": "rue de Dole Zone de Chateaufarine", "brand": "But", "city": "BESANCON", "country": "FRANCE", "extras": {"brand": "But", "facia": "But", "category": "Retail", "edit_date": "2025-03-19", "lat_lon_source": "website"}, "lat": "47.213676000000000000", "lon": "5.945957000000000000", "name": "But Besancon Sud", "phone": null, "ref": "370", "postcode": "25000", "website": "https://www.but.fr//magasins/370/But-Besancon-Sud.html"},
{"addr_full": "52 Avenue de Bordeaux", "brand": "But", "city": "MIMIZAN", "country": "FRANCE", "extras": {"brand": "But", "facia": "But", "category": "Retail", "edit_date": "2025-03-19", "lat_lon_source": "website"}, "lat": "44.205874500000000000", "lon": "-1.221093900000000000", "name": "But Mimizan", "phone": null, "ref": "371", "postcode": "40200", "website": "https://www.but.fr//magasins/371/But-Mimizan.html"},
{"addr_full": "Centre commercial Promenade de Flandre, En face d\u2019Auchan Roncq", "brand": "But", "city": "NEUVILLE-EN-FERRAIN", "country": "France", "extras": {"brand": "But", "facia": "But", "category": "Retail", "edit_date": "2025-03-19", "lat_lon_source": "website"}, "lat": "50.746860000000000000", "lon": "3.133820000000000000", "name": "But Roncq Neuville-en-ferrain", "phone": null, "ref": "372", "postcode": "59960", "website": "https://www.but.fr//magasins/372/But-Roncq-Neuville-en-ferrain.html"},
{"addr_full": "Avenue de la Dordogne", "brand": "But", "city": "SARLAT LA CANEDA", "country": "France", "extras": {"brand": "But", "facia": "But", "category": "Retail", "edit_date": "2025-03-19", "lat_lon_source": "website"}, "lat": "44.876563000000000000", "lon": "1.213202000000000000", "name": "But Sarlat", "phone": null, "ref": "373", "postcode": "24200", "website": "https://www.but.fr//magasins/373/But-Sarlat.html"},
{"addr_full": "5 Avenue Pierre et Marie Curie", "brand": "But", "city": "ISSOIRE", "country": "France", "extras": {"brand": "But", "facia": "But", "category": "Retail", "edit_date": "2025-03-19", "lat_lon_source": "website"}, "lat": "45.550655000000000000", "lon": "3.254300000000000000", "name": "But Issoire", "phone": null, "ref": "374", "postcode": "63500", "website": "https://www.but.fr//magasins/374/But-Issoire.html"},
{"addr_full": "AVENUE WILLY BRANDT Promenade d\u2019Artois", "brand": "But", "city": "DUISANS", "country": "France", "extras": {"brand": "But", "facia": "But", "category": "Retail", "edit_date": "2025-03-19", "lat_lon_source": "website"}, "lat": "50.306197200000000000", "lon": "2.724291000000000000", "name": "But Arras", "phone": null, "ref": "375", "postcode": "62161", "website": "https://www.but.fr//magasins/375/But-Arras.html"},
{"addr_full": "37 rue DE PRES", "brand": "But", "city": "ST MARCEL", "country": "France", "extras": {"brand": "But", "facia": "But", "category": "Retail", "edit_date": "2025-03-19", "lat_lon_source": "website"}, "lat": "49.104683000000000000", "lon": "1.452745000000000000", "name": "But Vernon", "phone": null, "ref": "376", "postcode": "27950", "website": "https://www.but.fr//magasins/376/But-Vernon.html"},
{"addr_full": "Zone d'Activit\u00e9s de la Grande Haie", "brand": "But", "city": "VITR\u00e9", "country": "France", "extras": {"brand": "But", "facia": "But", "category": "Retail", "edit_date": "2025-03-19", "lat_lon_source": "website"}, "lat": "48.119882000000000000", "lon": "-1.169040700000000000", "name": "But Vitr\u00e9", "phone": null, "ref": "377", "postcode": "35500", "website": "https://www.but.fr//magasins/377/But-Vitre.html"},
{"addr_full": "ZAC DE L'EUROPE RUE DU TRAITE DE LISBONNE", "brand": "But", "city": "PORNIC", "country": "France", "extras": {"brand": "But", "facia": "But", "category": "Retail", "edit_date": "2025-03-19", "lat_lon_source": "website"}, "lat": "47.128612000000000000", "lon": "-2.125329000000000000", "name": "But Pornic", "phone": null, "ref": "378", "postcode": "44210", "website": "https://www.but.fr//magasins/378/But-Pornic.html"},
{"addr_full": "Rue Laplace Parc commercial de Launay", "brand": "But", "city": "PONT L EVEQUE", "country": "France", "extras": {"brand": "But", "facia": "But", "category": "Retail", "edit_date": "2025-03-19", "lat_lon_source": "website"}, "lat": "49.285284000000000000", "lon": "0.202459000000000000", "name": "But Pont l'Eveque", "phone": null, "ref": "379", "postcode": "14130", "website": "https://www.but.fr//magasins/379/But-Pont-l-Eveque.html"},
{"addr_full": "2380 Route Nationale 20, Route de PARIS", "brand": "But", "city": "SARAN", "country": "France", "extras": {"brand": "But", "facia": "But", "category": "Retail", "edit_date": "2025-03-19", "lat_lon_source": "website"}, "lat": "47.959015000000000000", "lon": "1.890749000000000000", "name": "But Saran", "phone": null, "ref": "380", "postcode": "45770", "website": "https://www.but.fr//magasins/380/But-Saran.html"},
{"addr_full": "10 Rue Ordronneau Zone Atout Sud", "brand": "But", "city": "REZE", "country": "France", "extras": {"brand": "But", "facia": "But", "category": "Retail", "edit_date": "2025-03-19", "lat_lon_source": "website"}, "lat": "47.193969000000000000", "lon": "-1.576323000000000000", "name": "But Nantes Reze", "phone": null, "ref": "381", "postcode": "44400", "website": "https://www.but.fr//magasins/381/But-Nantes-Reze.html"},
{"addr_full": "Route de limoges - Zone commerciale d'arfeuille", "brand": "But", "city": "SAINT YRIEIX LA PERCHE", "country": "France", "extras": {"brand": "But", "facia": "But", "category": "Retail", "edit_date": "2025-03-19", "lat_lon_source": "website"}, "lat": "45.525860000000000000", "lon": "1.210927000000000000", "name": "But St Yrieix", "phone": null, "ref": "382", "postcode": "87500", "website": "https://www.but.fr//magasins/382/But-St-Yrieix.html"},
{"addr_full": "11 Rue Gustave Eiffel", "brand": "But", "city": "CHATEAU THIERRY", "country": "France", "extras": {"brand": "But", "facia": "But", "category": "Retail", "edit_date": "2025-03-19", "lat_lon_source": "website"}, "lat": "49.033848000000000000", "lon": "3.387586000000000000", "name": "But Chateau Thierry", "phone": null, "ref": "383", "postcode": "02400", "website": "https://www.but.fr//magasins/383/But-Chateau-Thierry.html"},
{"addr_full": "30 Route Nationale 75 \u2013 ZI Pr\u00e9 noir", "brand": "But", "city": "CHARANCIEU", "country": "France", "extras": {"brand": "But", "facia": "But", "category": "Retail", "edit_date": "2025-03-19", "lat_lon_source": "website"}, "lat": "45.531209057727000000", "lon": "5.587649949074900000", "name": "BUT Charancieu", "phone": null, "ref": "384", "postcode": "38490", "website": "https://www.but.fr//magasins/384/BUT-Charancieu.html"},
{"addr_full": "Zac Cap du Cr\u00e8s \u2013 Boulevard Georges Brassens", "brand": "But", "city": "MILLAU", "country": "France", "extras": {"brand": "But", "facia": "But", "category": "Retail", "edit_date": "2025-03-19", "lat_lon_source": "website"}, "lat": "44.115231000000000000", "lon": "3.070426000000000000", "name": "But Millau", "phone": null, "ref": "385", "postcode": "12100", "website": "https://www.but.fr//magasins/385/But-Millau.html"},
{"addr_full": "4 C rue Pierre Clostermann", "brand": "But", "city": "BLOTZHEIM", "country": "France", "extras": {"brand": "But", "facia": "But", "category": "Retail", "edit_date": "2025-03-19", "lat_lon_source": "website"}, "lat": "47.606384000000000000", "lon": "7.506517000000000000", "name": "But Blotzheim", "phone": null, "ref": "386", "postcode": "68730", "website": "https://www.but.fr//magasins/386/But-Blotzheim.html"},
{"addr_full": "386 RUE DES VERDIERS", "brand": "But", "city": "LYS-LEZ-LANNOY", "country": "France", "extras": {"brand": "But", "facia": "But", "category": "Retail", "edit_date": "2025-03-19", "lat_lon_source": "website"}, "lat": "50.676843812873000000", "lon": "3.223339319229100000", "name": "But Leers", "phone": null, "ref": "387", "postcode": "59390", "website": "https://www.but.fr//magasins/387/But-Leers.html"},
{"addr_full": "Route d'Avignon, Nationale 7", "brand": "But", "city": "ORANGE", "country": "France", "extras": {"brand": "But", "facia": "But", "category": "Retail", "edit_date": "2025-03-19", "lat_lon_source": "website"}, "lat": "44.113202000000000000", "lon": "4.843560000000000000", "name": "But Orange", "phone": null, "ref": "388", "postcode": "84100", "website": "https://www.but.fr//magasins/388/But-Orange.html"},
{"addr_full": "Route N7 - lieudit \"le grand champ\"", "brand": "But", "city": "COSNE COURS SUR LOIRE", "country": "France", "extras": {"brand": "But", "facia": "But", "category": "Retail", "edit_date": "2025-03-19", "lat_lon_source": "website"}, "lat": "47.386788000000000000", "lon": "2.921641000000000000", "name": "But Cosne sur Loire", "phone": null, "ref": "389", "postcode": "58200", "website": "https://www.but.fr//magasins/389/But-Cosne-sur-Loire.html"},
{"addr_full": "Centre Commercial Intermarch\u00e9, Route D\u00e9partementale 817", "brand": "But", "city": "CAPVERN", "country": "France", "extras": {"brand": "But", "facia": "But", "category": "Retail", "edit_date": "2025-03-19", "lat_lon_source": "website"}, "lat": "43.112219200000000000", "lon": "0.356514500000000000", "name": "But Capvern", "phone": null, "ref": "390", "postcode": "65130", "website": "https://www.but.fr//magasins/390/But-Capvern.html"},
{"addr_full": "32t Avenue du Mont Saint Michel", "brand": "But", "city": "L'AIGLE", "country": "FRANCE", "extras": {"brand": "But", "facia": "But", "category": "Retail", "edit_date": "2025-03-19", "lat_lon_source": "website"}, "lat": "48.762036000000000000", "lon": "0.616049000000000000", "name": "But L'Aigle", "phone": null, "ref": "391", "postcode": "61300", "website": "https://www.but.fr//magasins/391/But-L-Aigle.html"},
{"addr_full": "Route de Lannilis", "brand": "But", "city": "LE FOLGO\u00cbT", "country": "FRANCE", "extras": {"brand": "But", "facia": "But", "category": "Retail", "edit_date": "2025-03-19", "lat_lon_source": "website"}, "lat": "48.566181256821000000", "lon": "-4.351526992988400000", "name": "But Lesneven", "phone": null, "ref": "392", "postcode": "29260", "website": "https://www.but.fr//magasins/392/But-Lesneven.html"},
{"addr_full": "105 route de Crest", "brand": "But", "city": "AOUSTE SUR SYE", "country": "France", "extras": {"brand": "But", "facia": "But", "category": "Retail", "edit_date": "2025-03-19", "lat_lon_source": "website"}, "lat": "44.721233000000000000", "lon": "5.037753000000000000", "name": "But Crest", "phone": null, "ref": "393", "postcode": "26400", "website": "https://www.but.fr//magasins/393/But-Crest.html"},
{"addr_full": "40 rue de Flandres", "brand": "But", "city": "NEUFCH\u00e2TEL-EN-BRAY", "country": "France", "extras": {"brand": "But", "facia": "But", "category": "Retail", "edit_date": "2025-03-19", "lat_lon_source": "website"}, "lat": "49.736987282669000000", "lon": "1.434778857080800000", "name": "But Neufch\u00e2tel-En-Bray", "phone": null, "ref": "394", "postcode": "76270", "website": "https://www.but.fr//magasins/394/But-Neufchatel-En-Bray.html"},
{"addr_full": "54-56 Avenue du G\u00e9n\u00e9ral Martial Valin", "brand": "But", "city": "LIMOGES", "country": "France", "extras": {"brand": "But", "facia": "But", "category": "Retail", "edit_date": "2025-03-19", "lat_lon_source": "website"}, "lat": "45.806880411409000000", "lon": "1.274739937186700000", "name": "But Limoges Sud", "phone": null, "ref": "395", "postcode": "87000", "website": "https://www.but.fr//magasins/395/But-Limoges-Sud.html"},
{"addr_full": "1 all\u00e9e des C\u00e8dres, Parc Commercial Val Durance", "brand": "But", "city": "SISTERON", "country": "France", "extras": {"brand": "But", "facia": "But", "category": "Retail", "edit_date": "2025-03-19", "lat_lon_source": "website"}, "lat": "44.236659600000000000", "lon": "5.909602800000000000", "name": "But Sisteron", "phone": null, "ref": "396", "postcode": "04200", "website": "https://www.but.fr//magasins/396/But-Sisteron.html"},
{"addr_full": "Rue du Commandant Victor Sahuc", "brand": "But", "city": "RIOM", "country": "France", "extras": {"brand": "But", "facia": "But", "category": "Retail", "edit_date": "2025-03-19", "lat_lon_source": "website"}, "lat": "45.879685000000000000", "lon": "3.114561000000000000", "name": "But Riom", "phone": null, "ref": "397", "postcode": "63200", "website": "https://www.but.fr//magasins/397/But-Riom.html"},
{"addr_full": "50 Rue du 11 Novembre", "brand": "But", "city": "ALBERT", "country": "France", "extras": {"brand": "But", "facia": "But", "category": "Retail", "edit_date": "2025-03-19", "lat_lon_source": "website"}, "lat": "49.997140798089000000", "lon": "2.658141405756700000", "name": "But Albert", "phone": null, "ref": "398", "postcode": "80300", "website": "https://www.but.fr//magasins/398/But-Albert.html"},
{"addr_full": "ZAC du Bois de Ladre \u2013 Impasse derri\u00e8re les Pr\u00e8s", "brand": "But", "city": "AVALLON", "country": "France", "extras": {"brand": "But", "facia": "But", "category": "Retail", "edit_date": "2025-03-19", "lat_lon_source": "website"}, "lat": "47.498419100000000000", "lon": "3.915700600000000000", "name": "But Avallon", "phone": null, "ref": "399", "postcode": "89200", "website": "https://www.but.fr//magasins/399/But-Avallon.html"},
{"addr_full": "12 Rue du Bief", "brand": "But", "city": "MORTEAU", "country": "France", "extras": {"brand": "But", "facia": "But", "category": "Retail", "edit_date": "2025-03-19", "lat_lon_source": "website"}, "lat": "47.058450000000000000", "lon": "6.614700000000000000", "name": "But Morteau", "phone": null, "ref": "401", "postcode": "25500", "website": "https://www.but.fr//magasins/401/But-Morteau.html"},
{"addr_full": "14 Rue Fran\u00e7ois Truffaut", "brand": "But", "city": "THIERS", "country": "France", "extras": {"brand": "But", "facia": "But", "category": "Retail", "edit_date": "2025-03-19", "lat_lon_source": "website"}, "lat": "45.839299008585000000", "lon": "3.510320118516400000", "name": "But Thiers", "phone": null, "ref": "402", "postcode": "63300", "website": "https://www.but.fr//magasins/402/But-Thiers.html"},
{"addr_full": "All\u00e9e de Szentendre", "brand": "But", "city": "SALON DE PROVENCE", "country": "France", "extras": {"brand": "But", "facia": "But", "category": "Retail", "edit_date": "2025-03-19", "lat_lon_source": "website"}, "lat": "43.633446918177000000", "lon": "5.075397704598800000", "name": "But Salon de Provence", "phone": null, "ref": "403", "postcode": "13300", "website": "https://www.but.fr//magasins/403/But-Salon-de-Provence.html"},
{"addr_full": "ZAC des Milliaires Genestet", "brand": "But", "city": "BEAUCAIRE", "country": "France", "extras": {"brand": "But", "facia": "But", "category": "Retail", "edit_date": "2025-03-19", "lat_lon_source": "website"}, "lat": "43.815242833876000000", "lon": "4.612675332663000000", "name": "But Beaucaire", "phone": null, "ref": "404", "postcode": "30300", "website": "https://www.but.fr//magasins/404/But-Beaucaire.html"},
{"addr_full": "Avenue du Mar\u00e9chal Foch", "brand": "But", "city": "SAINT-MAXIMIN-LA-SAINTE-BAUME", "country": "France", "extras": {"brand": "But", "facia": "But", "category": "Retail", "edit_date": "2025-03-19", "lat_lon_source": "website"}, "lat": "43.458074000000000000", "lon": "5.862741000000000000", "name": "But Saint-Maximin-la-Sainte-Baume", "phone": null, "ref": "405", "postcode": "83470", "website": "https://www.but.fr//magasins/405/But-Saint-Maximin-la-Sainte-Baume.html"},
{"addr_full": "Avenue du Mas Saint Laurent", "brand": "But", "city": "VAUVERT", "country": "France", "extras": {"brand": "But", "facia": "But", "category": "Retail", "edit_date": "2025-03-19", "lat_lon_source": "website"}, "lat": "43.708504049261000000", "lon": "4.268016620241500000", "name": "But Vauvert", "phone": null, "ref": "406", "postcode": "30600", "website": "https://www.but.fr//magasins/406/But-Vauvert.html"},
{"addr_full": "Rue du Parc Manceau - ZAC de l\u2019Ardoise", "brand": "But", "city": "LE MANS", "country": "France", "extras": {"brand": "But", "facia": "But", "category": "Retail", "edit_date": "2025-03-19", "lat_lon_source": "website"}, "lat": "48.031013000000000000", "lon": "0.182888000000000000", "name": "But Le Mans Nord", "phone": null, "ref": "407", "postcode": "72000", "website": "https://www.but.fr//magasins/407/But-Le-Mans-Nord.html"},
{"addr_full": "724 AVENUE DU 19 MARS 1962", "brand": "But", "city": "ARBENT", "country": "France", "extras": {"brand": "But", "facia": "But", "category": "Retail", "edit_date": "2025-03-19", "lat_lon_source": "website"}, "lat": "46.284297301545000000", "lon": "5.665142528659200000", "name": "But Oyonnax", "phone": null, "ref": "408", "postcode": "01100", "website": "https://www.but.fr//magasins/408/But-Oyonnax.html"},
{"addr_full": "Rue du Dr Robert Creusat", "brand": "But", "city": "REIMS", "country": "France", "extras": {"brand": "But", "facia": "But", "category": "Retail", "edit_date": "2025-03-19", "lat_lon_source": "website"}, "lat": "49.290121458538000000", "lon": "4.022138533423000000", "name": "But Reims La Neuvillette", "phone": null, "ref": "409", "postcode": "51100", "website": "https://www.but.fr//magasins/409/But-Reims-La-Neuvillette.html"},
{"addr_full": "Avenue de la Boutillerie", "brand": "But", "city": "SEQUEDIN", "country": "France", "extras": {"brand": "But", "facia": "But", "category": "Retail", "edit_date": "2025-03-19", "lat_lon_source": "website"}, "lat": "50.627440287733000000", "lon": "2.974211820062000000", "name": "But Englos", "phone": null, "ref": "410", "postcode": "59320", "website": "https://www.but.fr//magasins/410/But-Englos.html"},
{"addr_full": "679E Av. Michel Omerin", "brand": "But", "city": "AMBERT", "country": "France", "extras": {"brand": "But", "facia": "But", "category": "Retail", "edit_date": "2025-03-19", "lat_lon_source": "website"}, "lat": "45.543404898088000000", "lon": "3.729003164889900000", "name": "But Ambert", "phone": null, "ref": "411", "postcode": "63600", "website": "https://www.but.fr//magasins/411/But-Ambert.html"},
{"addr_full": "350 rue Blaise Pascal", "brand": "But", "city": "PROVILLE", "country": "FR", "extras": {"brand": "But", "facia": "But", "category": "Retail", "edit_date": "2025-03-19", "lat_lon_source": "website"}, "lat": "50.149610000000000000", "lon": "3.216830000000000000", "name": "But Cambrai", "phone": null, "ref": "412", "postcode": "59267", "website": "https://www.but.fr//magasins/412/But-Cambrai.html"},
{"addr_full": "17 rue des estuaires", "brand": "But", "city": "BAIN-DE-BRETAGNE", "country": "FR", "extras": {"brand": "But", "facia": "But", "category": "Retail", "edit_date": "2025-03-19", "lat_lon_source": "website"}, "lat": "47.857685983169000000", "lon": "-1.689782927978000000", "name": "But Bain-de-Bretagne", "phone": null, "ref": "413", "postcode": "35470", "website": "https://www.but.fr//magasins/413/But-Bain-de-Bretagne.html"}
]