[
﻿{"addr_full": "Pitt St & Market St", "city": "Sydney", "country": "AU", "brand": "Lululemon", "extras": {"brand": "Lululemon", "fascia": "lululemon", "edit_date": "20250515", "lat_lon_source": "Third Party"}, "lat": -33.869755, "lon": 151.208608, "name": "Westfield Sydney City", "phone": "(02) 9221 9846", "ref": "50110", "postCode": "2000", "state": null},
﻿{"addr_full": "Westfield Geelong, Shop 105/6/7,", "city": "Geelong", "country": "AU", "brand": "Lululemon", "extras": {"brand": "Lululemon", "fascia": "lululemon", "edit_date": "20250515", "lat_lon_source": "Third Party"}, "lat": -38.147284, "lon": 144.362275, "name": "Geelong", "phone": "(03) 5229 1927", "ref": "50114", "postCode": "3220", "state": null},
﻿{"addr_full": "188-194 Albert St", "city": "Brisbane", "country": "AU", "brand": "Lululemon", "extras": {"brand": "Lululemon", "fascia": "lululemon", "edit_date": "20250515", "lat_lon_source": "Third Party"}, "lat": -27.470021, "lon": 153.025374, "name": "Albert St", "phone": "(07) 32112530", "ref": "50103", "postCode": "4000", "state": null},
﻿{"addr_full": "322 Moggill Road", "city": "Brisbane", "country": "AU", "brand": "Lululemon", "extras": {"brand": "Lululemon", "fascia": "lululemon", "edit_date": "20250515", "lat_lon_source": "Third Party"}, "lat": -27.499399, "lon": 152.972794, "name": "Indooroopilly", "phone": "(07) 3720 1889", "ref": "50101", "postCode": "4068", "state": null},
﻿{"addr_full": "301 George St", "city": "Sydney", "country": "AU", "brand": "Lululemon", "extras": {"brand": "Lululemon", "fascia": "lululemon", "edit_date": "20250515", "lat_lon_source": "Third Party"}, "lat": -33.865725, "lon": 151.207014, "name": "Brookfield Place", "phone": "02 9262 5104", "ref": "50058", "postCode": "2000", "state": null},
﻿{"addr_full": "500 Oxford St", "city": "Sydney", "country": "AU", "brand": "Lululemon", "extras": {"brand": "Lululemon", "fascia": "lululemon", "edit_date": "20250515", "lat_lon_source": "Third Party"}, "lat": -33.891669, "lon": 151.25027, "name": "Bondi Junction", "phone": "(02) 9388 9893", "ref": "50071", "postCode": "2022", "state": null},
﻿{"addr_full": "The Mill", "city": "Sydney", "country": "AU", "brand": "Lululemon", "extras": {"brand": "Lululemon", "fascia": "lululemon", "edit_date": "20250515", "lat_lon_source": "Third Party"}, "lat": -33.911541, "lon": 151.194007, "name": "Alexandria Outlet", "phone": "(02) 9310 5661", "ref": "50596", "postCode": "2015", "state": null},
﻿{"addr_full": "892 Military Road", "city": "Sydney", "country": "AU", "brand": "Lululemon", "extras": {"brand": "Lululemon", "fascia": "lululemon", "edit_date": "20250515", "lat_lon_source": "Third Party"}, "lat": -33.828184, "lon": 151.244408, "name": "Mosman", "phone": "(02) 9960 1238", "ref": "50055", "postCode": "2088", "state": null},
﻿{"addr_full": "145 Old Pittwater Rd", "city": "Sydney", "country": "AU", "brand": "Lululemon", "extras": {"brand": "Lululemon", "fascia": "lululemon", "edit_date": "20250515", "lat_lon_source": "Third Party"}, "lat": -33.768687, "lon": 151.265614, "name": "Warringah", "phone": "(02) 9907 4128", "ref": "50051", "postCode": "2100", "state": null},
﻿{"addr_full": "Herring Rd & Waterloo Rd", "city": "Sydney", "country": "AU", "brand": "Lululemon", "extras": {"brand": "Lululemon", "fascia": "lululemon", "edit_date": "20250515", "lat_lon_source": "Third Party"}, "lat": -33.7772, "lon": 151.12412, "name": "Macquarie Centre", "phone": "(02) 9888 6689", "ref": "50109", "postCode": "2113", "state": null},
﻿{"addr_full": "36 Ocean Beach Road", "city": "Geelong", "country": "AU", "brand": "Lululemon", "extras": {"brand": "Lululemon", "fascia": "lululemon", "edit_date": "20250515", "lat_lon_source": "Third Party"}, "lat": -38.33888, "lon": 144.740354, "name": "Sorrento", "phone": "(03) 5984 2658", "ref": "50070", "postCode": "3943", "state": null},
﻿{"addr_full": "2 Church Street", "city": "Geelong", "country": "AU", "brand": "Lululemon", "extras": {"brand": "Lululemon", "fascia": "lululemon", "edit_date": "20250515", "lat_lon_source": "Third Party"}, "lat": -37.912041, "lon": 144.992213, "name": "Brighton", "phone": "(03) 9591 0450", "ref": "50088", "postCode": "3186", "state": null},
﻿{"addr_full": "120-200 Rosamond Road", "city": "Geelong", "country": "AU", "brand": "Lululemon", "extras": {"brand": "Lululemon", "fascia": "lululemon", "edit_date": "20250515", "lat_lon_source": "Third Party"}, "lat": -37.7733, "lon": 144.888735, "name": "Highpoint", "phone": "(03) 9317 0187", "ref": "50090", "postCode": "3032", "state": null},
﻿{"addr_full": "256-260 Chapel Street", "city": "Geelong", "country": "AU", "brand": "Lululemon", "extras": {"brand": "Lululemon", "fascia": "lululemon", "edit_date": "20250515", "lat_lon_source": "Third Party"}, "lat": -37.849632, "lon": 144.993983, "name": "Chapel Street", "phone": "(03) 9510 0277", "ref": "50050", "postCode": "3181", "state": null},
﻿{"addr_full": "287 Lonsdale Street", "city": "Geelong", "country": "AU", "brand": "Lululemon", "extras": {"brand": "Lululemon", "fascia": "lululemon", "edit_date": "20250515", "lat_lon_source": "Third Party"}, "lat": -37.812445, "lon": 144.963875, "name": "Emporium", "phone": "(03) 9654 9561", "ref": "50102", "postCode": "3000", "state": null},
﻿{"addr_full": "1085-1092 High Street", "city": "Geelong", "country": "AU", "brand": "Lululemon", "extras": {"brand": "Lululemon", "fascia": "lululemon", "edit_date": "20250515", "lat_lon_source": "Third Party"}, "lat": -37.85556, "lon": 145.023616, "name": "Armadale", "phone": "03 9822 4216", "ref": "50117", "postCode": "3143", "state": null},
﻿{"addr_full": "250 Centre Dandenong Road", "city": "Geelong", "country": "AU", "brand": "Lululemon", "extras": {"brand": "Lululemon", "fascia": "lululemon", "edit_date": "20250515", "lat_lon_source": "Third Party"}, "lat": -37.96984, "lon": 145.087626, "name": "Moorabbin Factory Outlet", "phone": "(03) 9583 7583", "ref": "50047", "postCode": "3194", "state": null},
﻿{"addr_full": "131-143 Smith St", "city": "Geelong", "country": "AU", "brand": "Lululemon", "extras": {"brand": "Lululemon", "fascia": "lululemon", "edit_date": "20250515", "lat_lon_source": "Third Party"}, "lat": -37.804514, "lon": 144.982983, "name": "Collingwood Factory Outlet", "phone": "(03) 8436 1898", "ref": "50049", "postCode": "3065", "state": null},
﻿{"addr_full": "1341 Dandenong Road", "city": "Geelong", "country": "AU", "brand": "Lululemon", "extras": {"brand": "Lululemon", "fascia": "lululemon", "edit_date": "20250515", "lat_lon_source": "Third Party"}, "lat": -37.886547, "lon": 145.083108, "name": "Chadstone Shopping Centre", "phone": "(03) 9568 7191", "ref": "50067", "postCode": "3148", "state": null},
﻿{"addr_full": "769 Burke Road", "city": "Geelong", "country": "AU", "brand": "Lululemon", "extras": {"brand": "Lululemon", "fascia": "lululemon", "edit_date": "20250515", "lat_lon_source": "Third Party"}, "lat": -37.829816, "lon": 145.056979, "name": "Camberwell", "phone": "(03) 9882 5162", "ref": "50063", "postCode": "3124", "state": null},
﻿{"addr_full": "619 Doncaster Rd", "city": "Geelong", "country": "AU", "brand": "Lululemon", "extras": {"brand": "Lululemon", "fascia": "lululemon", "edit_date": "20250515", "lat_lon_source": "Third Party"}, "lat": -37.787117, "lon": 145.126144, "name": "Doncaster", "phone": "(03) 9840 1524", "ref": "50054", "postCode": "3108", "state": null},
﻿{"addr_full": "600 Kingsway", "city": "Sydney", "country": "AU", "brand": "Lululemon", "extras": {"brand": "Lululemon", "fascia": "lululemon", "edit_date": "20250515", "lat_lon_source": "Third Party"}, "lat": -34.035467, "lon": 151.100631, "name": "Miranda", "phone": "(02) 9524 8743", "ref": "50113", "postCode": "2228", "state": null},
﻿{"addr_full": "Westfield Kotara", "city": "Sydney", "country": "AU", "brand": "Lululemon", "extras": {"brand": "Lululemon", "fascia": "lululemon", "edit_date": "20250515", "lat_lon_source": "Third Party"}, "lat": -32.941652, "lon": 151.711222, "name": "Kotara", "phone": "02 4957 1068", "ref": "50116", "postCode": "2289", "state": null},
﻿{"addr_full": "Canberra Centre 148 Bunda Street", "city": "Sydney", "country": "AU", "brand": "Lululemon", "extras": {"brand": "Lululemon", "fascia": "lululemon", "edit_date": "20250515", "lat_lon_source": "Third Party"}, "lat": -35.280509, "lon": 149.133172, "name": "Canberra", "phone": "(02) 6230 0610", "ref": "50089", "postCode": "2608", "state": null},
﻿{"addr_full": "287 Lonsdale Street", "city": "Melbourne", "country": "AU", "brand": "Lululemon", "extras": {"brand": "Lululemon", "fascia": "lululemon", "edit_date": "20250515", "lat_lon_source": "Third Party"}, "lat": -37.812445, "lon": 144.963875, "name": "Emporium", "phone": "(03) 9654 9561", "ref": "50102", "postCode": "3000", "state": null},
﻿{"addr_full": "131-143 Smith St", "city": "Melbourne", "country": "AU", "brand": "Lululemon", "extras": {"brand": "Lululemon", "fascia": "lululemon", "edit_date": "20250515", "lat_lon_source": "Third Party"}, "lat": -37.804514, "lon": 144.982983, "name": "Collingwood Factory Outlet", "phone": "(03) 8436 1898", "ref": "50049", "postCode": "3065", "state": null},
﻿{"addr_full": "256-260 Chapel Street", "city": "Melbourne", "country": "AU", "brand": "Lululemon", "extras": {"brand": "Lululemon", "fascia": "lululemon", "edit_date": "20250515", "lat_lon_source": "Third Party"}, "lat": -37.849632, "lon": 144.993983, "name": "Chapel Street", "phone": "(03) 9510 0277", "ref": "50050", "postCode": "3181", "state": null},
﻿{"addr_full": "1085-1092 High Street", "city": "Melbourne", "country": "AU", "brand": "Lululemon", "extras": {"brand": "Lululemon", "fascia": "lululemon", "edit_date": "20250515", "lat_lon_source": "Third Party"}, "lat": -37.85556, "lon": 145.023616, "name": "Armadale", "phone": "03 9822 4216", "ref": "50117", "postCode": "3143", "state": null},
﻿{"addr_full": "120-200 Rosamond Road", "city": "Melbourne", "country": "AU", "brand": "Lululemon", "extras": {"brand": "Lululemon", "fascia": "lululemon", "edit_date": "20250515", "lat_lon_source": "Third Party"}, "lat": -37.7733, "lon": 144.888735, "name": "Highpoint", "phone": "(03) 9317 0187", "ref": "50090", "postCode": "3032", "state": null},
﻿{"addr_full": "769 Burke Road", "city": "Melbourne", "country": "AU", "brand": "Lululemon", "extras": {"brand": "Lululemon", "fascia": "lululemon", "edit_date": "20250515", "lat_lon_source": "Third Party"}, "lat": -37.829816, "lon": 145.056979, "name": "Camberwell", "phone": "(03) 9882 5162", "ref": "50063", "postCode": "3124", "state": null},
﻿{"addr_full": "2 Church Street", "city": "Melbourne", "country": "AU", "brand": "Lululemon", "extras": {"brand": "Lululemon", "fascia": "lululemon", "edit_date": "20250515", "lat_lon_source": "Third Party"}, "lat": -37.912041, "lon": 144.992213, "name": "Brighton", "phone": "(03) 9591 0450", "ref": "50088", "postCode": "3186", "state": null},
﻿{"addr_full": "1341 Dandenong Road", "city": "Melbourne", "country": "AU", "brand": "Lululemon", "extras": {"brand": "Lululemon", "fascia": "lululemon", "edit_date": "20250515", "lat_lon_source": "Third Party"}, "lat": -37.886547, "lon": 145.083108, "name": "Chadstone Shopping Centre", "phone": "(03) 9568 7191", "ref": "50067", "postCode": "3148", "state": null},
﻿{"addr_full": "619 Doncaster Rd", "city": "Melbourne", "country": "AU", "brand": "Lululemon", "extras": {"brand": "Lululemon", "fascia": "lululemon", "edit_date": "20250515", "lat_lon_source": "Third Party"}, "lat": -37.787117, "lon": 145.126144, "name": "Doncaster", "phone": "(03) 9840 1524", "ref": "50054", "postCode": "3108", "state": null},
﻿{"addr_full": "250 Centre Dandenong Road", "city": "Melbourne", "country": "AU", "brand": "Lululemon", "extras": {"brand": "Lululemon", "fascia": "lululemon", "edit_date": "20250515", "lat_lon_source": "Third Party"}, "lat": -37.96984, "lon": 145.087626, "name": "Moorabbin Factory Outlet", "phone": "(03) 9583 7583", "ref": "50047", "postCode": "3194", "state": null},
﻿{"addr_full": "36 Ocean Beach Road", "city": "Melbourne", "country": "AU", "brand": "Lululemon", "extras": {"brand": "Lululemon", "fascia": "lululemon", "edit_date": "20250515", "lat_lon_source": "Third Party"}, "lat": -38.33888, "lon": 144.740354, "name": "Sorrento", "phone": "(03) 5984 2658", "ref": "50070", "postCode": "3943", "state": null},
﻿{"addr_full": "600 Kingsway", "city": "Wollongong", "country": "AU", "brand": "Lululemon", "extras": {"brand": "Lululemon", "fascia": "lululemon", "edit_date": "20250515", "lat_lon_source": "Third Party"}, "lat": -34.035467, "lon": 151.100631, "name": "Miranda", "phone": "(02) 9524 8743", "ref": "50113", "postCode": "2228", "state": null},
﻿{"addr_full": "The Mill", "city": "Wollongong", "country": "AU", "brand": "Lululemon", "extras": {"brand": "Lululemon", "fascia": "lululemon", "edit_date": "20250515", "lat_lon_source": "Third Party"}, "lat": -33.911541, "lon": 151.194007, "name": "Alexandria Outlet", "phone": "(02) 9310 5661", "ref": "50596", "postCode": "2015", "state": null},
﻿{"addr_full": "500 Oxford St", "city": "Wollongong", "country": "AU", "brand": "Lululemon", "extras": {"brand": "Lululemon", "fascia": "lululemon", "edit_date": "20250515", "lat_lon_source": "Third Party"}, "lat": -33.891669, "lon": 151.25027, "name": "Bondi Junction", "phone": "(02) 9388 9893", "ref": "50071", "postCode": "2022", "state": null},
﻿{"addr_full": "Pitt St & Market St", "city": "Wollongong", "country": "AU", "brand": "Lululemon", "extras": {"brand": "Lululemon", "fascia": "lululemon", "edit_date": "20250515", "lat_lon_source": "Third Party"}, "lat": -33.869755, "lon": 151.208608, "name": "Westfield Sydney City", "phone": "(02) 9221 9846", "ref": "50110", "postCode": "2000", "state": null},
﻿{"addr_full": "301 George St", "city": "Wollongong", "country": "AU", "brand": "Lululemon", "extras": {"brand": "Lululemon", "fascia": "lululemon", "edit_date": "20250515", "lat_lon_source": "Third Party"}, "lat": -33.865725, "lon": 151.207014, "name": "Brookfield Place", "phone": "02 9262 5104", "ref": "50058", "postCode": "2000", "state": null},
﻿{"addr_full": "892 Military Road", "city": "Wollongong", "country": "AU", "brand": "Lululemon", "extras": {"brand": "Lululemon", "fascia": "lululemon", "edit_date": "20250515", "lat_lon_source": "Third Party"}, "lat": -33.828184, "lon": 151.244408, "name": "Mosman", "phone": "(02) 9960 1238", "ref": "50055", "postCode": "2088", "state": null},
﻿{"addr_full": "Herring Rd & Waterloo Rd", "city": "Wollongong", "country": "AU", "brand": "Lululemon", "extras": {"brand": "Lululemon", "fascia": "lululemon", "edit_date": "20250515", "lat_lon_source": "Third Party"}, "lat": -33.7772, "lon": 151.12412, "name": "Macquarie Centre", "phone": "(02) 9888 6689", "ref": "50109", "postCode": "2113", "state": null},
﻿{"addr_full": "145 Old Pittwater Rd", "city": "Wollongong", "country": "AU", "brand": "Lululemon", "extras": {"brand": "Lululemon", "fascia": "lululemon", "edit_date": "20250515", "lat_lon_source": "Third Party"}, "lat": -33.768687, "lon": 151.265614, "name": "Warringah", "phone": "(02) 9907 4128", "ref": "50051", "postCode": "2100", "state": null},
﻿{"addr_full": "Westfield Kotara", "city": "Wollongong", "country": "AU", "brand": "Lululemon", "extras": {"brand": "Lululemon", "fascia": "lululemon", "edit_date": "20250515", "lat_lon_source": "Third Party"}, "lat": -32.941652, "lon": 151.711222, "name": "Kotara", "phone": "02 4957 1068", "ref": "50116", "postCode": "2289", "state": null},
﻿{"addr_full": "Canberra Centre 148 Bunda Street", "city": "Wollongong", "country": "AU", "brand": "Lululemon", "extras": {"brand": "Lululemon", "fascia": "lululemon", "edit_date": "20250515", "lat_lon_source": "Third Party"}, "lat": -35.280509, "lon": 149.133172, "name": "Canberra", "phone": "(02) 6230 0610", "ref": "50089", "postCode": "2608", "state": null},
﻿{"addr_full": "188-194 Albert St", "city": "Carindale", "country": "AU", "brand": "Lululemon", "extras": {"brand": "Lululemon", "fascia": "lululemon", "edit_date": "20250515", "lat_lon_source": "Third Party"}, "lat": -27.470021, "lon": 153.025374, "name": "Albert St", "phone": "(07) 32112530", "ref": "50103", "postCode": "4000", "state": null},
﻿{"addr_full": "322 Moggill Road", "city": "Carindale", "country": "AU", "brand": "Lululemon", "extras": {"brand": "Lululemon", "fascia": "lululemon", "edit_date": "20250515", "lat_lon_source": "Third Party"}, "lat": -27.499399, "lon": 152.972794, "name": "Indooroopilly", "phone": "(07) 3720 1889", "ref": "50101", "postCode": "4068", "state": null},
﻿{"addr_full": "Westfield Geelong, Shop 105/6/7,", "city": "Melbourne", "country": "AU", "brand": "Lululemon", "extras": {"brand": "Lululemon", "fascia": "lululemon", "edit_date": "20250515", "lat_lon_source": "Third Party"}, "lat": -38.147284, "lon": 144.362275, "name": "Geelong", "phone": "(03) 5229 1927", "ref": "50114", "postCode": "3220", "state": null},
﻿{"addr_full": "TENANCY 10-11 CAT & FIDDLE ARCADE", "city": "Hobart", "country": "AU", "brand": "Lululemon", "extras": {"brand": "Lululemon", "fascia": "lululemon", "edit_date": "20250515", "lat_lon_source": "Third Party"}, "lat": -42.882937, "lon": 147.326687, "name": "Hobart", "phone": "(03) 6231 1406", "ref": "50084", "postCode": "7000", "state": null},
﻿{"addr_full": "200 Murray St", "city": "Perth", "country": "AU", "brand": "Lululemon", "extras": {"brand": "Lululemon", "fascia": "lululemon", "edit_date": "20250515", "lat_lon_source": "Third Party"}, "lat": -31.952569, "lon": 115.859862, "name": "Forrest Chase", "phone": "(08) 9202 1422", "ref": "50065", "postCode": "6000", "state": null},
﻿{"addr_full": "9 Bayview Terrace", "city": "Perth", "country": "AU", "brand": "Lululemon", "extras": {"brand": "Lululemon", "fascia": "lululemon", "edit_date": "20250515", "lat_lon_source": "Third Party"}, "lat": -31.982035, "lon": 115.780766, "name": "Claremont", "phone": "(08) 9384 9550", "ref": "50106", "postCode": "6010", "state": null},
﻿{"addr_full": "125 Riseley Street", "city": "Perth", "country": "AU", "brand": "Lululemon", "extras": {"brand": "Lululemon", "fascia": "lululemon", "edit_date": "20250515", "lat_lon_source": "Third Party"}, "lat": -32.03424, "lon": 115.836512, "name": "Booragoon", "phone": "(08) 9316 1734", "ref": "50091", "postCode": "6154", "state": null},
﻿{"addr_full": "200 Karrinyup Rd", "city": "Perth", "country": "AU", "brand": "Lululemon", "extras": {"brand": "Lululemon", "fascia": "lululemon", "edit_date": "20250515", "lat_lon_source": "Third Party"}, "lat": -31.878155, "lon": 115.779182, "name": "Karrinyup", "phone": "(08) 9204 1144", "ref": "50081", "postCode": "6018", "state": null},
﻿{"addr_full": "188-194 Albert St", "city": "Gold Coast", "country": "AU", "brand": "Lululemon", "extras": {"brand": "Lululemon", "fascia": "lululemon", "edit_date": "20250515", "lat_lon_source": "Third Party"}, "lat": -27.470021, "lon": 153.025374, "name": "Albert St", "phone": "(07) 32112530", "ref": "50103", "postCode": "4000", "state": null},
﻿{"addr_full": "322 Moggill Road", "city": "Gold Coast", "country": "AU", "brand": "Lululemon", "extras": {"brand": "Lululemon", "fascia": "lululemon", "edit_date": "20250515", "lat_lon_source": "Third Party"}, "lat": -27.499399, "lon": 152.972794, "name": "Indooroopilly", "phone": "(07) 3720 1889", "ref": "50101", "postCode": "4068", "state": null},
﻿{"addr_full": "77-91 Rundle Mall", "city": "Adelaide", "country": "AU", "brand": "Lululemon", "extras": {"brand": "Lululemon", "fascia": "lululemon", "edit_date": "20250515", "lat_lon_source": "Third Party"}, "lat": -34.922372, "lon": 138.60315, "name": "Rundle Mall", "phone": "(08) 8225 6039", "ref": "50108", "postCode": "5000", "state": null},
﻿{"addr_full": "447 Portrush Rd", "city": "Adelaide", "country": "AU", "brand": "Lululemon", "extras": {"brand": "Lululemon", "fascia": "lululemon", "edit_date": "20250515", "lat_lon_source": "Third Party"}, "lat": -34.941417, "lon": 138.641803, "name": "Burnside", "phone": "(08) 8379 8796", "ref": "50104", "postCode": "5065", "state": null},
﻿{"addr_full": "Westfield Marion, 297 Diagonal Road", "city": "Adelaide", "country": "AU", "brand": "Lululemon", "extras": {"brand": "Lululemon", "fascia": "lululemon", "edit_date": "20250515", "lat_lon_source": "Third Party"}, "lat": -35.016019, "lon": 138.545513, "name": "Marion", "phone": "(08) 8298 2034", "ref": "50115", "postCode": "5046", "state": null}
]